geonameid,name,asciiname,lat,lon,iso_a2,iso_a3,country_name,population,is_capital,feature_code,timezone,elevation,dem
3577154,Oranjestad,Oranjestad,12.52398,-70.02703,AW,ABW,Aruba,29998,True,PPLC,America/Aruba,5,22
3577159,Noord,Noord,12.56596,-70.03198,AW,ABW,Aruba,24193,False,PPL,America/Aruba,,11
3577072,Tanki Leendert,Tanki Leendert,12.53914,-70.02004,AW,ABW,Aruba,21500,False,PPL,America/Aruba,,26
3577089,San Nicolas,San Nicolas,12.43624,-69.90713,AW,ABW,Aruba,15200,False,PPL,America/Aruba,,14
1138958,Kabul,Kabul,34.52813,69.17233,AF,AFG,Afghanistan,4434550,True,PPLC,Asia/Kabul,,1798
1140026,Herāt,Herat,34.34817,62.19967,AF,AFG,Afghanistan,574300,False,PPLA,Asia/Kabul,,927
1133616,Mazār-e Sharīf,Mazar-e Sharif,36.70904,67.11087,AF,AFG,Afghanistan,523300,False,PPLA,Asia/Kabul,,361
1138336,Kandahār,Kandahar,31.61332,65.71013,AF,AFG,Afghanistan,523300,False,PPLA,Asia/Kabul,,1007
1139715,Jalālābād,Jalalabad,34.42647,70.45153,AF,AFG,Afghanistan,271900,False,PPLA,Asia/Kabul,,575
1135689,Kunduz,Kunduz,36.72895,68.857,AF,AFG,Afghanistan,161902,False,PPLA,Asia/Kabul,,402
1141269,Ghazni,Ghazni,33.55391,68.42096,AF,AFG,Afghanistan,141000,False,PPLA,Asia/Kabul,,2179
1147290,Balkh,Balkh,36.75635,66.8972,AF,AFG,Afghanistan,114883,False,PPLA2,Asia/Kabul,,348
1147540,Baghlān,Baghlan,36.13068,68.70829,AF,AFG,Afghanistan,108449,False,PPLA2,Asia/Kabul,,531
1141857,Gardez,Gardez,33.59744,69.22592,AF,AFG,Afghanistan,103601,False,PPLA,Asia/Kabul,,2308
2240449,Luanda,Luanda,-8.83682,13.23432,AO,AGO,Angola,2776168,True,PPLC,Africa/Luanda,,73
3347762,Lubango,Lubango,-14.91717,13.4925,AO,AGO,Angola,600751,False,PPLA,Africa/Luanda,,1760
3348313,Huambo,Huambo,-12.77611,15.73917,AO,AGO,Angola,595304,False,PPLA,Africa/Luanda,,1716
3351663,Benguela,Benguela,-12.57674,13.40268,AO,AGO,Angola,555124,False,PPLA,Africa/Luanda,,30
2243271,Cabinda,Cabinda,-5.56198,12.19476,AO,AGO,Angola,550000,False,PPLA,Africa/Luanda,,1
2591976,Talatona,Talatona,-8.91783,13.18562,AO,AGO,Angola,500000,False,PPL,Africa/Luanda,,56
2239862,Malanje,Malanje,-9.54015,16.34096,AO,AGO,Angola,455000,False,PPLA,Africa/Luanda,,1134
2591949,Cazenga,Cazenga,-8.82488,13.31318,AO,AGO,Angola,424528,False,PPL,Africa/Luanda,,77
145531,Saurimo,Saurimo,-9.66078,20.39155,AO,AGO,Angola,393000,False,PPLA,Africa/Luanda,,1071
10627325,Ingombota,Ingombota,-8.81806,13.22889,AO,AGO,Angola,370000,False,PPLX,Africa/Luanda,,32
3573374,The Valley,The Valley,18.21704,-63.05783,AI,AIA,Anguilla,2035,True,PPLC,America/Anguilla,7,19
3041732,Mariehamn,Mariehamn,60.09726,19.93481,AX,ALA,Åland Islands,10682,True,PPLC,Europe/Mariehamn,,11
3183875,Tirana,Tirana,41.32744,19.81866,AL,ALB,Albania,418495,True,PPLC,Europe/Tirane,,113
3185728,Durrës,Durres,41.32355,19.45469,AL,ALB,Albania,195920,False,PPLA,Europe/Tirane,,0
3183719,Vlorë,Vlore,40.4696,19.48379,AL,ALB,Albania,115261,False,PPLA,Europe/Tirane,,58
783263,Elbasan,Elbasan,41.11138,20.08224,AL,ALB,Albania,100903,False,PPLA,Europe/Tirane,,126
3184081,Shkodër,Shkoder,42.06828,19.51258,AL,ALB,Albania,95553,False,PPLA,Europe/Tirane,,12
3184862,Lushnjë,Lushnje,40.94194,19.705,AL,ALB,Albania,63135,False,PPLA2,Europe/Tirane,,22
3186084,Berat,Berat,40.70583,19.95222,AL,ALB,Albania,62232,False,PPLA,Europe/Tirane,,66
3185670,Fier-Çifçi,Fier-Cifci,40.71667,19.56667,AL,ALB,Albania,60995,False,PPLX,Europe/Tirane,,17
782756,Korçë,Korce,40.61861,20.78083,AL,ALB,Albania,58259,False,PPLA,Europe/Tirane,,869
3185672,Fier,Fier,40.7251,19.55823,AL,ALB,Albania,56297,False,PPLA,Europe/Tirane,,28
3041563,Andorra la Vella,Andorra la Vella,42.50779,1.52109,AD,AND,Andorra,20430,True,PPLC,Europe/Andorra,,1037
3040051,les Escaldes,les Escaldes,42.50729,1.53414,AD,AND,Andorra,15853,False,PPLA,Europe/Andorra,,1033
292223,Dubai,Dubai,25.07725,55.30927,AE,ARE,United Arab Emirates,3790000,False,PPLA,Asia/Dubai,,24
292968,Abu Dhabi,Abu Dhabi,24.45118,54.39696,AE,ARE,United Arab Emirates,1807000,True,PPLC,Asia/Dubai,,6
292672,Sharjah,Sharjah,25.3342,55.41221,AE,ARE,United Arab Emirates,1800000,False,PPLA,Asia/Dubai,,15
292913,Al Ain City,Al Ain City,24.19167,55.76056,AE,ARE,United Arab Emirates,846747,False,PPL,Asia/Dubai,,275
292932,Ajman,Ajman,25.40177,55.47878,AE,ARE,United Arab Emirates,490035,False,PPLA,Asia/Dubai,,2
292261,Dayrah,Dayrah,25.27143,55.30207,AE,ARE,United Arab Emirates,400000,False,PPLX,Asia/Dubai,,10
291074,Ras Al Khaimah,Ras Al Khaimah,25.78953,55.9432,AE,ARE,United Arab Emirates,351943,False,PPLA,Asia/Dubai,,2
12042053,Musaffah,Musaffah,24.35893,54.48267,AE,ARE,United Arab Emirates,243341,False,PPL,Asia/Dubai,,7
11524601,Jebel Ali,Jebel Ali,25.00255,55.10811,AE,ARE,United Arab Emirates,210000,False,PPL,Asia/Dubai,,5
13118432,Business Bay,Business Bay,25.18544,55.26969,AE,ARE,United Arab Emirates,191000,False,PPLX,Asia/Dubai,,16
3435910,Buenos Aires,Buenos Aires,-34.61315,-58.37723,AR,ARG,Argentina,2891082,True,PPLC,America/Argentina/Buenos_Aires,,31
3860259,Córdoba,Cordoba,-31.40648,-64.18853,AR,ARG,Argentina,2106734,False,PPLA,America/Argentina/Cordoba,,378
3838583,Rosario,Rosario,-32.94682,-60.63932,AR,ARG,Argentina,948312,False,PPLA2,America/Argentina/Cordoba,,38
3430863,Mar del Plata,Mar del Plata,-38.00042,-57.5562,AR,ARG,Argentina,593337,False,PPLA2,America/Argentina/Buenos_Aires,,14
3836873,San Miguel de Tucumán,San Miguel de Tucuman,-26.81601,-65.21051,AR,ARG,Argentina,548866,False,PPLA,America/Argentina/Tucuman,,440
3838233,Salta,Salta,-24.80645,-65.41999,AR,ARG,Argentina,520683,False,PPLA,America/Argentina/Salta,,1054
3836277,Santa Fe,Santa Fe,-31.64881,-60.70868,AR,ARG,Argentina,391164,False,PPLA,America/Argentina/Cordoba,,21
3435217,Corrientes,Corrientes,-27.46784,-58.8344,AR,ARG,Argentina,346334,False,PPLA,America/Argentina/Cordoba,,63
3429886,Posadas,Posadas,-27.39184,-55.92379,AR,ARG,Argentina,305874,False,PPLA,America/Argentina/Cordoba,83,108
3865086,Bahía Blanca,Bahia Blanca,-38.7176,-62.26545,AR,ARG,Argentina,299101,False,PPLA2,America/Argentina/Buenos_Aires,,20
616052,Yerevan,Yerevan,40.17765,44.5126,AM,ARM,Armenia,1144700,True,PPLC,Asia/Yerevan,,1002
7670934,Malatia-Sebastia,Malatia-Sebastia,40.17396,44.4457,AM,ARM,Armenia,150500,False,PPLX,Asia/Yerevan,,943
11111027,Shengavit,Shengavit,40.1557,44.4779,AM,ARM,Armenia,140600,False,PPLX,Asia/Yerevan,,930
866153,Nor Nork,Nor Nork,40.19661,44.5669,AM,ARM,Armenia,137300,False,PPLX,Asia/Yerevan,,1302
7670941,Kentron,Kentron,40.17806,44.51303,AM,ARM,Armenia,133000,False,PPLX,Asia/Yerevan,,997
866152,Erebuni,Erebuni,40.13309,44.53009,AM,ARM,Armenia,129700,False,PPLX,Asia/Yerevan,,1005
866164,Ajapnyak,Ajapnyak,40.19917,44.47056,AM,ARM,Armenia,122800,False,PPLX,Asia/Yerevan,,1061
13156582,Arabkir,Arabkir,40.20624,44.50365,AM,ARM,Armenia,119300,False,PPLX,Asia/Yerevan,,1157
616635,Gyumri,Gyumri,40.79305,43.84635,AM,ARM,Armenia,114667,False,PPLA,Asia/Yerevan,,1553
616530,Vanadzor,Vanadzor,40.8074,44.49704,AM,ARM,Armenia,78100,False,PPLA,Asia/Yerevan,,1368
5881576,Pago Pago,Pago Pago,-14.27806,-170.7025,AS,ASM,American Samoa,11500,True,PPLC,Pacific/Pago_Pago,2,144
1546102,Port-aux-Français,Port-aux-Francais,-49.34916,70.21937,TF,ATF,French Southern and Antarctic Lands,45,True,PPLC,Indian/Kerguelen,,11
3576022,Saint John’s,Saint John's,17.12096,-61.84329,AG,ATG,Antigua and Barbuda,51737,True,PPLC,America/Antigua,,12
2147714,Sydney,Sydney,-33.86785,151.20732,AU,AUS,Australia,5557233,False,PPLA,Australia/Sydney,,58
2158177,Melbourne,Melbourne,-37.814,144.96332,AU,AUS,Australia,5350705,False,PPLA,Australia/Melbourne,,25
2174003,Brisbane,Brisbane,-27.46794,153.02809,AU,AUS,Australia,2780063,False,PPLA,Australia/Brisbane,,27
2063523,Perth,Perth,-31.95224,115.8614,AU,AUS,Australia,2309338,False,PPLA,Australia/Perth,,34
2078025,Adelaide,Adelaide,-34.92866,138.59863,AU,AUS,Australia,1469163,False,PPLA,Australia/Adelaide,,59
2165087,Gold Coast,Gold Coast,-28.00029,153.43088,AU,AUS,Australia,640778,False,PPL,Australia/Brisbane,,12
2155472,Newcastle,Newcastle,-32.92953,151.7801,AU,AUS,Australia,508437,False,PPLA2,Australia/Sydney,,48
2172517,Canberra,Canberra,-35.28346,149.12807,AU,AUS,Australia,367752,True,PPLC,Australia/Sydney,,571
8310663,Central Coast,Central Coast,-33.42979,151.37144,AU,AUS,Australia,346596,False,PPL,Australia/Sydney,,15
10630449,Sunshine Coast,Sunshine Coast,-26.65682,153.07955,AU,AUS,Australia,346522,False,PPLA2,Australia/Brisbane,,9
2761369,Vienna,Vienna,48.20849,16.37208,AT,AUT,Austria,1691468,True,PPLC,Europe/Vienna,171,193
2778067,Graz,Graz,47.06733,15.44197,AT,AUT,Austria,303270,False,PPLA,Europe/Vienna,,362
2772400,Linz,Linz,48.30639,14.28611,AT,AUT,Austria,204846,False,PPLA,Europe/Vienna,266,268
8063098,Favoriten,Favoriten,48.16116,16.38233,AT,AUT,Austria,201882,False,PPLX,Europe/Vienna,,236
11903636,Donaustadt,Donaustadt,48.2333,16.46002,AT,AUT,Austria,187007,False,PPLX,Europe/Vienna,,155
2779469,Floridsdorf,Floridsdorf,48.25,16.4,AT,AUT,Austria,162779,False,PPLX,Europe/Vienna,,159
2766824,Salzburg,Salzburg,47.79941,13.04399,AT,AUT,Austria,157245,False,PPLA,Europe/Vienna,424,435
2775220,Innsbruck,Innsbruck,47.26266,11.39454,AT,AUT,Austria,132493,False,PPLA,Europe/Vienna,570,587
2769359,Ottakring,Ottakring,48.21667,16.3,AT,AUT,Austria,104627,False,PPLX,Europe/Vienna,,247
2765028,Simmering,Simmering,48.18333,16.43333,AT,AUT,Austria,101420,False,PPLX,Europe/Vienna,,163
587084,Baku,Baku,40.37767,49.89201,AZ,AZE,Azerbaijan,1116513,True,PPLC,Asia/Baku,,-23
584923,Sumqayıt,Sumqayit,40.58972,49.66861,AZ,AZE,Azerbaijan,358675,False,PPLA,Asia/Baku,,-11
586523,Ganja,Ganja,40.68157,46.36134,AZ,AZE,Azerbaijan,335600,False,PPLA,Asia/Baku,,409
147622,Lankaran,Lankaran,38.75428,48.85062,AZ,AZE,Azerbaijan,240300,False,PPLA,Asia/Baku,,-22
584821,Tovuz,Tovuz,40.99249,45.62838,AZ,AZE,Azerbaijan,177200,False,PPLA,Asia/Baku,,421
584649,Yevlakh,Yevlakh,40.61832,47.15014,AZ,AZE,Azerbaijan,127400,False,PPLA,Asia/Baku,,17
585514,Mingachevir,Mingachevir,40.76422,47.06227,AZ,AZE,Azerbaijan,106048,False,PPLA,Asia/Baku,,26
147429,Naxçıvan,Naxcivan,39.20889,45.41222,AZ,AZE,Azerbaijan,97200,False,PPLA,Asia/Baku,,887
585103,Qaraçuxur,Qaracuxur,40.39667,49.97361,AZ,AZE,Azerbaijan,87349,False,PPL,Asia/Baku,,51
147611,Lerik,Lerik,38.77388,48.41497,AZ,AZE,Azerbaijan,87000,False,PPLA,Asia/Baku,,1094
425378,Bujumbura,Bujumbura,-3.38193,29.36142,BI,BDI,Burundi,769317,False,PPLA,Africa/Bujumbura,,807
426272,Gitega,Gitega,-3.42708,29.92463,BI,BDI,Burundi,64904,True,PPLC,Africa/Bujumbura,,1684
430569,Ngozi,Ngozi,-2.9075,29.8306,BI,BDI,Burundi,61716,False,PPLA,Africa/Bujumbura,,1824
428632,Mpanda,Mpanda,-3.1703,29.4026,BI,BDI,Burundi,58913,False,PPL,Africa/Bujumbura,,876
423549,Rumonge,Rumonge,-3.9736,29.4386,BI,BDI,Burundi,55599,False,PPLA,Africa/Bujumbura,,790
430021,Cibitoke,Cibitoke,-2.8869,29.1248,BI,BDI,Burundi,36959,False,PPLA,Africa/Bujumbura,,937
430952,Kayanza,Kayanza,-2.9221,29.6293,BI,BDI,Burundi,33682,False,PPLA,Africa/Bujumbura,,1918
427204,Cendajuru,Cendajuru,-3.289,30.6011,BI,BDI,Burundi,32458,False,PPL,Africa/Bujumbura,,1369
428515,Bubanza,Bubanza,-3.0804,29.391,BI,BDI,Burundi,30996,False,PPLA,Africa/Bujumbura,,1079
421930,Vyanda,Vyanda,-4.1024,29.606,BI,BDI,Burundi,29685,False,PPL,Africa/Bujumbura,,1859
2800866,Brussels,Brussels,50.85045,4.34878,BE,BEL,Belgium,1019022,True,PPLC,Europe/Brussels,,28
2803138,Antwerpen,Antwerpen,51.22047,4.40026,BE,BEL,Belgium,529247,False,PPL,Europe/Brussels,,13
2797656,Gent,Gent,51.05,3.71667,BE,BEL,Belgium,265086,False,PPL,Europe/Brussels,,10
2800481,Charleroi,Charleroi,50.41136,4.44448,BE,BEL,Belgium,200132,False,PPL,Europe/Brussels,,136
2792413,Liège,Liege,50.63373,5.56749,BE,BEL,Belgium,195278,False,PPL,Europe/Brussels,,66
2803201,Anderlecht,Anderlecht,50.83619,4.31454,BE,BEL,Belgium,160553,False,PPLA4,Europe/Brussels,,27
2787149,Schaerbeek,Schaerbeek,50.86935,4.37737,BE,BEL,Belgium,132761,False,PPL,Europe/Brussels,,29
2800931,Brugge,Brugge,51.20892,3.22424,BE,BEL,Belgium,118509,False,PPL,Europe/Brussels,,13
2790471,Namur,Namur,50.4669,4.86746,BE,BEL,Belgium,110939,False,PPLA,Europe/Brussels,,88
2792482,Leuven,Leuven,50.87959,4.70093,BE,BEL,Belgium,101032,False,PPL,Europe/Brussels,,28
2394819,Cotonou,Cotonou,6.36536,2.41833,BJ,BEN,Benin,679012,True,PPLG,Africa/Porto-Novo,,7
2395914,Abomey-Calavi,Abomey-Calavi,6.44852,2.35566,BJ,BEN,Benin,385755,False,PPL,Africa/Porto-Novo,,11
2392087,Porto-Novo,Porto-Novo,6.49646,2.60359,BJ,BEN,Benin,264320,True,PPLC,Africa/Porto-Novo,,20
2392204,Parakou,Parakou,9.33716,2.63031,BJ,BEN,Benin,255478,False,PPLA,Africa/Porto-Novo,,369
2394092,Godomè,Godome,6.38948,2.34581,BJ,BEN,Benin,253262,False,PPL,Africa/Porto-Novo,,8
2395915,Abomey,Abomey,7.18286,1.99119,BJ,BEN,Benin,117824,False,PPLA,Africa/Porto-Novo,,228
2394560,Djougou,Djougou,9.70853,1.66598,BJ,BEN,Benin,94773,False,PPLA,Africa/Porto-Novo,,444
2395049,Bohicon,Bohicon,7.17826,2.0667,BJ,BEN,Benin,93744,False,PPLA2,Africa/Porto-Novo,,166
2394427,Ekpé,Ekpe,6.39209,2.53725,BJ,BEN,Benin,75313,False,PPL,Africa/Porto-Novo,,9
2392505,Nikki,Nikki,9.94009,3.21075,BJ,BEN,Benin,66109,False,PPL,Africa/Porto-Novo,,403
3513563,Kralendijk,Kralendijk,12.15,-68.26667,BQ,BES,Caribbean Netherlands,10620,True,PPLC,America/Kralendijk,,4
2357048,Ouagadougou,Ouagadougou,12.36566,-1.53388,BF,BFA,Burkina Faso,2415266,True,PPLC,Africa/Ouagadougou,,299
2362344,Bobo-Dioulasso,Bobo-Dioulasso,11.18064,-4.29489,BF,BFA,Burkina Faso,904920,False,PPLA,Africa/Ouagadougou,,453
2358946,Koudougou,Koudougou,12.25188,-2.36694,BF,BFA,Burkina Faso,160239,False,PPLA,Africa/Ouagadougou,,281
2356157,Saaba,Saaba,12.37136,-1.41468,BF,BFA,Burkina Faso,136011,False,PPLA3,Africa/Ouagadougou,,305
2357043,Ouahigouya,Ouahigouya,13.5769,-2.41786,BF,BFA,Burkina Faso,124587,False,PPLA,Africa/Ouagadougou,,317
2359608,Kaya,Kaya,13.0883,-1.08368,BF,BFA,Burkina Faso,121970,False,PPLA,Africa/Ouagadougou,,366
2362909,Banfora,Banfora,10.64064,-4.75285,BF,BFA,Burkina Faso,117452,False,PPLA,Africa/Ouagadougou,,304
2356300,Pouytenga,Pouytenga,12.25162,-0.42565,BF,BFA,Burkina Faso,96469,False,PPL,Africa/Ouagadougou,,318
2360073,Houndé,Hounde,11.5,-3.51667,BF,BFA,Burkina Faso,87151,False,PPLA2,Africa/Ouagadougou,,349
2360886,Fada N'gourma,Fada N'gourma,12.06157,0.35843,BF,BFA,Burkina Faso,73200,False,PPLA,Africa/Ouagadougou,,298
1185241,Dhaka,Dhaka,23.7104,90.40744,BD,BGD,Bangladesh,10356500,True,PPLC,Asia/Dhaka,,23
1205733,Chattogram,Chattogram,22.3384,91.83168,BD,BGD,Bangladesh,3920222,False,PPLA,Asia/Dhaka,,15
1200109,Gazipur,Gazipur,23.99844,90.42234,BD,BGD,Bangladesh,2674697,False,PPLA2,Asia/Dhaka,,12
1336135,Khulna,Khulna,22.80979,89.56439,BD,BGD,Bangladesh,1500689,False,PPLA,Asia/Dhaka,,8
1185188,Rangpur,Rangpur,25.74664,89.25166,BD,BGD,Bangladesh,1031388,False,PPLA,Asia/Dhaka,,36
1185186,Comilla,Comilla,23.46186,91.18503,BD,BGD,Bangladesh,1030000,False,PPL,Asia/Dhaka,,17
1185128,Rajshahi,Rajshahi,24.374,88.60114,BD,BGD,Bangladesh,763580,False,PPLA,Asia/Dhaka,,23
7696679,Pallabi,Pallabi,23.825,90.37,BD,BGD,Bangladesh,597574,False,PPLX,Asia/Dhaka,,14
11395976,Mirpur Model Thana,Mirpur Model Thana,23.80931,90.36093,BD,BGD,Bangladesh,546503,False,PPLX,Asia/Dhaka,,24
1194041,Mohammadpur,Mohammadpur,24.89843,88.52844,BD,BGD,Bangladesh,527571,False,PPL,Asia/Dhaka,,40
727011,Sofia,Sofia,42.69751,23.32415,BG,BGR,Bulgaria,1152556,True,PPLC,Europe/Sofia,,562
728193,Plovdiv,Plovdiv,42.15387,24.75001,BG,BGR,Bulgaria,329489,False,PPLA,Europe/Sofia,,163
726050,Varna,Varna,43.21912,27.91024,BG,BGR,Bulgaria,318737,False,PPLA,Europe/Sofia,,83
732770,Burgas,Burgas,42.50651,27.46886,BG,BGR,Bulgaria,210646,False,PPLA,Europe/Sofia,,36
726848,Stara Zagora,Stara Zagora,42.43205,25.64262,BG,BGR,Bulgaria,121582,False,PPLA,Europe/Sofia,,205
727523,Ruse,Ruse,43.84872,25.9534,BG,BGR,Bulgaria,121168,False,PPLA,Europe/Sofia,,39
728203,Pleven,Pleven,43.41791,24.61666,BG,BGR,Bulgaria,90209,False,PPLA,Europe/Sofia,,89
727079,Sliven,Sliven,42.68607,26.32558,BG,BGR,Bulgaria,83740,False,PPLA,Europe/Sofia,,281
728330,Pernik,Pernik,42.59671,23.03318,BG,BGR,Bulgaria,82467,False,PPLA,Europe/Sofia,,751
727233,Shumen,Shumen,43.27064,26.92286,BG,BGR,Bulgaria,72342,False,PPLA,Europe/Sofia,,237
290332,Al Muharraq,Al Muharraq,26.25722,50.61194,BH,BHR,Bahrain,176583,False,PPL,Asia/Bahrain,,7
290340,Manama,Manama,26.22787,50.58565,BH,BHR,Bahrain,147074,True,PPLC,Asia/Bahrain,,12
290247,Madīnat Ḩamad,Madinat Hamad,26.11528,50.50694,BH,BHR,Bahrain,133550,False,PPL,Asia/Bahrain,,35
385038,Ar Rifā‘,Ar Rifa',26.13,50.555,BH,BHR,Bahrain,115495,False,PPL,Asia/Bahrain,,43
290104,Sitrah,Sitrah,26.15472,50.62056,BH,BHR,Bahrain,72601,False,PPL,Asia/Bahrain,,5
290215,Jidd Ḩafş,Jidd Hafs,26.21861,50.54778,BH,BHR,Bahrain,66588,False,PPL,Asia/Bahrain,,6
290269,Dār Kulayb,Dar Kulayb,26.06861,50.50389,BH,BHR,Bahrain,65466,False,PPL,Asia/Bahrain,,10
290187,Madīnat ‘Īsá,Madinat `Isa,26.17361,50.54778,BH,BHR,Bahrain,38090,False,PPL,Asia/Bahrain,,7
3571824,Nassau,Nassau,25.05823,-77.34306,BS,BHS,Bahamas,227940,True,PPLC,America/Nassau,,5
3571971,Lucaya,Lucaya,26.53333,-78.66667,BS,BHS,Bahamas,46525,False,PPL,America/Nassau,,7
3572375,Freeport,Freeport,26.53333,-78.7,BS,BHS,Bahamas,26910,False,PPLA,America/Nassau,,6
3572106,Killarney,Killarney,25.05,-77.41667,BS,BHS,Bahamas,17679,False,PPL,America/Nassau,,6
3191281,Sarajevo,Sarajevo,43.84864,18.35644,BA,BIH,Bosnia and Herzegovina,696731,True,PPLC,Europe/Sarajevo,,509
3204541,Banja Luka,Banja Luka,44.77879,17.20629,BA,BIH,Bosnia and Herzegovina,221106,False,PPLA,Europe/Sarajevo,,151
3186573,Zenica,Zenica,44.20169,17.90397,BA,BIH,Bosnia and Herzegovina,164423,False,PPLA2,Europe/Sarajevo,,325
3188582,Tuzla,Tuzla,44.53842,18.66709,BA,BIH,Bosnia and Herzegovina,142486,False,PPLA2,Europe/Sarajevo,,225
3194828,Mostar,Mostar,43.34333,17.80806,BA,BIH,Bosnia and Herzegovina,104518,False,PPLA2,Europe/Sarajevo,,66
3204222,Bihać,Bihac,44.81694,15.87083,BA,BIH,Bosnia and Herzegovina,75641,False,PPLA2,Europe/Sarajevo,,223
3199145,Ilidža,Ilidza,43.83148,18.30697,BA,BIH,Bosnia and Herzegovina,71277,False,PPLA3,Europe/Sarajevo,,495
3196079,Lukavac,Lukavac,44.54245,18.52618,BA,BIH,Bosnia and Herzegovina,44520,False,PPLA3,Europe/Sarajevo,,194
3203099,Bugojno,Bugojno,44.05722,17.45083,BA,BIH,Bosnia and Herzegovina,41378,False,PPLA3,Europe/Sarajevo,,565
3203521,Brčko,Brcko,44.87162,18.8163,BA,BIH,Bosnia and Herzegovina,38968,False,PPLA,Europe/Sarajevo,,92
3579132,Gustavia,Gustavia,17.89618,-62.84978,BL,BLM,Saint Barthélemy,5988,True,PPLC,America/St_Barthelemy,,6
625144,Minsk,Minsk,53.90019,27.56653,BY,BLR,Belarus,1742124,True,PPLC,Europe/Minsk,,222
627907,Homyel',Homyel',52.4345,30.9754,BY,BLR,Belarus,501102,False,PPLA,Europe/Minsk,,138
627904,Hrodna,Hrodna,53.6758,23.82887,BY,BLR,Belarus,361115,False,PPLA,Europe/Minsk,,142
620127,Vitebsk,Vitebsk,55.1904,30.2049,BY,BLR,Belarus,358395,False,PPLA,Europe/Minsk,,150
625665,Mahilyow,Mahilyow,53.90876,30.34044,BY,BLR,Belarus,353110,False,PPLA,Europe/Minsk,,187
629634,Brest,Brest,52.10894,23.71749,BY,BLR,Belarus,344470,False,PPLA,Europe/Minsk,,144
630468,Bobruysk,Bobruysk,53.14636,29.20552,BY,BLR,Belarus,207351,False,PPLA2,Europe/Minsk,,153
630429,Baranovichi,Baranovichi,53.13253,26.00774,BY,BLR,Belarus,171361,False,PPLA2,Europe/Minsk,,195
630376,Barysaw,Barysaw,54.2279,28.505,BY,BLR,Belarus,135696,False,PPLA2,Europe/Minsk,,172
623549,Pinsk,Pinsk,52.12153,26.06726,BY,BLR,Belarus,124295,False,PPLA2,Europe/Minsk,,148
3582677,Belize City,Belize City,17.49952,-88.19756,BZ,BLZ,Belize,65222,False,PPLA,America/Belize,,6
3581164,San Pedro,San Pedro,17.91598,-87.9659,BZ,BLZ,Belize,17429,False,PPL,America/Belize,,4
3581514,Orange Walk,Orange Walk,18.08124,-88.56328,BZ,BLZ,Belize,15298,False,PPLA,America/Belize,,16
3582672,Belmopan,Belmopan,17.25376,-88.76401,BZ,BLZ,Belize,13381,True,PPLC,America/Belize,,56
3573197,Hamilton,Hamilton,32.2949,-64.78303,BM,BMU,Bermuda,902,True,PPLC,Atlantic/Bermuda,,22
3911925,La Paz,La Paz,-16.5,-68.15,BO,BOL,Bolivia,2004652,True,PPLG,America/La_Paz,,3782
3904906,Santa Cruz de la Sierra,Santa Cruz de la Sierra,-17.78629,-63.18117,BO,BOL,Bolivia,1831434,False,PPLA,America/La_Paz,,433
3919968,Cochabamba,Cochabamba,-17.38195,-66.15995,BO,BOL,Bolivia,841276,False,PPLA,America/La_Paz,,2537
3903987,Sucre,Sucre,-19.03332,-65.26274,BO,BOL,Bolivia,224838,True,PPLC,America/La_Paz,,2798
3909234,Oruro,Oruro,-17.97153,-67.0932,BO,BOL,Bolivia,208684,False,PPLA,America/La_Paz,,3885
3906194,Sacaba,Sacaba,-17.39799,-66.03825,BO,BOL,Bolivia,180726,False,PPL,America/La_Paz,,2710
3906791,Quillacollo,Quillacollo,-17.39228,-66.27838,BO,BOL,Bolivia,172405,False,PPL,America/La_Paz,,2559
3903320,Tarija,Tarija,-21.53549,-64.72956,BO,BOL,Bolivia,159269,False,PPLA,America/La_Paz,,1870
3907584,Potosí,Potosi,-19.58361,-65.75306,BO,BOL,Bolivia,141251,False,PPLA,America/La_Paz,,3967
3906466,Riberalta,Riberalta,-11.01026,-66.05257,BO,BOL,Bolivia,99070,False,PPL,America/La_Paz,,145
3448439,São Paulo,Sao Paulo,-23.5475,-46.63611,BR,BRA,Brazil,12400232,False,PPLA,America/Sao_Paulo,,769
3451190,Rio de Janeiro,Rio de Janeiro,-22.90642,-43.18223,BR,BRA,Brazil,6747815,False,PPLA,America/Sao_Paulo,,12
3470127,Belo Horizonte,Belo Horizonte,-19.92083,-43.93778,BR,BRA,Brazil,2721564,False,PPLA,America/Sao_Paulo,888,872
3450554,Salvador,Salvador,-12.97563,-38.49096,BR,BRA,Brazil,2711840,False,PPLA,America/Bahia,,4
3399415,Fortaleza,Fortaleza,-3.71722,-38.54306,BR,BRA,Brazil,2400000,False,PPLA,America/Fortaleza,,18
3663517,Manaus,Manaus,-3.10194,-60.025,BR,BRA,Brazil,2219580,False,PPLA,America/Manaus,,20
3469058,Brasília,Brasilia,-15.77972,-47.92972,BR,BRA,Brazil,2207718,True,PPLC,America/Sao_Paulo,,1136
3464975,Curitiba,Curitiba,-25.42778,-49.27306,BR,BRA,Brazil,1948626,False,PPLA,America/Sao_Paulo,,924
3390760,Recife,Recife,-8.05389,-34.88111,BR,BRA,Brazil,1653461,False,PPLA,America/Recife,,8
3462377,Goiânia,Goiania,-16.67861,-49.25389,BR,BRA,Brazil,1536097,False,PPLA,America/Sao_Paulo,,766
3405870,Belém,Belem,-1.45583,-48.50444,BR,BRA,Brazil,1499641,False,PPLA,America/Belem,,15
3452925,Porto Alegre,Porto Alegre,-30.03283,-51.23019,BR,BRA,Brazil,1488252,False,PPLA,America/Sao_Paulo,,46
3461786,Guarulhos,Guarulhos,-23.46278,-46.53333,BR,BRA,Brazil,1169577,False,PPL,America/Sao_Paulo,,774
3395981,Maceió,Maceio,-9.66583,-35.73528,BR,BRA,Brazil,1031597,False,PPLA,America/Maceio,,11
3467865,Campinas,Campinas,-22.90556,-47.06083,BR,BRA,Brazil,1031554,False,PPL,America/Sao_Paulo,,686
3374036,Bridgetown,Bridgetown,13.10732,-59.62021,BB,BRB,Barbados,98511,True,PPLC,America/Barbados,,10
1820906,Bandar Seri Begawan,Bandar Seri Begawan,4.89035,114.94006,BN,BRN,Brunei,64409,True,PPLC,Asia/Brunei,,10
1820575,Sengkurong,Sengkurong,4.88333,114.83333,BN,BRN,Brunei,40972,False,PPL,Asia/Brunei,,14
1820635,Mentiri,Mentiri,4.97058,115.02078,BN,BRN,Brunei,39324,False,PPL,Asia/Brunei,,8
1820491,Kuala Belait,Kuala Belait,4.58361,114.2312,BN,BRN,Brunei,31178,False,PPLA,Asia/Brunei,,5
1820187,Seria,Seria,4.60637,114.32476,BN,BRN,Brunei,30097,False,PPL,Asia/Brunei,,6
1820071,Tutong,Tutong,4.80278,114.64917,BN,BRN,Brunei,19151,False,PPLA,Asia/Brunei,,8
1820574,Serasa,Serasa,5.01761,115.05798,BN,BRN,Brunei,18569,False,PPL,Asia/Brunei,,7
1820557,Liang,Liang,4.67747,114.49587,BN,BRN,Brunei,16813,False,PPL,Asia/Brunei,,14
1252416,Thimphu,Thimphu,27.46609,89.64191,BT,BTN,Bhutan,98676,True,PPLC,Asia/Thimphu,2320,2307
1252484,Phuntsholing,Phuntsholing,26.85164,89.38837,BT,BTN,Bhutan,27658,False,PPL,Asia/Thimphu,,330
1252608,Tsirang,Tsirang,27.0219,90.12291,BT,BTN,Bhutan,22376,False,PPLA,Asia/Thimphu,,1410
1252479,Punākha,Punakha,27.59137,89.87743,BT,BTN,Bhutan,21500,False,PPLA,Asia/Thimphu,,1293
933773,Gaborone,Gaborone,-24.65451,25.90859,BW,BWA,Botswana,246325,True,PPLC,Africa/Gaborone,,1011
933778,Francistown,Francistown,-21.17,27.50778,BW,BWA,Botswana,103417,False,PPLA,Africa/Gaborone,,989
933331,Mogoditshane,Mogoditshane,-24.62694,25.86556,BW,BWA,Botswana,88004,False,PPL,Africa/Gaborone,,1026
933366,Maun,Maun,-19.98333,23.41667,BW,BWA,Botswana,85350,False,PPLA,Africa/Gaborone,,947
933305,Molepolole,Molepolole,-24.40659,25.49508,BW,BWA,Botswana,74861,False,PPLA,Africa/Gaborone,,1146
933088,Serowe,Serowe,-22.38754,26.71077,BW,BWA,Botswana,55676,False,PPLA,Africa/Gaborone,,1147
933004,Tlokweng,Tlokweng,-24.66861,25.97111,BW,BWA,Botswana,55508,False,PPL,Africa/Gaborone,,990
933182,Palapye,Palapye,-22.54605,27.12507,BW,BWA,Botswana,52636,False,PPL,Africa/Gaborone,,926
933340,Mochudi,Mochudi,-24.41667,26.15,BW,BWA,Botswana,50321,False,PPLA,Africa/Gaborone,,952
933471,Mahalapye,Mahalapye,-23.10407,26.81421,BW,BWA,Botswana,48431,False,PPL,Africa/Gaborone,,1025
2389853,Bangui,Bangui,4.36122,18.55496,CF,CAF,Central African Republic,812407,True,PPLC,Africa/Bangui,,351
2388873,Bimbo,Bimbo,4.25671,18.41583,CF,CAF,Central African Republic,348802,False,PPLA,Africa/Bangui,,371
2389422,Bégoua,Begoua,4.45437,18.53475,CF,CAF,Central African Republic,264067,False,PPL,Africa/Bangui,,410
2387495,Carnot,Carnot,4.94273,15.87735,CF,CAF,Central African Republic,129032,False,PPLA,Africa/Bangui,,551
2389086,Berbérati,Berberati,4.26116,15.79216,CF,CAF,Central African Republic,103713,False,PPLA,Africa/Bangui,,599
240604,Bambari,Bambari,5.76795,20.67565,CF,CAF,Central African Republic,83029,False,PPLA,Africa/Bangui,,465
2387926,Bouar,Bouar,5.93404,15.59599,CF,CAF,Central African Republic,71680,False,PPLA,Africa/Bangui,,976
2388036,Bossangoa,Bossangoa,6.49263,17.45518,CF,CAF,Central African Republic,55353,False,PPLA,Africa/Bangui,,456
2386012,Kaga-Bandoro,Kaga-Bandoro,6.98961,19.18744,CF,CAF,Central African Republic,55047,False,PPLA,Africa/Bangui,,416
240498,Bangassou,Bangassou,4.74132,22.81838,CF,CAF,Central African Republic,54059,False,PPLA,Africa/Bangui,,506
6167865,Toronto,Toronto,43.70643,-79.39864,CA,CAN,Canada,2794356,False,PPLA,America/Toronto,,161
6077243,Montréal,Montreal,45.50884,-73.58781,CA,CAN,Canada,1762949,False,PPLA2,America/Toronto,,216
5913490,Calgary,Calgary,51.05011,-114.08529,CA,CAN,Canada,1306784,False,PPL,America/Edmonton,1048,1042
6094817,Ottawa,Ottawa,45.41117,-75.69812,CA,CAN,Canada,1017449,True,PPLC,America/Toronto,,71
5946768,Edmonton,Edmonton,53.55014,-113.46871,CA,CAN,Canada,1010899,False,PPLA,America/Edmonton,668,610
6183235,Winnipeg,Winnipeg,49.8844,-97.14704,CA,CAN,Canada,749607,False,PPLA,America/Winnipeg,,245
6075357,Mississauga,Mississauga,43.5789,-79.6583,CA,CAN,Canada,717961,False,PPL,America/Toronto,,159
6173331,Vancouver,Vancouver,49.24966,-123.11934,CA,CAN,Canada,662248,False,PPL,America/Vancouver,,70
5907364,Brampton,Brampton,43.68341,-79.76633,CA,CAN,Canada,656480,False,PPL,America/Toronto,,221
13512378,Harewood,Harewood,49.1474,-123.94739,CA,CAN,Canada,8769,True,PPLG,America/Vancouver,,61
7304591,West Island,West Island,-12.15681,96.82251,CC,CCK,Cocos (Keeling) Islands,120,True,PPLC,Indian/Cocos,,12
2657896,Zürich,Zuerich,47.36667,8.55,CH,CHE,Switzerland,415367,False,PPLA,Europe/Zurich,,429
2660646,Genève,Geneve,46.20222,6.14569,CH,CHE,Switzerland,201741,False,PPLA,Europe/Zurich,,400
2661604,Basel,Basel,47.55839,7.57327,CH,CHE,Switzerland,177595,False,PPLA,Europe/Zurich,,279
2659994,Lausanne,Lausanne,46.516,6.63282,CH,CHE,Switzerland,139111,False,PPLA,Europe/Zurich,,453
2661552,Bern,Bern,46.94809,7.44744,CH,CHE,Switzerland,121631,True,PPLC,Europe/Zurich,,549
2657970,Winterthur,Winterthur,47.50564,8.72413,CH,CHE,Switzerland,111840,False,PPLA2,Europe/Zurich,,441
2659811,Luzern,Luzern,47.05048,8.30635,CH,CHE,Switzerland,81691,False,PPLA,Europe/Zurich,,437
2658822,Sankt Gallen,Sankt Gallen,47.42391,9.37477,CH,CHE,Switzerland,75833,False,PPLA,Europe/Zurich,,684
2659836,Lugano,Lugano,46.01008,8.96004,CH,CHE,Switzerland,63185,False,PPLA2,Europe/Zurich,,284
2661513,Biel/Bienne,Biel/Bienne,47.13713,7.24608,CH,CHE,Switzerland,55120,False,PPLA2,Europe/Zurich,434,439
3871336,Santiago,Santiago,-33.45694,-70.64827,CL,CHL,Chile,4837295,True,PPLC,America/Santiago,,556
3875024,Puente Alto,Puente Alto,-33.61169,-70.57577,CL,CHL,Chile,568106,False,PPLA2,America/Santiago,,700
3880980,Maipú,Maipu,-33.51421,-70.7651,CL,CHL,Chile,503635,False,PPL,America/Santiago,,478
3899539,Antofagasta,Antofagasta,-23.65094,-70.39752,CL,CHL,Chile,401096,False,PPLA,America/Santiago,,276
3868121,Viña del Mar,Vina del Mar,-33.02457,-71.55183,CL,CHL,Chile,334248,False,PPL,America/Santiago,,17
3868626,Valparaíso,Valparaiso,-33.036,-71.62963,CL,CHL,Chile,282448,False,PPLA,America/Santiago,,15
3878431,Ñuñoa,Nunoa,-33.44735,-70.58279,CL,CHL,Chile,255823,False,PPLX,America/Santiago,,615
3872348,San Bernardo,San Bernardo,-33.59217,-70.6996,CL,CHL,Chile,249858,False,PPLA2,America/Santiago,,571
3874960,Puerto Montt,Puerto Montt,-41.4693,-72.94237,CL,CHL,Chile,245902,False,PPLA,America/Santiago,,11
3899361,Arica,Arica,-18.47552,-70.30058,CL,CHL,Chile,241653,False,PPLA,America/Santiago,,80
1796236,Shanghai,Shanghai,31.22222,121.45806,CN,CHN,China,24874500,False,PPLA,Asia/Shanghai,,12
1816670,Beijing,Beijing,39.9075,116.39723,CN,CHN,China,18960744,True,PPLC,Asia/Shanghai,,49
1795565,Shenzhen,Shenzhen,22.54554,114.0683,CN,CHN,China,17494398,False,PPLA2,Asia/Shanghai,,4
1809858,Guangzhou,Guangzhou,23.11667,113.25,CN,CHN,China,16096724,False,PPLA,Asia/Shanghai,,15
1815286,Chengdu,Chengdu,30.66667,104.06667,CN,CHN,China,13568357,False,PPLA,Asia/Shanghai,,499
1792947,Tianjin,Tianjin,39.14222,117.17667,CN,CHN,China,11090314,False,PPLA,Asia/Shanghai,,11
1791247,Wuhan,Wuhan,30.58333,114.26667,CN,CHN,China,10392693,False,PPLA,Asia/Shanghai,,20
1812545,Dongguan,Dongguan,23.01797,113.74866,CN,CHN,China,9644871,False,PPLA2,Asia/Shanghai,,1
1790630,Xi’an,Xi'an,34.25833,108.92861,CN,CHN,China,9600000,False,PPLA,Asia/Shanghai,,416
1799962,Nanjing,Nanjing,32.06167,118.77778,CN,CHN,China,9314685,False,PPLA,Asia/Shanghai,,22
1808926,Hangzhou,Hangzhou,30.29365,120.16142,CN,CHN,China,9236032,False,PPLA,Asia/Shanghai,,12
1811103,Foshan,Foshan,23.02677,113.13148,CN,CHN,China,9042509,False,PPLA2,Asia/Shanghai,,5
1814906,Chongqing,Chongqing,29.56026,106.55771,CN,CHN,China,7457599,False,PPLA,Asia/Shanghai,,289
1797929,Qingdao,Qingdao,36.06488,120.38042,CN,CHN,China,7172451,False,PPLA2,Asia/Shanghai,,16
2034937,Shenyang,Shenyang,41.79222,123.43278,CN,CHN,China,7050000,False,PPLA,Asia/Shanghai,,53
1886760,Suzhou,Suzhou,31.30408,120.59538,CN,CHN,China,6715559,False,PPLA2,Asia/Shanghai,,10
2037013,Harbin,Harbin,45.75,126.65,CN,CHN,China,5242897,False,PPLA,Asia/Shanghai,,140
1808722,Hefei,Hefei,31.86389,117.28083,CN,CHN,China,5050000,False,PPLA,Asia/Shanghai,,24
1814087,Dalian,Dalian,38.91222,121.60222,CN,CHN,China,4913879,False,PPL,Asia/Shanghai,,33
2038180,Changchun,Changchun,43.88,125.32278,CN,CHN,China,4714996,False,PPLA,Asia/Shanghai,,206
1790645,Xiamen,Xiamen,24.47979,118.08187,CN,CHN,China,4617251,False,PPLA2,Asia/Shanghai,,12
13308620,Bao'an,Bao'an,22.55213,113.88288,CN,CHN,China,4476554,False,PPLA3,Asia/Shanghai,,-9999
1790923,Wuxi,Wuxi,31.56887,120.28857,CN,CHN,China,4396835,False,PPLA2,Asia/Shanghai,,10
1805753,Jinan,Jinan,36.66833,116.99722,CN,CHN,China,4335989,False,PPLA,Asia/Shanghai,,32
1793511,Taiyuan,Taiyuan,37.86944,112.56028,CN,CHN,China,4303673,False,PPLA,Asia/Shanghai,,795
1784658,Zhengzhou,Zhengzhou,34.75778,113.64861,CN,CHN,China,4253913,False,PPLA,Asia/Shanghai,,104
1795270,Shijiazhuang,Shijiazhuang,38.04139,114.47861,CN,CHN,China,3938513,False,PPLA,Asia/Shanghai,,77
1804651,Kunming,Kunming,25.03889,102.71833,CN,CHN,China,3855346,False,PPLA,Asia/Shanghai,,1895
6986104,Zhongshan,Zhongshan,22.52306,113.37912,CN,CHN,China,3841873,False,PPLA2,Asia/Shanghai,,9
1799869,Nanning,Nanning,22.81667,108.31667,CN,CHN,China,3839800,False,PPLA,Asia/Shanghai,,91
1795940,Shantou,Shantou,23.35489,116.67876,CN,CHN,China,3838900,False,PPLA2,Asia/Shanghai,,3
1810821,Fuzhou,Fuzhou,26.06139,119.30611,CN,CHN,China,3740000,False,PPLA,Asia/Shanghai,,14
1799397,Ningbo,Ningbo,29.87819,121.54945,CN,CHN,China,3731203,False,PPLA2,Asia/Shanghai,,15
1798425,Puyang,Puyang,29.45679,119.88872,CN,CHN,China,3590000,False,PPLA3,Asia/Shanghai,,76
1794903,Shiyan,Shiyan,32.6475,110.77806,CN,CHN,China,3460000,False,PPLA2,Asia/Shanghai,,247
1793346,Tangshan,Tangshan,39.64381,118.18319,CN,CHN,China,3372102,False,PPLA2,Asia/Shanghai,,7
13512505,Lüliang,Lueliang,37.5192,111.14436,CN,CHN,China,3346500,False,PPLA2,Asia/Shanghai,,959
1815456,Changzhou,Changzhou,31.77359,119.95401,CN,CHN,China,3290918,False,PPLA2,Asia/Shanghai,,9
1785286,Zibo,Zibo,36.79056,118.06333,CN,CHN,China,3129228,False,PPL,Asia/Shanghai,,51
1815577,Changsha,Changsha,28.19874,112.97087,CN,CHN,China,3093980,False,PPLA,Asia/Shanghai,,67
1809461,Guiyang,Guiyang,26.58333,106.71667,CN,CHN,China,3037159,False,PPLA,Asia/Shanghai,,1087
1529102,Ürümqi,UEruemqi,43.80096,87.60046,CN,CHN,China,3029372,False,PPLA,Asia/Urumqi,,862
1804430,Lanzhou,Lanzhou,36.05701,103.83987,CN,CHN,China,3000000,False,PPLA,Asia/Shanghai,,1521
1806776,Huizhou,Huizhou,23.11147,114.41523,CN,CHN,China,2900113,False,PPLA2,Asia/Shanghai,,25
1809078,Haikou,Haikou,20.03421,110.34651,CN,CHN,China,2873358,False,PPLA,Asia/Shanghai,,9
1803318,Linyi,Linyi,35.06306,118.34278,CN,CHN,China,2743843,False,PPLA2,Asia/Shanghai,,69
1816971,Baoding,Baoding,38.87288,115.46246,CN,CHN,China,2739887,False,PPLA2,Asia/Shanghai,,15
1791388,Wenzhou,Wenzhou,27.99942,120.66682,CN,CHN,China,2650000,False,PPLA3,Asia/Shanghai,,10
1785725,Yunfu,Yunfu,22.92787,112.03809,CN,CHN,China,2612800,False,PPLA2,Asia/Shanghai,,67
1797873,Huai'an,Huai'an,33.58861,119.01917,CN,CHN,China,2494013,False,PPL,Asia/Shanghai,,14
1800163,Nanchang,Nanchang,28.68396,115.85306,CN,CHN,China,2357839,False,PPLA,Asia/Shanghai,,20
2036892,Hohhot,Hohhot,40.81056,111.65222,CN,CHN,China,2350000,False,PPLA,Asia/Shanghai,,1051
1795855,Shaoxing,Shaoxing,30.00237,120.57864,CN,CHN,China,2300000,False,PPLA3,Asia/Shanghai,,21
1799722,Nantong,Nantong,32.03028,120.87472,CN,CHN,China,2273326,False,PPLA2,Asia/Shanghai,,6
1787093,Yantai,Yantai,37.47649,121.44081,CN,CHN,China,2227733,False,PPL,Asia/Shanghai,,22
1790437,Zhuhai,Zhuhai,22.27694,113.56778,CN,CHN,China,2207090,False,PPLA2,Asia/Shanghai,,35
2038432,Baotou,Baotou,40.6516,109.84389,CN,CHN,China,2150000,False,PPL,Asia/Shanghai,,1064
12359313,Qingyang,Qingyang,35.70976,107.64455,CN,CHN,China,2125400,False,PPLA2,Asia/Shanghai,,1427
1785623,Kunshan,Kunshan,31.37762,120.95431,CN,CHN,China,2092496,False,PPLA3,Asia/Shanghai,,10
1791681,Weifang,Weifang,36.71,119.10194,CN,CHN,China,2044028,False,PPL,Asia/Shanghai,,30
1783621,Zunyi,Zunyi,27.68667,106.90722,CN,CHN,China,2037775,False,PPLA2,Asia/Shanghai,,867
10859300,Lianyungang,Lianyungang,34.59845,119.21556,CN,CHN,China,2001009,False,PPLA2,Asia/Shanghai,,1
1810638,Ganzhou,Ganzhou,25.84664,114.9326,CN,CHN,China,1977253,False,PPLA2,Asia/Shanghai,,117
8347664,Ordos,Ordos,39.6086,109.78157,CN,CHN,China,1940653,False,PPL,Asia/Shanghai,2149,1310
1797121,Jieyang,Jieyang,23.5418,116.36581,CN,CHN,China,1899394,False,PPLA2,Asia/Shanghai,,7
2036502,Jilin,Jilin,43.84652,126.5608,CN,CHN,China,1895865,False,PPLA2,Asia/Shanghai,,188
1800146,Nanchong,Nanchong,30.79508,106.08473,CN,CHN,China,1858875,False,PPLA2,Asia/Shanghai,,287
2037799,Datong,Datong,40.09361,113.29139,CN,CHN,China,1850000,False,PPL,Asia/Shanghai,,1054
1799629,Nanyang,Nanyang,33.00524,112.54659,CN,CHN,China,1811812,False,PPLA2,Asia/Shanghai,,126
1806299,Jiangmen,Jiangmen,22.58333,113.08333,CN,CHN,China,1795459,False,PPLA2,Asia/Shanghai,,11
1815251,Jiangyin,Jiangyin,31.91102,120.26302,CN,CHN,China,1779515,False,PPLA3,Asia/Shanghai,,7
1810845,Fuyang,Fuyang,32.9,115.81667,CN,CHN,China,1768947,False,PPLA2,Asia/Shanghai,,31
11838258,Bayan Nur,Bayan Nur,40.74143,107.38599,CN,CHN,China,1760000,False,PPL,Asia/Shanghai,1050,1041
1815395,Chaozhou,Chaozhou,23.65396,116.62262,CN,CHN,China,1750945,False,PPLA2,Asia/Shanghai,,23
1797945,Qingyuan,Qingyuan,23.7,113.03333,CN,CHN,China,1738424,False,PPLA2,Asia/Shanghai,,11
1793724,Tai’an,Tai'an,36.18528,117.12,CN,CHN,China,1735425,False,PPLA2,Asia/Shanghai,,143
1788852,Xining,Xining,36.62554,101.75739,CN,CHN,China,1677177,False,PPLA,Asia/Shanghai,,2275
7283386,Changshu,Changshu,31.64615,120.74221,CN,CHN,China,1677050,False,PPLA3,Asia/Shanghai,,9
1807681,Huainan,Huainan,32.62639,116.99694,CN,CHN,China,1666826,False,PPL,Asia/Shanghai,,47
1793743,Suzhou,Suzhou,33.63611,116.97889,CN,CHN,China,1647642,False,PPLA2,Asia/Shanghai,,34
1802206,Lu’an,Lu'an,31.73561,116.51688,CN,CHN,China,1644344,False,PPLA2,Asia/Shanghai,,81
1787746,Yancheng,Yancheng,33.3575,120.1573,CN,CHN,China,1615717,False,PPLA2,Asia/Shanghai,,3
1793505,Taizhou,Taizhou,32.49069,119.90812,CN,CHN,China,1607108,False,PPLA3,Asia/Shanghai,,10
2037860,Daqing,Daqing,46.58333,125.0,CN,CHN,China,1604027,False,PPLA2,Asia/Shanghai,,146
1791236,Wuhu,Wuhu,31.35259,118.42947,CN,CHN,China,1598165,False,PPLA2,Asia/Shanghai,,9
1813325,Dazhou,Dazhou,31.2106,107.46308,CN,CHN,China,1589435,False,PPLA2,Asia/Shanghai,,292
1787227,Yangzhou,Yangzhou,32.39722,119.43583,CN,CHN,China,1584237,False,PPL,Asia/Shanghai,,14
1809498,Guilin,Guilin,25.28022,110.29639,CN,CHN,China,1572300,False,PPLA2,Asia/Shanghai,,141
1784853,Zhaoqing,Zhaoqing,23.04893,112.46091,CN,CHN,China,1553109,False,PPLA2,Asia/Shanghai,,16
1800627,Mianyang,Mianyang,31.46784,104.68168,CN,CHN,China,1550000,False,PPLA3,Asia/Shanghai,,471
12358576,Wanzhou,Wanzhou,30.76451,108.39586,CN,CHN,China,1545900,False,PPLA3,Asia/Shanghai,,205
1798449,Putian,Putian,25.43944,119.01028,CN,CHN,China,1539389,False,PPLA2,Asia/Shanghai,,23
1783934,Shangqiu,Shangqiu,34.45,115.65,CN,CHN,China,1536392,False,PPL,Asia/Shanghai,,51
1786657,Yinchuan,Yinchuan,38.46806,106.27306,CN,CHN,China,1487579,False,PPLA,Asia/Shanghai,,1117
8400694,Taizhou,Taizhou,28.66266,121.43312,CN,CHN,China,1485502,False,PPLA2,Asia/Shanghai,,15
1814870,Yiwu,Yiwu,29.31506,120.07676,CN,CHN,China,1481384,False,PPLA3,Asia/Shanghai,,84
1797353,Quanzhou,Quanzhou,24.91389,118.58583,CN,CHN,China,1469157,False,PPLA2,Asia/Shanghai,,14
1805528,Jinhua,Jinhua,29.10678,119.64421,CN,CHN,China,1463990,False,PPLA2,Asia/Shanghai,,55
1806602,Cixi,Cixi,30.1764,121.2457,CN,CHN,China,1457510,False,PPLA3,Asia/Shanghai,,11
1791121,Changde,Changde,29.03205,111.69844,CN,CHN,China,1457419,False,PPLA3,Asia/Shanghai,,38
1804879,Kaifeng,Kaifeng,34.7986,114.30742,CN,CHN,China,1451741,False,PPL,Asia/Shanghai,,76
2038632,Anshan,Anshan,41.12361,122.99,CN,CHN,China,1450000,False,PPL,Asia/Shanghai,,55
10942359,Baoji,Baoji,34.36775,107.23705,CN,CHN,China,1437802,False,PPLA2,Asia/Shanghai,,567
1793771,Suqian,Suqian,33.94917,118.29583,CN,CHN,China,1437685,False,PPLA2,Asia/Shanghai,,23
1803300,Liuzhou,Liuzhou,24.32405,109.40698,CN,CHN,China,1436599,False,PPLA2,Asia/Shanghai,,102
1787331,Zhangjiagang,Zhangjiagang,31.865,120.53889,CN,CHN,China,1432044,False,PPLA3,Asia/Shanghai,,13
1797658,Jinjiang,Jinjiang,24.81978,118.57415,CN,CHN,China,1416151,False,PPLA3,Asia/Shanghai,,33
1816234,Bozhou,Bozhou,33.87722,115.77028,CN,CHN,China,1409436,False,PPLA2,Asia/Shanghai,,40
1797318,Qujing,Qujing,25.48333,103.78333,CN,CHN,China,1408500,False,PPL,Asia/Shanghai,,1887
1784990,Zhanjiang,Zhanjiang,21.23391,110.38749,CN,CHN,China,1400709,False,PPLA2,Asia/Shanghai,,16
2037355,Fushun,Fushun,41.88669,123.94363,CN,CHN,China,1400646,False,PPLA2,Asia/Shanghai,,85
1801792,Luoyang,Luoyang,34.67345,112.43684,CN,CHN,China,1390581,False,PPLA2,Asia/Shanghai,,128
1802875,Guankou,Guankou,28.15861,113.62709,CN,CHN,China,1380000,False,PPLA3,Asia/Shanghai,,79
1808963,Handan,Handan,36.60999,114.48764,CN,CHN,China,1358318,False,PPLA2,Asia/Shanghai,,61
1786764,Yichang,Yichang,30.71444,111.28472,CN,CHN,China,1350150,False,PPLA2,Asia/Shanghai,,63
1808198,Heze,Heze,35.23929,115.47358,CN,CHN,China,1346717,False,PPLA2,Asia/Shanghai,,53
8533133,Liupanshui,Liupanshui,26.59444,104.83333,CN,CHN,China,1320825,False,PPL,Asia/Shanghai,,1799
1801180,Maoming,Maoming,21.66625,110.91364,CN,CHN,China,1307802,False,PPLA2,Asia/Shanghai,,31
1797551,Qinzhou,Qinzhou,21.98247,108.65061,CN,CHN,China,1296300,False,PPLA2,Asia/Shanghai,,12
1801934,Luohe,Luohe,33.56394,114.04272,CN,CHN,China,1294974,False,PPLA2,Asia/Shanghai,,62
1790587,Xiangyang,Xiangyang,32.0422,112.14479,CN,CHN,China,1294733,False,PPLA2,Asia/Shanghai,,71
1806408,Yangjiang,Yangjiang,21.85563,111.96272,CN,CHN,China,1292987,False,PPLA2,Asia/Shanghai,,15
1786760,Yixing,Yixing,31.36059,119.82016,CN,CHN,China,1285785,False,PPLA3,Asia/Shanghai,,8
1788046,Xuchang,Xuchang,34.03189,113.86299,CN,CHN,China,1265536,False,PPLA2,Asia/Shanghai,,71
1783745,Zigong,Zigong,29.34162,104.77689,CN,CHN,China,1262064,False,PPL,Asia/Shanghai,,306
10630003,Xuzhou,Xuzhou,34.20442,117.28386,CN,CHN,China,1253991,False,PPLA2,Asia/Shanghai,,35
1799491,Neijiang,Neijiang,29.58354,105.06216,CN,CHN,China,1251095,False,PPLA3,Asia/Shanghai,,349
1808316,Heshan,Heshan,28.56938,112.34733,CN,CHN,China,1249807,False,PPLA2,Asia/Shanghai,,73
1805518,Jining,Jining,35.405,116.58139,CN,CHN,China,1241012,False,PPL,Asia/Shanghai,,43
1788534,Xinyang,Xinyang,32.12278,114.06556,CN,CHN,China,1230042,False,PPL,Asia/Shanghai,,89
1803834,Liaocheng,Liaocheng,36.45064,116.00247,CN,CHN,China,1229768,False,PPLA2,Asia/Shanghai,,32
10942283,Jinzhong,Jinzhong,37.68403,112.75471,CN,CHN,China,1226617,False,PPLA2,Asia/Shanghai,,821
1808956,Changzhi,Changzhi,36.18389,113.10528,CN,CHN,China,1214940,False,PPLA2,Asia/Shanghai,,937
1792892,Tianshui,Tianshui,34.57952,105.74238,CN,CHN,China,1212791,False,PPLA3,Asia/Shanghai,,1153
1791636,Weinan,Weinan,34.50355,109.50891,CN,CHN,China,1199290,False,PPLA2,Asia/Shanghai,,354
1805953,Jiaxing,Jiaxing,30.7522,120.75,CN,CHN,China,1180000,False,PPLA2,Asia/Shanghai,,8
1805179,Jiujiang,Jiujiang,29.70475,116.00206,CN,CHN,China,1164268,False,PPLA2,Asia/Shanghai,,41
1785294,Anyang,Anyang,36.096,114.38278,CN,CHN,China,1146839,False,PPLA2,Asia/Shanghai,,70
13405906,Luohu District,Luohu District,22.54721,114.13149,CN,CHN,China,1143801,False,PPLX,Asia/Shanghai,,2
1816373,Bijie,Bijie,27.30193,105.28627,CN,CHN,China,1137383,False,PPLA2,Asia/Shanghai,,1471
1783763,Zhuzhou,Zhuzhou,27.83333,113.15,CN,CHN,China,1129687,False,PPLA2,Asia/Shanghai,,54
1787858,Shangrao,Shangrao,28.45179,117.94287,CN,CHN,China,1116486,False,PPLA2,Asia/Shanghai,,84
1807700,Huaibei,Huaibei,33.97444,116.79167,CN,CHN,China,1113321,False,PPLA2,Asia/Shanghai,,51
1800818,Meishan,Meishan,30.04392,103.83696,CN,CHN,China,1107742,False,PPLA2,Asia/Shanghai,,423
1810820,Fuzhou,Fuzhou,27.95999,116.33333,CN,CHN,China,1089888,False,PPLA2,Asia/Shanghai,,53
1809532,Guigang,Guigang,23.11603,109.59472,CN,CHN,China,1086327,False,PPLA2,Asia/Shanghai,,40
1808370,Hengyang,Hengyang,26.88946,112.61888,CN,CHN,China,1075516,False,PPL,Asia/Shanghai,,66
1785781,Yulin,Yulin,22.6305,110.14686,CN,CHN,China,1056743,False,PPLA3,Asia/Shanghai,,87
1805540,Jingzhou,Jingzhou,30.35028,112.19028,CN,CHN,China,1052282,False,PPLA2,Asia/Shanghai,,39
1788572,Xinxiang,Xinxiang,35.19033,113.80151,CN,CHN,China,1047088,False,PPLA2,Asia/Shanghai,,82
1786746,Yichun,Yichun,27.83333,114.4,CN,CHN,China,1045952,False,PPLA2,Asia/Shanghai,,99
1790353,Xianyang,Xianyang,34.33778,108.70261,CN,CHN,China,1034081,False,PPLA3,Asia/Shanghai,,387
1796556,Sanya,Sanya,18.25435,109.50947,CN,CHN,China,1031396,False,PPLA2,Asia/Shanghai,,1
1795874,Shaoguan,Shaoguan,24.8,113.58333,CN,CHN,China,1028460,False,PPLA2,Asia/Shanghai,,69
1802276,Longyan,Longyan,25.07485,117.01775,CN,CHN,China,1025087,False,PPLA2,Asia/Shanghai,,318
1786217,Yongzhou,Yongzhou,26.42389,111.61306,CN,CHN,China,1020715,False,PPLA2,Asia/Shanghai,,101
1806535,Huzhou,Huzhou,30.8703,120.0933,CN,CHN,China,1015937,False,PPLA2,Asia/Shanghai,,6
1803936,Wuwei,Wuwei,37.92672,102.63202,CN,CHN,China,1010295,False,PPLA2,Asia/Shanghai,,1542
1808857,Hanzhong,Hanzhong,33.07507,107.02214,CN,CHN,China,1006557,False,PPLA2,Asia/Shanghai,,517
7576887,Hezhou,Hezhou,24.40357,111.56675,CN,CHN,China,1005490,False,PPLA2,Asia/Shanghai,,106
7602670,Zhu Cheng City,Zhu Cheng City,35.99502,119.40259,CN,CHN,China,1000000,False,PPLA3,Asia/Shanghai,,67
2293538,Abidjan,Abidjan,5.35444,-4.00167,CI,CIV,Ivory Coast,6321017,False,PPLA,Africa/Abidjan,,50
2293521,Abobo,Abobo,5.41613,-4.0159,CI,CIV,Ivory Coast,1340083,False,PPL,Africa/Abidjan,,105
2290956,Bouaké,Bouake,7.69385,-5.03031,CI,CIV,Ivory Coast,832371,False,PPLA,Africa/Abidjan,,339
2286304,Korhogo,Korhogo,9.45803,-5.62961,CI,CIV,Ivory Coast,440926,False,PPLA,Africa/Abidjan,,360
2290486,Daloa,Daloa,6.87735,-6.45022,CI,CIV,Ivory Coast,421871,False,PPLA,Africa/Abidjan,,262
2285853,Koumassi,Koumassi,5.29716,-3.96753,CI,CIV,Ivory Coast,412282,False,PPL,Africa/Abidjan,,4
2282006,San-Pédro,San-Pedro,4.74851,-6.6363,CI,CIV,Ivory Coast,390654,False,PPLA,Africa/Abidjan,,9
2288829,Gagnoa,Gagnoa,6.13193,-5.9506,CI,CIV,Ivory Coast,277044,False,PPLA,Africa/Abidjan,,202
2279755,Yamoussoukro,Yamoussoukro,6.82055,-5.27674,CI,CIV,Ivory Coast,275686,True,PPLC,Africa/Abidjan,,214
2281606,Sinfra,Sinfra,6.62103,-5.91144,CI,CIV,Ivory Coast,245226,False,PPL,Africa/Abidjan,,265
2232593,Douala,Douala,4.04827,9.70428,CM,CMR,Cameroon,1338082,False,PPLA,Africa/Douala,,19
2220957,Yaoundé,Yaounde,3.86667,11.51667,CM,CMR,Cameroon,1299369,True,PPLC,Africa/Douala,,726
2234974,Bamenda,Bamenda,5.9597,10.14597,CM,CMR,Cameroon,420445,False,PPLA,Africa/Douala,,1258
2235189,Bafoussam,Bafoussam,5.47775,10.41759,CM,CMR,Cameroon,373268,False,PPLA,Africa/Douala,,1438
2228373,Maroua,Maroua,10.59095,14.31593,CM,CMR,Cameroon,314122,False,PPLA,Africa/Douala,,406
2224827,Ngaoundéré,Ngaoundere,7.32765,13.58472,CM,CMR,Cameroon,238196,False,PPLA,Africa/Douala,,1128
2229752,Kumba,Kumba,4.6363,9.4469,CM,CMR,Cameroon,225046,False,PPL,Africa/Douala,,244
2223763,Nkongsamba,Nkongsamba,4.9547,9.9404,CM,CMR,Cameroon,162309,False,PPL,Africa/Douala,,844
2233410,Buea,Buea,4.15342,9.24231,CM,CMR,Cameroon,140533,False,PPLA,Africa/Douala,,859
2229798,Kousséri,Kousseri,12.07689,15.03063,CM,CMR,Cameroon,139024,False,PPL,Africa/Douala,,300
2314302,Kinshasa,Kinshasa,-4.32758,15.31357,CD,COD,DR Congo,16000000,True,PPLC,Africa/Kinshasa,,281
922704,Lubumbashi,Lubumbashi,-11.66089,27.47938,CD,COD,DR Congo,2221925,False,PPLA,Africa/Lubumbashi,,1260
209228,Mbuji-Mayi,Mbuji-Mayi,-6.13603,23.58979,CD,COD,DR Congo,2101332,False,PPLA,Africa/Lubumbashi,,621
214481,Kananga,Kananga,-5.89624,22.41659,CD,COD,DR Congo,1247168,False,PPLA,Africa/Lubumbashi,,643
212730,Kisangani,Kisangani,0.51528,25.19099,CD,COD,DR Congo,1181788,False,PPLA,Africa/Lubumbashi,,400
217831,Bukavu,Bukavu,-2.49077,28.84281,CD,COD,DR Congo,816811,False,PPLA,Africa/Lubumbashi,,1631
922773,Kolwezi,Kolwezi,-10.71484,25.46674,CD,COD,DR Congo,790248,False,PPLA2,Africa/Lubumbashi,,1485
922741,Likasi,Likasi,-10.98303,26.7384,CD,COD,DR Congo,635768,False,PPL,Africa/Lubumbashi,,1288
204953,Tshikapa,Tshikapa,-6.41621,20.79995,CD,COD,DR Congo,634529,False,PPLA2,Africa/Lubumbashi,,484
2314705,Kikwit,Kikwit,-5.04098,18.81619,CD,COD,DR Congo,509367,False,PPL,Africa/Kinshasa,,466
2260535,Brazzaville,Brazzaville,-4.26613,15.28318,CG,COG,Republic of the Congo,1982000,True,PPLC,Africa/Brazzaville,,284
2255414,Pointe-Noire,Pointe-Noire,-4.77609,11.86352,CG,COG,Republic of the Congo,1032000,False,PPLA,Africa/Brazzaville,,12
2258261,Dolisie,Dolisie,-4.19834,12.66664,CG,COG,Republic of the Congo,121000,False,PPLA,Africa/Brazzaville,,332
8521334,Nkayi,Nkayi,-4.18396,13.2859,CG,COG,Republic of the Congo,103000,False,PPLA2,Africa/Brazzaville,,181
2259383,Kayes,Kayes,-4.20493,13.28608,CG,COG,Republic of the Congo,58737,False,PPL,Africa/Brazzaville,,165
2259655,Impfondo,Impfondo,1.61804,18.05981,CG,COG,Republic of the Congo,48939,False,PPLA,Africa/Brazzaville,,323
2255564,Ouesso,Ouesso,1.61361,16.05167,CG,COG,Republic of the Congo,40667,False,PPLA,Africa/Brazzaville,,348
2255542,Owando,Owando,-0.48193,15.89988,CG,COG,Republic of the Congo,35698,False,PPLA,Africa/Brazzaville,,355
2255285,Sibiti,Sibiti,-3.68192,13.34985,CG,COG,Republic of the Congo,33122,False,PPLA,Africa/Brazzaville,,531
2258080,Loutété,Loutete,-4.29611,13.85083,CG,COG,Republic of the Congo,27726,False,PPL,Africa/Brazzaville,,215
4035715,Avarua,Avarua,-21.2075,-159.77546,CK,COK,Cook Islands,13373,True,PPLC,Pacific/Rarotonga,,7
3688689,Bogotá,Bogota,4.60971,-74.08175,CO,COL,Colombia,7674366,True,PPLC,America/Bogota,,2582
3687925,Cali,Cali,3.43054,-76.5199,CO,COL,Colombia,2392877,False,PPLA,America/Bogota,,758
3674962,Medellín,Medellin,6.245,-75.57151,CO,COL,Colombia,1999979,False,PPLA,America/Bogota,1405,1528
3689147,Barranquilla,Barranquilla,10.96854,-74.78132,CO,COL,Colombia,1206319,False,PPLA,America/Bogota,,24
3687238,Cartagena,Cartagena,10.39817,-75.49328,CO,COL,Colombia,914552,False,PPLA,America/Bogota,,20
3685533,Cúcuta,Cucuta,7.90745,-72.5049,CO,COL,Colombia,777106,False,PPLA,America/Bogota,,298
3667905,Soacha,Soacha,4.57937,-74.21682,CO,COL,Colombia,655025,False,PPLA2,America/Bogota,,2565
3688465,Bucaramanga,Bucaramanga,7.125,-73.11895,CO,COL,Colombia,581130,False,PPLA,America/Bogota,,1010
3680656,Ibagué,Ibague,4.43573,-75.20289,CO,COL,Colombia,529635,False,PPLA,America/Bogota,,1047
3668605,Santa Marta,Santa Marta,11.23855,-74.19427,CO,COL,Colombia,499192,False,PPLA,America/Bogota,,14
921772,Moroni,Moroni,-11.70216,43.25506,KM,COM,Comoros,74749,True,PPLC,Indian/Comoro,,27
921753,Moutsamoudou,Moutsamoudou,-12.16672,44.39944,KM,COM,Comoros,26313,False,PPLA,Indian/Comoro,,61
921889,Fomboni,Fomboni,-12.28759,43.74344,KM,COM,Comoros,17291,False,PPLA,Indian/Comoro,,18
3374333,Praia,Praia,14.93152,-23.51254,CV,CPV,Cape Verde,137868,True,PPLC,Atlantic/Cape_Verde,0,18
3374462,Mindelo,Mindelo,16.89014,-24.98042,CV,CPV,Cape Verde,69013,False,PPLA,Atlantic/Cape_Verde,,44
8521418,Espargos,Espargos,16.75524,-22.9446,CV,CPV,Cape Verde,24500,False,PPLA,Atlantic/Cape_Verde,,53
3374888,Assomada,Assomada,15.1,-23.68333,CV,CPV,Cape Verde,21297,False,PPLA,Atlantic/Cape_Verde,,391
3621849,San José,San Jose,9.93388,-84.08489,CR,CRI,Costa Rica,335007,True,PPLC,America/Costa_Rica,,1133
3622247,Limón,Limon,9.99074,-83.03596,CR,CRI,Costa Rica,63081,False,PPLA,America/Costa_Rica,,29
3621911,San Francisco,San Francisco,9.9938,-84.12742,CR,CRI,Costa Rica,55923,False,PPLX,America/Costa_Rica,,1131
3624955,Alajuela,Alajuela,10.01723,-84.21275,CR,CRI,Costa Rica,47494,False,PPLA,America/Costa_Rica,,955
3623076,Liberia,Liberia,10.63517,-85.43779,CR,CRI,Costa Rica,45380,False,PPLA,America/Costa_Rica,,148
3622547,Paraíso,Paraiso,9.83847,-83.86655,CR,CRI,Costa Rica,39702,False,PPL,America/Costa_Rica,,1306
3622228,Puntarenas,Puntarenas,9.97691,-84.8379,CR,CRI,Costa Rica,35650,False,PPLA,America/Costa_Rica,,1
3621889,San Isidro,San Isidro,9.3674,-83.69713,CR,CRI,Costa Rica,34877,False,PPLA3,America/Costa_Rica,,713
3623977,Curridabat,Curridabat,9.9139,-84.03595,CR,CRI,Costa Rica,34586,False,PPL,America/Costa_Rica,,1192
3621841,San José,San Jose,10.95192,-85.13572,CR,CRI,Costa Rica,31430,True,PPL,America/Costa_Rica,,50
3553478,Havana,Havana,23.13302,-82.38304,CU,CUB,Cuba,2163824,True,PPLC,America/Havana,,41
3536729,Santiago de Cuba,Santiago de Cuba,20.02287,-75.82171,CU,CUB,Cuba,555865,False,PPLA,America/Havana,,33
3566067,Camagüey,Camagueey,21.38083,-77.91694,CU,CUB,Cuba,347562,False,PPLA,America/Havana,,102
3556969,Holguín,Holguin,20.88722,-76.26306,CU,CUB,Cuba,319102,False,PPLA,America/Havana,,146
3557689,Guantánamo,Guantanamo,20.14444,-75.20917,CU,CUB,Cuba,272801,False,PPLA,America/Havana,,56
3537906,Santa Clara,Santa Clara,22.40711,-79.96581,CU,CUB,Cuba,250512,False,PPLA,America/Havana,,132
3569175,Almendares,Almendares,23.11012,-82.42322,CU,CUB,Cuba,240000,False,PPLX,America/Havana,,22
6956648,Diez de Octubre,Diez de Octubre,23.0881,-82.3597,CU,CUB,Cuba,227293,False,PPLX,America/Havana,,63
3568342,Arroyo Naranjo,Arroyo Naranjo,23.03811,-82.37703,CU,CUB,Cuba,210053,False,PPL,America/Havana,,85
3547932,Mantilla,Mantilla,23.06794,-82.34143,CU,CUB,Cuba,206918,False,PPLX,America/Havana,,73
3513090,Willemstad,Willemstad,12.12246,-68.88641,CW,CUW,Curaçao,125000,True,PPLC,America/Curacao,,1
13308487,Bandariba,Bandariba,12.09257,-68.83092,CW,CUW,Curaçao,20838,False,PPL,America/Curacao,,1
2078127,Flying Fish Cove,Flying Fish Cove,-10.42172,105.67912,CX,CXR,Christmas Island,500,True,PPLC,Indian/Christmas,,135
3580661,George Town,George Town,19.2866,-81.37436,KY,CYM,Cayman Islands,29370,True,PPLC,America/Cayman,,3
3580477,West Bay,West Bay,19.38197,-81.39281,KY,CYM,Cayman Islands,15335,False,PPLA,America/Cayman,,5
146268,Nicosia,Nicosia,35.17284,33.35397,CY,CYP,Cyprus,200452,True,PPLC,Asia/Nicosia,,155
146384,Limassol,Limassol,34.68406,33.03794,CY,CYP,Cyprus,154000,False,PPLA,Asia/Nicosia,,27
146400,Larnaca,Larnaca,34.9221,33.62794,CY,CYP,Cyprus,72000,False,PPLA,Asia/Nicosia,,24
146054,Stróvolos,Strovolos,35.14867,33.33384,CY,CYP,Cyprus,67904,False,PPLA2,Asia/Nicosia,,182
146617,Famagusta,Famagusta,35.12489,33.94135,CY,CYP,Cyprus,42526,False,PPLA,Asia/Famagusta,,12
146523,Káto Lakatámeia,Kato Lakatameia,35.11755,33.32539,CY,CYP,Cyprus,40000,False,PPLA2,Asia/Nicosia,,215
146214,Paphos,Paphos,34.77679,32.42451,CY,CYP,Cyprus,35961,False,PPLA,Asia/Nicosia,,81
146412,Kyrenia,Kyrenia,35.33634,33.31729,CY,CYP,Cyprus,26701,False,PPLA,Asia/Famagusta,,20
146286,Mórfou,Morfou,35.19869,32.99338,CY,CYP,Cyprus,24070,False,PPL,Asia/Nicosia,,48
146516,Káto Polemídia,Kato Polemidia,34.69721,32.99324,CY,CYP,Cyprus,23231,False,PPL,Asia/Nicosia,,71
3067696,Prague,Prague,50.08804,14.42076,CZ,CZE,Czechia,1165581,True,PPLC,Europe/Prague,,202
3078610,Brno,Brno,49.19522,16.60796,CZ,CZE,Czechia,379466,False,PPLA,Europe/Prague,,226
3068799,Ostrava,Ostrava,49.83465,18.28204,CZ,CZE,Czechia,279791,False,PPLA,Europe/Prague,,211
3068160,Pilsen,Pilsen,49.74747,13.37759,CZ,CZE,Czechia,168733,False,PPLA,Europe/Prague,,316
3071961,Liberec,Liberec,50.76711,15.05619,CZ,CZE,Czechia,102951,False,PPLA,Europe/Prague,,359
3069011,Olomouc,Olomouc,49.59552,17.25175,CZ,CZE,Czechia,99496,False,PPLA,Europe/Prague,,223
3077916,České Budějovice,Ceske Budejovice,48.97447,14.47434,CZ,CZE,Czechia,93426,False,PPLA,Europe/Prague,381,390
3074967,Hradec Králové,Hradec Kralove,50.20923,15.83277,CZ,CZE,Czechia,90596,False,PPLA,Europe/Prague,,250
3063548,Ústí nad Labem,Usti nad Labem,50.6607,14.03227,CZ,CZE,Czechia,90378,False,PPLA,Europe/Prague,,150
3068582,Pardubice,Pardubice,50.04075,15.77659,CZ,CZE,Czechia,88520,False,PPLA,Europe/Prague,,227
2950159,Berlin,Berlin,52.52437,13.41053,DE,DEU,Germany,3426354,True,PPLC,Europe/Berlin,74,43
2911298,Hamburg,Hamburg,53.55073,9.99302,DE,DEU,Germany,1845229,False,PPLA,Europe/Berlin,,9
2867714,Munich,Munich,48.13743,11.57549,DE,DEU,Germany,1260391,False,PPLA,Europe/Berlin,,524
2886242,Köln,Koeln,50.93333,6.95,DE,DEU,Germany,963395,False,PPLA2,Europe/Berlin,,58
2925533,Frankfurt am Main,Frankfurt am Main,50.11552,8.68417,DE,DEU,Germany,650000,False,PPLA3,Europe/Berlin,,113
2825297,Stuttgart,Stuttgart,48.78232,9.17702,DE,DEU,Germany,630305,False,PPLA,Europe/Berlin,,252
2934246,Düsseldorf,Duesseldorf,51.22172,6.77616,DE,DEU,Germany,620523,False,PPLA,Europe/Berlin,,45
2928810,Essen,Essen,51.45657,7.01228,DE,DEU,Germany,593085,False,PPLA3,Europe/Berlin,,83
2935517,Dortmund,Dortmund,51.51494,7.466,DE,DEU,Germany,588462,False,PPLA3,Europe/Berlin,,96
2935022,Dresden,Dresden,51.05089,13.73832,DE,DEU,Germany,556227,False,PPLA,Europe/Berlin,,116
223817,Djibouti,Djibouti,11.58901,43.14503,DJ,DJI,Djibouti,626512,True,PPLC,Africa/Djibouti,,6
225284,Ali Sabih,Ali Sabih,11.15583,42.7125,DJ,DJI,Djibouti,50006,False,PPLA,Africa/Djibouti,,699
223890,Dikhil,Dikhil,11.10454,42.36971,DJ,DJI,Djibouti,32801,False,PPLA,Africa/Djibouti,,479
220782,Tadjoura,Tadjoura,11.78778,42.88222,DJ,DJI,Djibouti,19533,False,PPLA,Africa/Djibouti,,3
225037,Arta,Arta,11.52639,42.85194,DJ,DJI,Djibouti,17477,False,PPLA,Africa/Djibouti,,684
221527,Obock,Obock,11.96693,43.28835,DJ,DJI,Djibouti,15429,False,PPLA,Africa/Djibouti,,13
3575635,Roseau,Roseau,15.30174,-61.38808,DM,DMA,Dominica,16571,True,PPLC,America/Dominica,,11
2618425,Copenhagen,Copenhagen,55.67594,12.56553,DK,DNK,Denmark,1153615,True,PPLC,Europe/Copenhagen,,14
2624652,Århus,Arhus,56.15674,10.21076,DK,DNK,Denmark,285273,False,PPLA2,Europe/Copenhagen,,10
2615876,Odense,Odense,55.39594,10.38831,DK,DNK,Denmark,180863,False,PPLA2,Europe/Copenhagen,,17
2624886,Aalborg,Aalborg,57.048,9.9187,DK,DNK,Denmark,142937,False,PPLA,Europe/Copenhagen,,10
2621942,Frederiksberg,Frederiksberg,55.67938,12.53463,DK,DNK,Denmark,95029,False,PPLA2,Europe/Copenhagen,,15
2622447,Esbjerg,Esbjerg,55.47028,8.45187,DK,DNK,Denmark,71698,False,PPLA2,Europe/Copenhagen,,17
2615006,Randers,Randers,56.4607,10.03639,DK,DNK,Denmark,62802,False,PPLA2,Europe/Copenhagen,,12
2618528,Kolding,Kolding,55.4904,9.47216,DK,DNK,Denmark,61638,False,PPLA2,Europe/Copenhagen,,8
2619771,Horsens,Horsens,55.86066,9.85034,DK,DNK,Denmark,61074,False,PPLA2,Europe/Copenhagen,4,4
2610613,Vejle,Vejle,55.70927,9.5357,DK,DNK,Denmark,60231,False,PPLA,Europe/Copenhagen,,5
3492908,Santo Domingo,Santo Domingo,18.47186,-69.89232,DO,DOM,Dominican Republic,2201941,True,PPLC,America/Santo_Domingo,,24
3492914,Santiago de los Caballeros,Santiago de los Caballeros,19.45036,-70.69085,DO,DOM,Dominican Republic,1200000,False,PPLA,America/Santo_Domingo,,209
7874116,Santo Domingo Oeste,Santo Domingo Oeste,18.5,-70.0,DO,DOM,Dominican Republic,701269,False,PPL,America/Santo_Domingo,,58
8601412,Santo Domingo Este,Santo Domingo Este,18.48511,-69.84757,DO,DOM,Dominican Republic,700000,False,PPLA,America/Santo_Domingo,,41
3493032,San Pedro de Macorís,San Pedro de Macoris,18.4539,-69.30864,DO,DOM,Dominican Republic,217899,False,PPLA,America/Santo_Domingo,,6
3500957,La Romana,La Romana,18.42332,-68.96635,DO,DOM,Dominican Republic,208437,False,PPLA,America/Santo_Domingo,,9
3511550,Bella Vista,Bella Vista,18.45539,-69.9454,DO,DOM,Dominican Republic,175683,False,PPLX,America/Santo_Domingo,,50
3511540,San Cristóbal,San Cristobal,18.41713,-70.10682,DO,DOM,Dominican Republic,154040,False,PPLA,America/Santo_Domingo,,45
3493175,Puerto Plata,Puerto Plata,19.79344,-70.6884,DO,DOM,Dominican Republic,146000,False,PPLA,America/Santo_Domingo,,34
3493146,San Francisco de Macorís,San Francisco de Macoris,19.29377,-70.25285,DO,DOM,Dominican Republic,124763,False,PPLA,America/Santo_Domingo,,123
2507480,Algiers,Algiers,36.73225,3.08746,DZ,DZA,Algeria,2364230,True,PPLC,Africa/Algiers,,113
2485926,Oran,Oran,35.69906,-0.63588,DZ,DZA,Algeria,803329,False,PPLA,Africa/Algiers,,118
2501152,Constantine,Constantine,36.365,6.61472,DZ,DZA,Algeria,448028,False,PPLA,Africa/Algiers,,574
2506999,Annaba,Annaba,36.9,7.76667,DZ,DZA,Algeria,342703,False,PPLA,Africa/Algiers,,5
2503769,Blida,Blida,36.47004,2.8277,DZ,DZA,Algeria,331779,False,PPLA,Africa/Algiers,,256
2505572,Batna City,Batna City,35.55597,6.17414,DZ,DZA,Algeria,289504,False,PPLA,Africa/Algiers,,1037
2505854,Bab Ezzouar,Bab Ezzouar,36.72615,3.18291,DZ,DZA,Algeria,275630,False,PPL,Africa/Algiers,,20
2500017,Djelfa,Djelfa,34.67279,3.263,DZ,DZA,Algeria,265833,False,PPLA,Africa/Algiers,,1138
2481700,Sétif,Setif,36.19112,5.41373,DZ,DZA,Algeria,252127,False,PPLA,Africa/Algiers,,1096
2481007,Sidi Bel Abbes,Sidi Bel Abbes,35.18994,-0.63085,DZ,DZA,Algeria,210146,False,PPLA,Africa/Algiers,492,476
3652462,Quito,Quito,-0.22985,-78.52495,EC,ECU,Ecuador,2781641,True,PPLC,America/Guayaquil,,2854
3657509,Guayaquil,Guayaquil,-2.19616,-79.88621,EC,ECU,Ecuador,2723665,False,PPLA,America/Guayaquil,,14
3658666,Cuenca,Cuenca,-2.8953,-78.9963,EC,ECU,Ecuador,636996,False,PPLA,America/Guayaquil,,2484
3651297,Santo Domingo de los Colorados,Santo Domingo de los Colorados,-0.25368,-79.17628,EC,ECU,Ecuador,458580,False,PPLA,America/Guayaquil,,555
3660689,Ambato,Ambato,-1.24908,-78.61675,EC,ECU,Ecuador,387309,False,PPLA,America/Guayaquil,,2597
3652941,Portoviejo,Portoviejo,-1.05764,-80.45145,EC,ECU,Ecuador,321800,False,PPLA,America/Guayaquil,,90
3658192,Eloy Alfaro,Eloy Alfaro,-2.16919,-79.83987,EC,ECU,Ecuador,315724,False,PPLA2,America/Guayaquil,,3
3654533,Machala,Machala,-3.25886,-79.95876,EC,ECU,Ecuador,289141,False,PPLA,America/Guayaquil,,16
3654667,Loja,Loja,-3.99313,-79.20422,EC,ECU,Ecuador,274112,False,PPLA,America/Guayaquil,,2060
3654410,Manta,Manta,-0.94937,-80.73137,EC,ECU,Ecuador,264281,False,PPLA2,America/Guayaquil,,3
360630,Cairo,Cairo,30.06263,31.24967,EG,EGY,Egypt,9606916,True,PPLC,Africa/Cairo,,23
361058,Alexandria,Alexandria,31.20176,29.91582,EG,EGY,Egypt,5263542,False,PPLA,Africa/Cairo,,9
360995,Giza,Giza,30.00944,31.20861,EG,EGY,Egypt,4367343,False,PPLA,Africa/Cairo,,19
349076,Shubrā al Khaymah,Shubra al Khaymah,30.12511,31.25053,EG,EGY,Egypt,1240289,False,PPLA2,Africa/Cairo,,26
358619,Port Said,Port Said,31.26531,32.3019,EG,EGY,Egypt,780515,False,PPLA,Africa/Cairo,,16
359796,Suez,Suez,29.97371,32.52627,EG,EGY,Egypt,699541,False,PPLA,Africa/Cairo,,11
353225,Madīnat an Naşr,Madinat an Nasr,30.06667,31.3,EG,EGY,Egypt,668413,False,PPLX,Africa/Cairo,,47
360761,Al Mansurah,Al Mansurah,31.03637,31.38069,EG,EGY,Egypt,621953,False,PPLA,Africa/Cairo,,15
360829,Al Maḩallah al Kubrá,Al Mahallah al Kubra,30.97063,31.1669,EG,EGY,Egypt,592573,False,PPL,Africa/Cairo,,17
347497,Tanta,Tanta,30.78847,31.00192,EG,EGY,Egypt,576648,False,PPLA,Africa/Cairo,,18
343300,Asmara,Asmara,15.33805,38.93184,ER,ERI,Eritrea,563930,True,PPLC,Africa/Asmara,,2334
333287,Keren,Keren,15.77792,38.45107,ER,ERI,Eritrea,74800,False,PPLA,Africa/Asmara,,1399
334717,Himora,Himora,14.30427,36.60601,ER,ERI,Eritrea,46100,False,PPL,Africa/Asmara,,585
330546,Massawa,Massawa,15.60811,39.47455,ER,ERI,Eritrea,23100,False,PPLA,Africa/Asmara,,9
343386,Assab,Assab,13.00917,42.73944,ER,ERI,Eritrea,21300,False,PPLA,Africa/Asmara,,22
344901,Mendefera,Mendefera,14.88722,38.81528,ER,ERI,Eritrea,17781,False,PPLA,Africa/Asmara,,1977
342711,Barentu,Barentu,15.10582,37.59067,ER,ERI,Eritrea,15891,False,PPLA,Africa/Asmara,,1009
2462881,Laayoune,Laayoune,27.1418,-13.18797,EH,ESH,Western Sahara,196331,False,PPLA,Africa/El_Aaiun,,68
2463447,Dakhla,Dakhla,23.68477,-15.95798,EH,ESH,Western Sahara,75000,False,PPLA,Africa/El_Aaiun,,6
2463029,Boujdour,Boujdour,26.13073,-14.48513,EH,ESH,Western Sahara,42651,False,PPL,Africa/El_Aaiun,,28
2461993,El Marsa,El Marsa,27.09611,-13.41583,EH,ESH,Western Sahara,17917,False,PPL,Africa/El_Aaiun,,4
3117735,Madrid,Madrid,40.4165,-3.70256,ES,ESP,Spain,3255944,True,PPLC,Europe/Madrid,,665
3128760,Barcelona,Barcelona,41.38879,2.15899,ES,ESP,Spain,1686208,False,PPLA,Europe/Madrid,15,47
2509954,Valencia,Valencia,39.47391,-0.37966,ES,ESP,Spain,824340,False,PPLA,Europe/Madrid,15,10
3104324,Zaragoza,Zaragoza,41.65606,-0.87734,ES,ESP,Spain,686986,False,PPLA,Europe/Madrid,,214
2510911,Sevilla,Sevilla,37.38283,-5.97317,ES,ESP,Spain,686741,False,PPLA,Europe/Madrid,,16
2514256,Málaga,Malaga,36.72016,-4.42034,ES,ESP,Spain,591637,False,PPLA2,Europe/Madrid,,22
2513416,Murcia,Murcia,37.98704,-1.13004,ES,ESP,Spain,471982,False,PPLA,Europe/Madrid,,53
2512989,Palma,Palma,39.56939,2.65024,ES,ESP,Spain,438234,False,PPLA,Europe/Madrid,,34
2515270,Las Palmas de Gran Canaria,Las Palmas de Gran Canaria,28.10178,-15.41573,ES,ESP,Spain,383516,False,PPLA,Atlantic/Canary,,122
2521978,Alicante,Alicante,38.34517,-0.48149,ES,ESP,Spain,348901,False,PPLA2,Europe/Madrid,,18
588409,Tallinn,Tallinn,59.43696,24.75353,EE,EST,Estonia,394024,True,PPLC,Europe/Tallinn,,12
588335,Tartu,Tartu,58.38062,26.72509,EE,EST,Estonia,91407,False,PPLA,Europe/Tallinn,,39
590031,Narva,Narva,59.37722,28.19028,EE,EST,Estonia,54409,False,PPLA2,Europe/Tallinn,,30
589580,Pärnu,Paernu,58.38588,24.49711,EE,EST,Estonia,40228,False,PPLA,Europe/Tallinn,,6
589947,Nõmme,Nomme,59.37757,24.68587,EE,EST,Estonia,39422,False,PPLX,Europe/Tallinn,,57
591260,Kohtla-Järve,Kohtla-Jaerve,59.39861,27.27306,EE,EST,Estonia,35395,False,PPL,Europe/Tallinn,,66
587577,Viljandi,Viljandi,58.36319,25.59159,EE,EST,Estonia,17407,False,PPLA,Europe/Tallinn,,84
590447,Maardu,Maardu,59.46529,24.98215,EE,EST,Estonia,16630,False,PPLA2,Europe/Tallinn,,25
344979,Addis Ababa,Addis Ababa,9.02497,38.74689,ET,ETH,Ethiopia,3860000,True,PPLC,Africa/Addis_Ababa,,2405
333795,Jijiga,Jijiga,9.35,42.8,ET,ETH,Ethiopia,483000,False,PPLA,Africa/Addis_Ababa,,1646
336014,Gonder,Gonder,12.6,37.46667,ET,ETH,Ethiopia,466000,False,PPL,Africa/Addis_Ababa,,2201
331180,Mek'ele,Mek'ele,13.49667,39.47528,ET,ETH,Ethiopia,457900,False,PPLA,Africa/Addis_Ababa,,2068
330186,Nazrēt,Nazret,8.55,39.26667,ET,ETH,Ethiopia,456900,False,PPL,Africa/Addis_Ababa,,1627
326282,Warder,Warder,6.97444,45.34083,ET,ETH,Ethiopia,450400,False,PPL,Africa/Addis_Ababa,,556
343137,Awasa,Awasa,7.06205,38.47635,ET,ETH,Ethiopia,422200,False,PPLA,Africa/Addis_Ababa,,1697
342884,Bahir Dar,Bahir Dar,11.59364,37.39077,ET,ETH,Ethiopia,350000,False,PPLA,Africa/Addis_Ababa,,1799
338832,Dire Dawa,Dire Dawa,9.59306,41.86611,ET,ETH,Ethiopia,343000,False,PPLA,Africa/Addis_Ababa,,1204
339219,Dessie,Dessie,11.13333,39.63333,ET,ETH,Ethiopia,270400,False,PPL,Africa/Addis_Ababa,,2494
658225,Helsinki,Helsinki,60.16952,24.93545,FI,FIN,Finland,658864,True,PPLC,Europe/Helsinki,,26
660158,Espoo,Espoo,60.2052,24.6522,FI,FIN,Finland,323910,False,PPLA3,Europe/Helsinki,,16
634963,Tampere,Tampere,61.49911,23.78712,FI,FIN,Finland,260646,False,PPLA,Europe/Helsinki,,114
632453,Vantaa,Vantaa,60.29414,25.04099,FI,FIN,Finland,252724,False,PPLA3,Europe/Helsinki,,18
643492,Oulu,Oulu,65.01236,25.46816,FI,FIN,Finland,216066,False,PPLA,Europe/Helsinki,,15
633679,Turku,Turku,60.45148,22.26869,FI,FIN,Finland,206655,False,PPLA,Europe/Helsinki,,22
12747032,East Helsinki,East Helsinki,60.21043,25.08289,FI,FIN,Finland,170557,False,PPLX,Europe/Helsinki,,9
655194,Jyväskylä,Jyvaeskylae,62.24147,25.72088,FI,FIN,Finland,148744,False,PPLA,Europe/Helsinki,,109
650224,Kuopio,Kuopio,62.89238,27.67703,FI,FIN,Finland,125462,False,PPLA,Europe/Helsinki,,90
649360,Lahti,Lahti,60.98267,25.66151,FI,FIN,Finland,121622,False,PPLA,Europe/Helsinki,,105
8740209,Nasinu,Nasinu,-18.07051,178.51313,FJ,FJI,Fiji,92043,False,PPL,Pacific/Fiji,,31
2198148,Suva,Suva,-18.13683,178.42531,FJ,FJI,Fiji,77366,True,PPLC,Pacific/Fiji,,-9999
2204506,Lautoka,Lautoka,-17.61686,177.45049,FJ,FJI,Fiji,52500,False,PPLA,Pacific/Fiji,,47
2202064,Nadi,Nadi,-17.80309,177.41617,FJ,FJI,Fiji,42284,False,PPL,Pacific/Fiji,,9
2204582,Labasa,Labasa,-16.4332,179.36451,FJ,FJI,Fiji,27949,False,PPLA,Pacific/Fiji,,5
2204575,Lami,Lami,-18.11094,178.40943,FJ,FJI,Fiji,24639,False,PPL,Pacific/Fiji,,7
2198365,Sigatoka,Sigatoka,-18.14307,177.50691,FJ,FJI,Fiji,17622,False,PPL,Pacific/Fiji,,6
3426691,Stanley,Stanley,-51.69382,-57.85701,FK,FLK,Falkland Islands,2213,True,PPLC,Atlantic/Stanley,,28
2988507,Paris,Paris,48.85341,2.3488,FR,FRA,France,2138551,True,PPLC,Europe/Paris,,42
2995469,Marseille,Marseille,43.29695,5.38107,FR,FRA,France,877215,False,PPLA,Europe/Paris,,28
2996944,Lyon,Lyon,45.74906,4.84789,FR,FRA,France,520774,False,PPLA,Europe/Paris,,173
2972315,Toulouse,Toulouse,43.60426,1.44367,FR,FRA,France,511684,False,PPLA,Europe/Paris,,150
2990440,Nice,Nice,43.70313,7.26608,FR,FRA,France,342669,False,PPLA2,Europe/Paris,25,18
2990969,Nantes,Nantes,47.21725,-1.55336,FR,FRA,France,325070,False,PPLA,Europe/Paris,,19
12278193,Marne La Vallée,Marne La Vallee,48.83584,2.64241,FR,FRA,France,318325,False,PPL,Europe/Paris,,96
2973783,Strasbourg,Strasbourg,48.58392,7.74553,FR,FRA,France,274845,False,PPLA,Europe/Paris,,147
3031582,Bordeaux,Bordeaux,44.84124,-0.58046,FR,FRA,France,265328,False,PPLA,Europe/Paris,,20
2992166,Montpellier,Montpellier,43.61093,3.87635,FR,FRA,France,248252,False,PPLA2,Europe/Paris,,55
2611396,Tórshavn,Torshavn,62.00973,-6.77164,FO,FRO,Faroe Islands,13200,True,PPLC,Atlantic/Faroe,,1
2081986,Palikir,Palikir,6.92477,158.16109,FM,FSM,Micronesia,6942,True,PPLC,Pacific/Pohnpei,90,92
2399697,Libreville,Libreville,0.39241,9.45356,GA,GAB,Gabon,846090,True,PPLC,Africa/Libreville,,8
2396518,Port-Gentil,Port-Gentil,-0.71933,8.78151,GA,GAB,Gabon,164018,False,PPLA,Africa/Libreville,,4
2400555,Franceville,Franceville,-1.63333,13.58357,GA,GAB,Gabon,132895,False,PPLA,Africa/Libreville,,405
2396657,Owendo,Owendo,0.29123,9.50465,GA,GAB,Gabon,95313,False,PPL,Africa/Libreville,,6
2396646,Oyem,Oyem,1.5995,11.57933,GA,GAB,Gabon,72939,False,PPLA,Africa/Libreville,,656
2398269,Moanda,Moanda,-1.56652,13.1987,GA,GAB,Gabon,71099,False,PPL,Africa/Libreville,,416
2397169,Ntoum,Ntoum,0.39051,9.76096,GA,GAB,Gabon,62445,False,PPL,Africa/Libreville,,11
2399888,Lambaréné,Lambarene,-0.7001,10.24055,GA,GAB,Gabon,46605,False,PPLA,Africa/Libreville,,26
2398073,Mouila,Mouila,-1.86846,11.05594,GA,GAB,Gabon,43342,False,PPLA,Africa/Libreville,,92
12640495,Akanda,Akanda,0.60732,9.32933,GA,GAB,Gabon,41524,False,PPL,Africa/Libreville,,291
2643743,London,London,51.50853,-0.12574,GB,GBR,United Kingdom,8961989,True,PPLC,Europe/London,,25
2655603,Birmingham,Birmingham,52.48142,-1.89983,GB,GBR,United Kingdom,1157603,False,PPLA2,Europe/London,,149
2648579,Glasgow,Glasgow,55.86515,-4.25763,GB,GBR,United Kingdom,626410,False,PPLA2,Europe/London,,40
2643123,Manchester,Manchester,53.48095,-2.23743,GB,GBR,United Kingdom,568996,False,PPLA2,Europe/London,,51
2638077,Sheffield,Sheffield,53.38297,-1.4659,GB,GBR,United Kingdom,556500,False,PPLA2,Europe/London,,75
2644688,Leeds,Leeds,53.79648,-1.54785,GB,GBR,United Kingdom,536280,False,PPLA2,Europe/London,,50
2650225,Edinburgh,Edinburgh,55.95206,-3.19648,GB,GBR,United Kingdom,514990,False,PPLA,Europe/London,,66
2644210,Liverpool,Liverpool,53.41058,-2.97794,GB,GBR,United Kingdom,496770,False,PPLA2,Europe/London,,30
2654675,Bristol,Bristol,51.45523,-2.59665,GB,GBR,United Kingdom,479024,False,PPLA2,Europe/London,,21
2653822,Cardiff,Cardiff,51.48,-3.18,GB,GBR,United Kingdom,372089,False,PPLA,Europe/London,,17
611717,Tbilisi,Tbilisi,41.69143,44.83412,GE,GEO,Georgia,1049498,True,PPLC,Asia/Tbilisi,,433
615532,Batumi,Batumi,41.64077,41.6306,GE,GEO,Georgia,186949,False,PPLA,Asia/Tbilisi,,8
613607,Kutaisi,Kutaisi,42.26791,42.69459,GE,GEO,Georgia,135201,False,PPLA,Asia/Tbilisi,,153
612287,Rustavi,Rustavi,41.56271,44.9787,GE,GEO,Georgia,128249,False,PPLA,Asia/Tbilisi,,345
611847,Sokhumi,Sokhumi,43.00697,40.9893,GE,GEO,Georgia,65439,False,PPLA,Europe/Moscow,,21
614455,Gori,Gori,41.98532,44.1129,GE,GEO,Georgia,41933,False,PPLA,Asia/Tbilisi,,602
612366,Poti,Poti,42.14272,41.67384,GE,GEO,Georgia,41175,False,PPLA2,Asia/Tbilisi,,6
610824,Zugdidi,Zugdidi,42.5084,41.86796,GE,GEO,Georgia,40067,False,PPLA,Asia/Tbilisi,,128
611403,Ts’khinvali,Ts'khinvali,42.22764,43.96861,GE,GEO,Georgia,32180,False,PPL,Asia/Tbilisi,,874
615912,Stantsiya Novyy Afon,Stantsiya Novyy Afon,43.08056,40.83833,GE,GEO,Georgia,26636,False,PPL,Asia/Tbilisi,,8
3042287,Saint Peter Port,Saint Peter Port,49.45981,-2.53527,GG,GGY,Guernsey,16488,True,PPLC,Europe/Guernsey,,10
2298890,Kumasi,Kumasi,6.68848,-1.62443,GH,GHA,Ghana,2544530,False,PPLA,Africa/Accra,,270
2306104,Accra,Accra,5.55602,-0.1969,GH,GHA,Ghana,1963264,True,PPLC,Africa/Accra,,33
2294877,Tamale,Tamale,9.40079,-0.8393,GH,GHA,Ghana,464316,False,PPLA,Africa/Accra,,196
2294915,Takoradi,Takoradi,4.89816,-1.76029,GH,GHA,Ghana,389114,False,PPL,Africa/Accra,,10
11808941,Sekondi,Sekondi,4.93422,-1.71454,GH,GHA,Ghana,285506,False,PPLA2,Africa/Accra,,7
2302357,Cape Coast,Cape Coast,5.10535,-1.2466,GH,GHA,Ghana,212426,False,PPLA,Africa/Accra,,21
2306079,Atsiaman,Atsiaman,5.69775,-0.32824,GH,GHA,Ghana,202932,False,PPL,Africa/Accra,,45
2304121,Ashaiman,Ashaiman,5.69951,-0.03484,GH,GHA,Ghana,190972,False,PPL,Africa/Accra,,23
2296606,Obuase,Obuase,6.20228,-1.66796,GH,GHA,Ghana,179604,False,PPL,Africa/Accra,,215
2294700,Tema,Tema,5.6698,-0.01657,GH,GHA,Ghana,155782,False,PPL,Africa/Accra,,27
2411585,Gibraltar,Gibraltar,36.14474,-5.35257,GI,GIB,Gibraltar,26544,True,PPLC,Europe/Gibraltar,,11
2422465,Conakry,Conakry,9.53795,-13.67729,GN,GIN,Guinea,1928389,True,PPLC,Africa/Conakry,,13
2422488,Camayenne,Camayenne,9.535,-13.68778,GN,GIN,Guinea,1871242,False,PPL,Africa/Conakry,,6
2416969,Nzérékoré,Nzerekore,7.75624,-8.8179,GN,GIN,Guinea,226426,False,PPLA,Africa/Conakry,,482
2419992,Kankan,Kankan,10.38542,-9.30568,GN,GIN,Guinea,221428,False,PPLA,Africa/Conakry,,381
2417786,Manéah,Maneah,9.73333,-13.41667,GN,GIN,Guinea,194297,False,PPL,Africa/Conakry,,46
2421535,Dubréka,Dubreka,9.79111,-13.52333,GN,GIN,Guinea,182296,False,PPLA2,Africa/Conakry,,19
2419533,Kindia,Kindia,10.05692,-12.86576,GN,GIN,Guinea,161024,False,PPLA,Africa/Conakry,,415
2415703,Siguiri,Siguiri,11.42282,-9.16852,GN,GIN,Guinea,148018,False,PPLA2,Africa/Conakry,,368
2421820,Dixinn,Dixinn,9.55111,-13.67306,GN,GIN,Guinea,137287,False,PPL,Africa/Conakry,,7
2419472,Kissidougou,Kissidougou,9.1848,-10.09987,GN,GIN,Guinea,116019,False,PPLA2,Africa/Conakry,,530
3578959,Les Abymes,Les Abymes,16.273,-61.50507,GP,GLP,Guadeloupe,53514,False,PPL,America/Guadeloupe,,20
3579767,Baie-Mahault,Baie-Mahault,16.26738,-61.58543,GP,GLP,Guadeloupe,30837,False,PPL,America/Guadeloupe,,18
3578978,Le Gosier,Le Gosier,16.20618,-61.49306,GP,GLP,Guadeloupe,28698,False,PPL,America/Guadeloupe,,24
3578682,Petit-Bourg,Petit-Bourg,16.19163,-61.5914,GP,GLP,Guadeloupe,24994,False,PPL,America/Guadeloupe,,7
3578466,Sainte-Anne,Sainte-Anne,16.22564,-61.38098,GP,GLP,Guadeloupe,22859,False,PPL,America/Guadeloupe,,3
3578967,Le Moule,Le Moule,16.33164,-61.34656,GP,GLP,Guadeloupe,22692,False,PPL,America/Guadeloupe,,8
3578447,Sainte-Rose,Sainte-Rose,16.33264,-61.6969,GP,GLP,Guadeloupe,20192,False,PPL,America/Guadeloupe,,22
3579585,Capesterre-Belle-Eau,Capesterre-Belle-Eau,16.04495,-61.56425,GP,GLP,Guadeloupe,19821,False,PPL,America/Guadeloupe,,17
3578599,Pointe-à-Pitre,Pointe-a-Pitre,16.23638,-61.53459,GP,GLP,Guadeloupe,15181,False,PPLA3,America/Guadeloupe,,-9999
3579732,Basse-Terre,Basse-Terre,15.99714,-61.73214,GP,GLP,Guadeloupe,11472,True,PPLC,America/Guadeloupe,,11
2411989,Serekunda,Serekunda,13.43833,-16.67806,GM,GMB,Gambia,340000,False,PPL,Africa/Banjul,,15
2413753,Brikama,Brikama,13.27136,-16.64944,GM,GMB,Gambia,97233,False,PPLA,Africa/Banjul,,24
2413709,Bununka Kunda,Bununka Kunda,13.42722,-16.68528,GM,GMB,Gambia,66449,False,PPLX,Africa/Banjul,,20
2411880,Sukuta,Sukuta,13.41033,-16.70815,GM,GMB,Gambia,56472,False,PPL,Africa/Banjul,,27
12640502,Talinding,Talinding,13.42558,-16.67261,GM,GMB,Gambia,48687,False,PPL,Africa/Banjul,,24
2413525,Faji Kunda,Faji Kunda,13.41778,-16.66667,GM,GMB,Gambia,45757,False,PPL,Africa/Banjul,,16
2413920,Bakau,Bakau,13.47806,-16.68194,GM,GMB,Gambia,43098,False,PPL,Africa/Banjul,,22
2413876,Banjul,Banjul,13.45274,-16.57803,GM,GMB,Gambia,37274,True,PPLC,Africa/Banjul,,5
2412452,Nema Kunku,Nema Kunku,13.25,-15.88333,GM,GMB,Gambia,34390,False,PPL,Africa/Banjul,,18
2413515,Farafenni,Farafenni,13.56667,-15.6,GM,GMB,Gambia,32883,False,PPL,Africa/Banjul,,15
2374775,Bissau,Bissau,11.86357,-15.59767,GW,GNB,Guinea-Bissau,439704,True,PPLC,Africa/Bissau,,13
2372532,Gabú,Gabu,12.28,-14.22222,GW,GNB,Guinea-Bissau,49371,False,PPLA,Africa/Bissau,,64
2375254,Bafatá,Bafata,12.16583,-14.66167,GW,GNB,Guinea-Bissau,33502,False,PPLA,Africa/Bissau,,20
2368657,Xitole,Xitole,11.73333,-14.81667,GW,GNB,Guinea-Bissau,19424,False,PPL,Africa/Bissau,,32
2310046,Bata,Bata,1.86391,9.76582,GQ,GNQ,Equatorial Guinea,173046,False,PPLA,Africa/Malabo,,13
2309527,Malabo,Malabo,3.75578,8.78166,GQ,GNQ,Equatorial Guinea,155963,False,PPLA,Africa/Malabo,,34
2309332,Ebebiyin,Ebebiyin,2.15218,11.33013,GQ,GNQ,Equatorial Guinea,24831,False,PPLA,Africa/Malabo,,392
12226438,Ciudad de la Paz,Ciudad de la Paz,1.5925,10.82361,GQ,GNQ,Equatorial Guinea,2000,True,PPLC,Africa/Malabo,454,646
264371,Athens,Athens,37.98376,23.72784,GR,GRC,Greece,664046,True,PPLC,Europe/Athens,70,84
734077,Thessaloníki,Thessaloniki,40.64072,22.93493,GR,GRC,Greece,317778,False,PPLA,Europe/Athens,,-9999
255683,Pátra,Patra,38.2462,21.73508,GR,GRC,Greece,168034,False,PPLA,Europe/Athens,,52
255274,Piraeus,Piraeus,37.94203,23.64619,GR,GRC,Greece,163688,False,PPLA3,Europe/Athens,,29
258576,Lárisa,Larisa,39.62847,22.42112,GR,GRC,Greece,146926,False,PPLA,Europe/Athens,,76
255524,Peristéri,Peristeri,38.01539,23.69187,GR,GRC,Greece,139981,False,PPLA3,Europe/Athens,,66
261745,Irákleion,Irakleion,35.32787,25.14341,GR,GRC,Greece,137154,False,PPLA,Europe/Athens,,60
261414,Kallithéa,Kallithea,37.95,23.7,GR,GRC,Greece,100641,False,PPLA3,Europe/Athens,,28
265488,Acharnés,Acharnes,38.08333,23.73333,GR,GRC,Greece,99346,False,PPLA3,Europe/Athens,,171
736083,Kalamariá,Kalamaria,40.5825,22.95028,GR,GRC,Greece,91518,False,PPLA3,Europe/Athens,,39
3579925,Saint George's,Saint George's,12.05288,-61.75226,GD,GRD,Grenada,7500,True,PPLC,America/Grenada,6,26
3421319,Nuuk,Nuuk,64.18347,-51.72157,GL,GRL,Greenland,14798,True,PPLC,America/Nuuk,5,1
3598132,Guatemala City,Guatemala City,14.64072,-90.51327,GT,GTM,Guatemala,994938,True,PPLC,America/Guatemala,,1508
3587902,Villa Nueva,Villa Nueva,14.52512,-90.58544,GT,GTM,Guatemala,618397,False,PPLA2,America/Guatemala,,1331
3592519,Mixco,Mixco,14.63077,-90.60711,GT,GTM,Guatemala,465773,False,PPLA2,America/Guatemala,,1726
3598119,Cobán,Coban,15.47025,-90.37455,GT,GTM,Guatemala,212047,False,PPLA,America/Guatemala,,1326
3590979,Quetzaltenango,Quetzaltenango,14.84462,-91.52316,GT,GTM,Guatemala,180706,False,PPLA,America/Guatemala,,2351
3595237,Jalapa,Jalapa,14.63542,-89.99112,GT,GTM,Guatemala,159840,False,PPLA,America/Guatemala,,1360
3595803,Escuintla,Escuintla,14.30097,-90.78816,GT,GTM,Guatemala,156313,False,PPLA,America/Guatemala,,349
3587923,Villa Canales,Villa Canales,14.48285,-90.53425,GT,GTM,Guatemala,155423,False,PPLA2,America/Guatemala,,1218
3595069,Jutiapa,Jutiapa,14.28491,-89.88798,GT,GTM,Guatemala,145880,False,PPLA,America/Guatemala,,871
3598655,Chichicastenango,Chichicastenango,14.94333,-91.11116,GT,GTM,Guatemala,141567,False,PPLA2,America/Guatemala,,2077
3382160,Cayenne,Cayenne,4.9381,-52.33455,GF,GUF,French Guiana,61550,True,PPLC,America/Cayenne,,7
3380965,Matoury,Matoury,4.84921,-52.32355,GF,GUF,French Guiana,26350,False,PPLA3,America/Cayenne,,13
3380387,Saint-Laurent-du-Maroni,Saint-Laurent-du-Maroni,5.50153,-54.02916,GF,GUF,French Guiana,24287,False,PPLA2,America/Cayenne,,10
3381303,Kourou,Kourou,5.16281,-52.64265,GF,GUF,French Guiana,24029,False,PPLA3,America/Cayenne,,7
3380892,Rémire-Montjoly,Remire-Montjoly,4.91667,-52.26667,GF,GUF,French Guiana,19029,False,PPL,America/Cayenne,,7
4043909,Dededo Village,Dededo Village,13.51777,144.8391,GU,GUM,Guam,44943,False,PPLA,Pacific/Guam,98,100
4038794,Yigo Village,Yigo Village,13.53605,144.88855,GU,GUM,Guam,20539,False,PPLA,Pacific/Guam,140,132
4038659,Tamuning-Tumon-Harmon Village,Tamuning-Tumon-Harmon Village,13.48773,144.78138,GU,GUM,Guam,19685,False,PPLA,Pacific/Guam,13,20
7874631,Tamuning,Tamuning,13.48754,144.78143,GU,GUM,Guam,19685,False,PPLX,Pacific/Guam,13,20
7268049,Mangilao Village,Mangilao Village,13.44761,144.80109,GU,GUM,Guam,15191,False,PPLA,Pacific/Guam,62,58
4044012,Hagåtña,Hagatna,13.47567,144.74886,GU,GUM,Guam,1051,True,PPLC,Pacific/Guam,3,5
3378644,Georgetown,Georgetown,6.80448,-58.15527,GY,GUY,Guyana,235017,True,PPLC,America/Guyana,,3
3377408,Linden,Linden,6.00815,-58.30724,GY,GUY,Guyana,44690,False,PPLA,America/Guyana,,4
3376762,New Amsterdam,New Amsterdam,6.24924,-57.51578,GY,GUY,Guyana,35039,False,PPLA,America/Guyana,,1
1819729,Hong Kong,Hong Kong,22.27832,114.17469,HK,HKG,Hong Kong,7396076,True,PPLC,Asia/Hong_Kong,,60
12747063,New Territories,New Territories,22.42441,114.11095,HK,HKG,Hong Kong,3984077,False,PPLX,Asia/Hong_Kong,,231
1819609,Kowloon,Kowloon,22.31667,114.18333,HK,HKG,Hong Kong,2232339,False,PPLX,Asia/Hong_Kong,,92
12747064,Hong Kong Island,Hong Kong Island,22.26302,114.18419,HK,HKG,Hong Kong,1195529,False,PPLX,Asia/Hong_Kong,,170
1931681,Victoria,Victoria,22.2875,114.14417,HK,HKG,Hong Kong,956800,False,PPL,Asia/Hong_Kong,,31
1818446,Tuen Mun,Tuen Mun,22.39175,113.97157,HK,HKG,Hong Kong,507900,False,PPLA,Asia/Hong_Kong,,7
1818920,Sha Tin,Sha Tin,22.38333,114.18333,HK,HKG,Hong Kong,495200,False,PPLA,Asia/Hong_Kong,,115
1818953,Sham Shui Po,Sham Shui Po,22.33023,114.15945,HK,HKG,Hong Kong,431090,False,PPLA,Asia/Hong_Kong,,10
1818304,Wong Tai Sin,Wong Tai Sin,22.35,114.18333,HK,HKG,Hong Kong,425235,False,PPLA,Asia/Hong_Kong,,253
1819607,Kowloon City,Kowloon City,22.33047,114.19222,HK,HKG,Hong Kong,418732,False,PPL,Asia/Hong_Kong,,11
3600949,Tegucigalpa,Tegucigalpa,14.0818,-87.20681,HN,HND,Honduras,850848,True,PPLC,America/Tegucigalpa,,944
3601782,San Pedro Sula,San Pedro Sula,15.50585,-88.02588,HN,HND,Honduras,801259,False,PPLA,America/Tegucigalpa,,90
3608248,La Ceiba,La Ceiba,15.75971,-86.78221,HN,HND,Honduras,222055,False,PPLA,America/Tegucigalpa,,14
3613533,Choloma,Choloma,15.61444,-87.95302,HN,HND,Honduras,139100,False,PPLA2,America/Tegucigalpa,,41
3610613,El Progreso,El Progreso,15.4,-87.8,HN,HND,Honduras,100810,False,PPLA2,America/Tegucigalpa,,48
3613528,Ciudad Choluteca,Ciudad Choluteca,13.30569,-87.17882,HN,HND,Honduras,75872,False,PPLA,America/Tegucigalpa,,45
3613321,Comayagua,Comayagua,14.45577,-87.63968,HN,HND,Honduras,58784,False,PPLA,America/Tegucigalpa,,551
3600026,Puerto Cortez,Puerto Cortez,15.82562,-87.92968,HN,HND,Honduras,48013,False,PPL,America/Tegucigalpa,,10
3607511,La Lima,La Lima,15.43333,-87.91667,HN,HND,Honduras,45955,False,PPL,America/Tegucigalpa,,33
3612907,Danlí,Danli,14.03333,-86.58333,HN,HND,Honduras,44799,False,PPL,America/Tegucigalpa,,763
3186886,Zagreb,Zagreb,45.81444,15.97798,HR,HRV,Croatia,663592,True,PPLC,Europe/Zagreb,,135
3190261,Split,Split,43.50891,16.43915,HR,HRV,Croatia,149830,False,PPLA,Europe/Zagreb,,12
3191648,Rijeka,Rijeka,45.32673,14.44241,HR,HRV,Croatia,107964,False,PPLA,Europe/Zagreb,,12
3193935,Osijek,Osijek,45.55066,18.6942,HR,HRV,Croatia,75535,False,PPLA,Europe/Zagreb,,87
3186952,Zadar,Zadar,44.11578,15.22514,HR,HRV,Croatia,67309,False,PPLA,Europe/Zagreb,,2
3190966,Sesvete,Sesvete,45.83111,16.11639,HR,HRV,Croatia,55313,False,PPL,Europe/Zagreb,,142
3192224,Pula,Pula,44.86833,13.84806,HR,HRV,Croatia,52220,False,PPLA2,Europe/Zagreb,,11
3190586,Slavonski Brod,Slavonski Brod,45.16158,18.0163,HR,HRV,Croatia,45005,False,PPLA,Europe/Zagreb,,83
3345300,Karlovac,Karlovac,45.49167,15.55,HR,HRV,Croatia,41869,False,PPLA,Europe/Zagreb,,114
13405691,Liberpolis,Liberpolis,45.77468,18.88007,HR,HRV,Croatia,63,True,PPLG,Europe/Zagreb,,77
3718426,Port-au-Prince,Port-au-Prince,18.54349,-72.33881,HT,HTI,Haiti,1234742,True,PPLC,America/Port-au-Prince,,27
3728338,Carrefour,Carrefour,18.54114,-72.39922,HT,HTI,Haiti,442156,False,PPLX,America/Port-au-Prince,,32
3726786,Delmas,Delmas,18.54478,-72.30036,HT,HTI,Haiti,382920,False,PPL,America/Port-au-Prince,,127
3718420,Port-de-Paix,Port-de-Paix,19.93984,-72.83037,HT,HTI,Haiti,306217,False,PPLA,America/Port-au-Prince,,11
3719028,Pétionville,Petionville,18.5125,-72.28528,HT,HTI,Haiti,283052,False,PPL,America/Port-au-Prince,,389
3727135,Croix-des-Bouquets,Croix-des-Bouquets,18.57677,-72.22625,HT,HTI,Haiti,229127,False,PPLA2,America/Port-au-Prince,,69
3723779,Jacmel,Jacmel,18.23569,-72.53686,HT,HTI,Haiti,137966,False,PPLA,America/Port-au-Prince,,29
3728474,Cap-Haïtien,Cap-Haitien,19.75938,-72.19815,HT,HTI,Haiti,134815,False,PPLA,America/Port-au-Prince,,7
3722286,Léogâne,Leogane,18.5111,-72.63343,HT,HTI,Haiti,134190,False,PPL,America/Port-au-Prince,,18
3731088,Arcahaie,Arcahaie,18.77019,-72.51226,HT,HTI,Haiti,130306,False,PPL,America/Port-au-Prince,15,15
3054643,Budapest,Budapest,47.49835,19.04045,HU,HUN,Hungary,1741041,True,PPLC,Europe/Budapest,,104
721472,Debrecen,Debrecen,47.53167,21.62444,HU,HUN,Hungary,202402,False,PPLA,Europe/Budapest,,124
715429,Szeged,Szeged,46.253,20.14824,HU,HUN,Hungary,160766,False,PPLA,Europe/Budapest,,84
717582,Miskolc,Miskolc,48.10327,20.77806,HU,HUN,Hungary,154521,False,PPLA,Europe/Budapest,,127
3046526,Pécs,Pecs,46.07617,18.22814,HU,HUN,Hungary,145347,False,PPLA,Europe/Budapest,,155
7284824,Budapest XI. kerület,Budapest XI. keruelet,47.47603,19.03605,HU,HUN,Hungary,139049,False,PPLX,Europe/Budapest,,107
3042430,Zugló,Zuglo,47.51758,19.10549,HU,HUN,Hungary,130000,False,PPLX,Europe/Budapest,,111
3052009,Győr,Gyor,47.68333,17.63512,HU,HUN,Hungary,129301,False,PPLA,Europe/Budapest,,122
7284842,Budapest III. kerület,Budapest III. keruelet,47.54157,19.04501,HU,HUN,Hungary,123723,False,PPLX,Europe/Budapest,,109
716935,Nyíregyháza,Nyiregyhaza,47.95539,21.71671,HU,HUN,Hungary,117689,False,PPLA,Europe/Budapest,,111
1642911,Jakarta,Jakarta,-6.21462,106.84513,ID,IDN,Indonesia,8540121,True,PPLC,Asia/Jakarta,,16
1625822,Surabaya,Surabaya,-7.24917,112.75083,ID,IDN,Indonesia,2874314,False,PPLA,Asia/Jakarta,,8
1649378,Bekasi,Bekasi,-6.2349,106.9896,ID,IDN,Indonesia,2564940,False,PPL,Asia/Jakarta,,18
1650357,Bandung,Bandung,-6.92222,107.60694,ID,IDN,Indonesia,2444160,False,PPLA,Asia/Jakarta,,714
1214520,Medan,Medan,3.58333,98.66667,ID,IDN,Indonesia,2435252,False,PPLA,Asia/Jakarta,,26
1645524,Depok,Depok,-6.4,106.81861,ID,IDN,Indonesia,2145400,False,PPL,Asia/Jakarta,,92
1625084,Tangerang,Tangerang,-6.17806,106.63,ID,IDN,Indonesia,1912679,False,PPL,Asia/Jakarta,,18
1633070,Palembang,Palembang,-2.91673,104.7458,ID,IDN,Indonesia,1668848,False,PPLA,Asia/Jakarta,,5
1627896,Semarang,Semarang,-6.99306,110.42083,ID,IDN,Indonesia,1653524,False,PPLA,Asia/Jakarta,,18
1622786,Makassar,Makassar,-5.14861,119.43194,ID,IDN,Indonesia,1423877,False,PPLA,Asia/Makassar,,6
8581443,South Tangerang,South Tangerang,-6.28862,106.71789,ID,IDN,Indonesia,1404785,False,PPL,Asia/Jakarta,,39
1642548,Jepara,Jepara,-6.5924,110.671,ID,IDN,Indonesia,1257912,False,PPLA2,Asia/Jakarta,,5
1624917,Bandar Lampung,Bandar Lampung,-5.42917,105.26111,ID,IDN,Indonesia,1166066,False,PPLA,Asia/Jakarta,,95
6295587,Batam,Batam,1.14937,104.02491,ID,IDN,Indonesia,1164352,False,PPL,Asia/Jakarta,,38
1648473,Bogor,Bogor,-6.59444,106.78917,ID,IDN,Indonesia,1127408,False,PPL,Asia/Jakarta,,245
1631761,Pekanbaru,Pekanbaru,0.51667,101.44167,ID,IDN,Indonesia,1085000,False,PPLA,Asia/Jakarta,,19
3042237,Douglas,Douglas,54.15,-4.48333,IM,IMN,Isle of Man,26218,True,PPLC,Europe/Isle_of_Man,,31
1275339,Mumbai,Mumbai,19.07283,72.88261,IN,IND,India,12691836,False,PPLA,Asia/Kolkata,,8
1273294,Delhi,Delhi,28.65195,77.23149,IN,IND,India,11034555,False,PPLA,Asia/Kolkata,,227
1277333,Bengaluru,Bengaluru,12.97194,77.59369,IN,IND,India,8495492,False,PPLA,Asia/Kolkata,920,914
1269843,Hyderabad,Hyderabad,17.38405,78.45636,IN,IND,India,6993262,False,PPLA,Asia/Kolkata,,515
1279233,Ahmedabad,Ahmedabad,23.02579,72.58727,IN,IND,India,6357693,False,PPL,Asia/Kolkata,,56
1264527,Chennai,Chennai,13.08784,80.27847,IN,IND,India,4681087,False,PPLA,Asia/Kolkata,,14
1275004,Kolkata,Kolkata,22.56263,88.36304,IN,IND,India,4631392,False,PPLA,Asia/Kolkata,,11
1255364,Surat,Surat,21.19594,72.83023,IN,IND,India,4591246,False,PPL,Asia/Kolkata,,20
1259229,Pune,Pune,18.51957,73.85535,IN,IND,India,3124458,False,PPL,Asia/Kolkata,,554
1269515,Jaipur,Jaipur,26.91962,75.78781,IN,IND,India,3046163,False,PPLA,Asia/Kolkata,,435
1267995,Kanpur,Kanpur,26.46523,80.34975,IN,IND,India,2823249,False,PPL,Asia/Kolkata,,137
6619347,Navi Mumbai,Navi Mumbai,19.03681,73.01582,IN,IND,India,2600000,False,PPLX,Asia/Kolkata,,14
1264733,Lucknow,Lucknow,26.83928,80.92313,IN,IND,India,2472011,False,PPLA,Asia/Kolkata,,126
1262180,Nagpur,Nagpur,21.14631,79.08491,IN,IND,India,2405665,False,PPLA2,Asia/Kolkata,,319
1273865,Coimbatore,Coimbatore,11.00555,76.96612,IN,IND,India,2136916,False,PPL,Asia/Kolkata,411,425
1269743,Indore,Indore,22.71792,75.8333,IN,IND,India,1994397,False,PPL,Asia/Kolkata,,550
1254661,Thāne,Thane,19.19704,72.96355,IN,IND,India,1841488,False,PPL,Asia/Kolkata,,23
1253573,Vadodara,Vadodara,22.29941,73.20812,IN,IND,India,1822221,False,PPL,Asia/Kolkata,,46
1275841,Bhopal,Bhopal,23.25469,77.40289,IN,IND,India,1798218,False,PPLA,Asia/Kolkata,,523
1258393,Rasapūdipalem,Rasapudipalem,17.73308,83.31622,IN,IND,India,1728128,False,PPL,Asia/Kolkata,,45
7626690,Pimpri-Chinchwad,Pimpri-Chinchwad,18.61867,73.80375,IN,IND,India,1727692,False,PPL,Asia/Kolkata,,568
1260086,Patna,Patna,25.59408,85.13563,IN,IND,India,1684297,False,PPLA,Asia/Kolkata,,53
12165956,Kallakurichi,Kallakurichi,11.73379,78.95925,IN,IND,India,1682687,False,PPLA2,Asia/Kolkata,,124
1264728,Ludhiana,Ludhiana,30.91204,75.85379,IN,IND,India,1618879,False,PPL,Asia/Kolkata,,256
1261731,Nashik,Nashik,19.99727,73.79096,IN,IND,India,1486053,False,PPLA2,Asia/Kolkata,,584
1264521,Madurai,Madurai,9.919,78.11953,IN,IND,India,1465625,False,PPLA2,Asia/Kolkata,,139
1254361,Tirunelveli,Tirunelveli,8.72742,77.6838,IN,IND,India,1435844,False,PPLA2,Asia/Kolkata,,49
1279259,Agra,Agra,27.18333,78.01667,IN,IND,India,1430055,False,PPLA2,Asia/Kolkata,,166
1271951,Faridabad,Faridabad,28.41124,77.31316,IN,IND,India,1414050,False,PPLA2,Asia/Kolkata,,209
1258847,Rājkot,Rajkot,22.29161,70.79322,IN,IND,India,1390640,False,PPL,Asia/Kolkata,,140
1262111,Najafgarh,Najafgarh,28.60922,76.97982,IN,IND,India,1365000,False,PPL,Asia/Kolkata,,215
1269300,Jamshedpur,Jamshedpur,22.80278,86.18545,IN,IND,India,1339438,False,PPL,Asia/Kolkata,,171
1270926,Gorakhpur,Gorakhpur,29.44768,75.67206,IN,IND,India,1324570,False,PPL,Asia/Kolkata,,218
1259652,Pimpri,Pimpri,18.62292,73.80696,IN,IND,India,1284606,False,PPL,Asia/Kolkata,,571
1268295,Kalyān,Kalyan,19.2437,73.13554,IN,IND,India,1262255,False,PPL,Asia/Kolkata,,10
1272423,Dombivali,Dombivali,19.21667,73.08333,IN,IND,India,1247327,False,PPL,Asia/Kolkata,,11
1263214,Meerut,Meerut,28.98002,77.70636,IN,IND,India,1223184,False,PPL,Asia/Kolkata,,228
1253133,Virār,Virar,19.45591,72.81136,IN,IND,India,1222390,False,PPL,Asia/Kolkata,,9
1261162,Nowrangapur,Nowrangapur,19.23114,82.54826,IN,IND,India,1220946,False,PPLA2,Asia/Kolkata,,578
1255634,Srinagar,Srinagar,34.08565,74.80555,IN,IND,India,1206419,False,PPLA,Asia/Kolkata,,1589
1271308,Ghāziābād,Ghaziabad,28.66535,77.43915,IN,IND,India,1199191,False,PPLA2,Asia/Kolkata,,214
1272979,Dhanbad,Dhanbad,23.79759,86.42992,IN,IND,India,1196214,False,PPLA2,Asia/Kolkata,,247
1278149,Aurangabad,Aurangabad,19.87757,75.34226,IN,IND,India,1175116,False,PPLA2,Asia/Kolkata,,588
1253405,Varanasi,Varanasi,25.31668,83.01041,IN,IND,India,1164404,False,PPL,Asia/Kolkata,,86
1278710,Amritsar,Amritsar,31.62234,74.87534,IN,IND,India,1159227,False,PPL,Asia/Kolkata,,244
1253184,Vijayawada,Vijayawada,16.50745,80.6466,IN,IND,India,1143232,False,PPL,Asia/Kolkata,,47
1258526,Ranchi,Ranchi,23.34316,85.3094,IN,IND,India,1120374,False,PPLA,Asia/Kolkata,,643
1269633,Jabalpur,Jabalpur,23.16697,79.95006,IN,IND,India,1081677,False,PPL,Asia/Kolkata,,416
1278994,Prayagraj,Prayagraj,25.44478,81.84322,IN,IND,India,1073438,False,PPL,Asia/Kolkata,,99
1253102,Visakhapatnam,Visakhapatnam,17.68009,83.20161,IN,IND,India,1063178,False,PPLA2,Asia/Kolkata,,24
1268865,Jodhpur,Jodhpur,26.26841,73.00594,IN,IND,India,1056191,False,PPL,Asia/Kolkata,,237
1270583,Gwalior,Gwalior,26.22983,78.17337,IN,IND,India,1054420,False,PPL,Asia/Kolkata,,220
1254745,Teni,Teni,10.01115,77.47772,IN,IND,India,1034724,False,PPLX,Asia/Kolkata,,300
1270396,Howrah,Howrah,22.57688,88.31857,IN,IND,India,1027672,False,PPL,Asia/Kolkata,,8
1258980,Raipur,Raipur,21.23333,81.63333,IN,IND,India,1027264,False,PPLA,Asia/Kolkata,,296
1254388,Tiruchirappalli,Tiruchirappalli,10.8155,78.69651,IN,IND,India,1022518,False,PPL,Asia/Kolkata,,79
1266049,Kota,Kota,25.18254,75.83907,IN,IND,India,1001694,False,PPL,Asia/Kolkata,,267
6943660,Shivaji Nagar,Shivaji Nagar,18.53017,73.85263,IN,IND,India,1000000,False,PPLX,Asia/Kolkata,1000,559
1261481,New Delhi,New Delhi,28.62137,77.2148,IN,IND,India,317797,True,PPLC,Asia/Kolkata,,211
2964574,Dublin,Dublin,53.33306,-6.24889,IE,IRL,Ireland,1024027,True,PPLC,Europe/Dublin,,17
6697759,South Dublin,South Dublin,53.29026,-6.34151,IE,IRL,Ireland,278749,False,PPLX,Europe/Dublin,,80
2965140,Cork,Cork,51.89797,-8.47061,IE,IRL,Ireland,190384,False,PPLA2,Europe/Dublin,,10
2962943,Limerick,Limerick,52.66472,-8.62306,IE,IRL,Ireland,94192,False,PPLA2,Europe/Dublin,,7
2964180,Galway,Galway,53.27245,-9.05095,IE,IRL,Ireland,83456,False,PPLA,Europe/Dublin,,10
2961284,Tallaght,Tallaght,53.2859,-6.37344,IE,IRL,Ireland,80339,False,PPLA2,Europe/Dublin,,103
2960992,Waterford,Waterford,52.25833,-7.11194,IE,IRL,Ireland,53504,False,PPLA2,Europe/Dublin,,10
2961297,Swords,Swords,53.45972,-6.21806,IE,IRL,Ireland,42738,False,PPLA,Europe/Dublin,,17
2964661,Drogheda,Drogheda,53.71889,-6.34778,IE,IRL,Ireland,40956,False,PPL,Europe/Dublin,,28
2964540,Dundalk,Dundalk,54.0,-6.41667,IE,IRL,Ireland,39004,False,PPLA2,Europe/Dublin,,18
112931,Tehran,Tehran,35.69439,51.42151,IR,IRN,Iran,7153309,True,PPLC,Asia/Tehran,,1178
124665,Mashhad,Mashhad,36.29807,59.60567,IR,IRN,Iran,2307177,False,PPLA,Asia/Tehran,,980
418863,Isfahan,Isfahan,32.65246,51.67462,IR,IRN,Iran,1547164,False,PPLA,Asia/Tehran,,1578
128747,Karaj,Karaj,35.83266,50.99155,IR,IRN,Iran,1448075,False,PPLA,Asia/Tehran,,1341
113646,Tabriz,Tabriz,38.08,46.2919,IR,IRN,Iran,1424641,False,PPLA,Asia/Tehran,,1396
115019,Shiraz,Shiraz,29.61031,52.53113,IR,IRN,Iran,1249942,False,PPLA,Asia/Tehran,,1545
119208,Qom,Qom,34.6401,50.8764,IR,IRN,Iran,900000,False,PPLA,Asia/Tehran,,935
144448,Ahvaz,Ahvaz,31.31901,48.6842,IR,IRN,Iran,841145,False,PPLA,Asia/Tehran,,23
128226,Kermanshah,Kermanshah,34.31417,47.065,IR,IRN,Iran,621100,False,PPLA,Asia/Tehran,,1392
118743,Rasht,Rasht,37.27611,49.58862,IR,IRN,Iran,594590,False,PPLA,Asia/Tehran,,4
98182,Baghdad,Baghdad,33.34058,44.40088,IQ,IRQ,Iraq,7216000,True,PPLC,Asia/Baghdad,,41
99071,Al Mawşil al Jadīdah,Al Mawsil al Jadidah,36.33271,43.10555,IQ,IRQ,Iraq,2065597,False,PPLX,Asia/Baghdad,,239
388349,Al Başrah al Qadīmah,Al Basrah al Qadimah,30.50316,47.81507,IQ,IRQ,Iraq,2015483,False,PPLX,Asia/Baghdad,,7
99072,Mosul,Mosul,36.335,43.11889,IQ,IRQ,Iraq,1683000,False,PPLA,Asia/Baghdad,,228
95446,Erbil,Erbil,36.19117,44.00943,IQ,IRQ,Iraq,1612700,False,PPLA,Asia/Baghdad,,429
99532,Basrah,Basrah,30.50852,47.7804,IQ,IRQ,Iraq,1326564,False,PPLA,Asia/Baghdad,,4
94824,Karbala,Karbala,32.61603,44.02488,IQ,IRQ,Iraq,1218732,False,PPLA,Asia/Baghdad,,32
94787,Kirkuk,Kirkuk,35.46806,44.39222,IQ,IRQ,Iraq,1031000,False,PPLA,Asia/Baghdad,,346
100077,Abū Ghurayb,Abu Ghurayb,33.30563,44.18477,IQ,IRQ,Iraq,900000,False,PPLA2,Asia/Baghdad,,42
98463,Sulaymaniyah,Sulaymaniyah,35.56496,45.4329,IQ,IRQ,Iraq,878146,False,PPLA,Asia/Baghdad,,847
3413829,Reykjavík,Reykjavik,64.13548,-21.89541,IS,ISL,Iceland,118918,True,PPLC,Atlantic/Reykjavik,,37
3415212,Kópavogur,Kopavogur,64.11234,-21.91298,IS,ISL,Iceland,37959,False,PPL,Atlantic/Reykjavik,,37
3416706,Hafnarfjörður,Hafnarfjoerdur,64.0671,-21.93774,IS,ISL,Iceland,29971,False,PPL,Atlantic/Reykjavik,,39
8644037,Reykjanesbær,Reykjanesbaer,63.99813,-22.56111,IS,ISL,Iceland,19724,False,PPL,Atlantic/Reykjavik,,13
2633274,Akureyri,Akureyri,65.68353,-18.0878,IS,ISL,Iceland,19219,False,PPLA,Atlantic/Reykjavik,,-9999
3415496,Keflavík,Keflavik,64.00492,-22.56242,IS,ISL,Iceland,15930,False,PPLA,Atlantic/Reykjavik,,5
281184,Jerusalem,Jerusalem,31.76904,35.21633,IL,ISR,Israel,971800,True,PPLA,Asia/Jerusalem,,786
293397,Tel Aviv,Tel Aviv,32.08088,34.78057,IL,ISR,Israel,432892,False,PPLA,Asia/Jerusalem,,15
7498240,West Jerusalem,West Jerusalem,31.78199,35.21961,IL,ISR,Israel,400000,False,PPLX,Asia/Jerusalem,,796
294801,Haifa,Haifa,32.81303,34.99928,IL,ISR,Israel,285316,False,PPLA,Asia/Jerusalem,,101
293703,Rishon LeTsiyyon,Rishon LeTsiyyon,31.97102,34.78939,IL,ISR,Israel,258535,False,PPL,Asia/Jerusalem,,56
293918,Petaẖ Tiqva,Petah Tiqva,32.08707,34.88747,IL,ISR,Israel,253529,False,PPL,Asia/Jerusalem,,54
294071,Netanya,Netanya,32.33291,34.85992,IL,ISR,Israel,228204,False,PPL,Asia/Jerusalem,,38
295629,Ashdod,Ashdod,31.79213,34.64966,IL,ISR,Israel,226838,False,PPL,Asia/Jerusalem,,27
295514,Bnei Brak,Bnei Brak,32.08074,34.8338,IL,ISR,Israel,214444,False,PPL,Asia/Jerusalem,,51
294751,H̱olon,Holon,32.01034,34.77918,IL,ISR,Israel,196282,False,PPL,Asia/Jerusalem,,31
3169070,Rome,Rome,41.89193,12.51133,IT,ITA,Italy,2318895,True,PPLC,Europe/Rome,20,52
3173435,Milan,Milan,45.46427,9.18951,IT,ITA,Italy,1371498,False,PPLA,Europe/Rome,122,127
3172394,Naples,Naples,40.85216,14.26811,IT,ITA,Italy,909048,False,PPLA,Europe/Rome,17,14
3165524,Turin,Turin,45.07049,7.68682,IT,ITA,Italy,847287,False,PPLA,Europe/Rome,239,245
2523920,Palermo,Palermo,38.1166,13.3636,IT,ITA,Italy,648260,False,PPLA,Europe/Rome,14,20
3176219,Genoa,Genoa,44.40478,8.94439,IT,ITA,Italy,580097,False,PPLA,Europe/Rome,19,17
3181928,Bologna,Bologna,44.49381,11.33875,IT,ITA,Italy,394843,False,PPLA,Europe/Rome,54,71
3176959,Florence,Florence,43.77925,11.24626,IT,ITA,Italy,367150,False,PPLA,Europe/Rome,50,51
3182351,Bari,Bari,41.12066,16.86982,IT,ITA,Italy,316491,False,PPLA,Europe/Rome,5,7
2525068,Catania,Catania,37.49223,15.07041,IT,ITA,Italy,311584,False,PPLA2,Europe/Rome,7,40
3489854,Kingston,Kingston,17.99702,-76.79358,JM,JAM,Jamaica,937700,True,PPLC,America/Jamaica,,65
3489297,New Kingston,New Kingston,18.00747,-76.78319,JM,JAM,Jamaica,583958,False,PPLX,America/Jamaica,,99
3488465,Spanish Town,Spanish Town,17.99107,-76.95742,JM,JAM,Jamaica,145018,False,PPLA,America/Jamaica,,31
3488981,Portmore,Portmore,17.97102,-76.88691,JM,JAM,Jamaica,102861,False,PPL,America/Jamaica,,7
3489460,Montego Bay,Montego Bay,18.47116,-77.91883,JM,JAM,Jamaica,82867,False,PPLA,America/Jamaica,,12
3489577,Mandeville,Mandeville,18.04168,-77.50714,JM,JAM,Jamaica,47115,False,PPLA,America/Jamaica,,609
3489523,May Pen,May Pen,17.96454,-77.24515,JM,JAM,Jamaica,44755,False,PPLA,America/Jamaica,,81
3489227,Old Harbour,Old Harbour,17.94144,-77.10898,JM,JAM,Jamaica,26024,False,PPL,America/Jamaica,,30
3489760,Linstead,Linstead,18.13683,-77.03171,JM,JAM,Jamaica,20660,False,PPL,America/Jamaica,,119
3490165,Half Way Tree,Half Way Tree,18.01248,-76.79928,JM,JAM,Jamaica,18552,False,PPLA,America/Jamaica,,72
3042091,Saint Helier,Saint Helier,49.18804,-2.10491,JE,JEY,Jersey,28000,True,PPLC,Europe/Jersey,,11
250441,Amman,Amman,31.95522,35.94503,JO,JOR,Jordan,1275857,True,PPLC,Asia/Amman,,757
250090,Zarqa,Zarqa,32.07275,36.08796,JO,JOR,Jordan,792665,False,PPLA,Asia/Amman,,625
248946,Irbid,Irbid,32.55556,35.85,JO,JOR,Jordan,569068,False,PPLA,Asia/Amman,,570
7838895,Russeifa,Russeifa,32.01778,36.04639,JO,JOR,Jordan,268237,False,PPL,Asia/Amman,,614
248583,Ḩayy Khildā,Hayy Khilda,31.99202,35.84002,JO,JOR,Jordan,251000,False,PPLX,Asia/Amman,,988
248460,Khuraybat as Sūq,Khuraybat as Suq,31.87913,35.92098,JO,JOR,Jordan,186158,False,PPL,Asia/Amman,,894
246013,Wādī as Sīr,Wadi as Sir,31.9545,35.81831,JO,JOR,Jordan,181212,False,PPLA2,Asia/Amman,,764
250336,Ar Ramthā,Ar Ramtha,32.55873,36.00816,JO,JOR,Jordan,155693,False,PPLA2,Asia/Amman,,536
13286467,Ṣuwayliḥ,Suwaylih,32.0221,35.84394,JO,JOR,Jordan,151016,False,PPL,Asia/Amman,,981
250799,‘Ajlūn,'Ajlun,32.33326,35.75279,JO,JOR,Jordan,125557,False,PPLA,Asia/Amman,,769
1850147,Tokyo,Tokyo,35.6895,139.69171,JP,JPN,Japan,9733276,True,PPLC,Asia/Tokyo,,44
1848354,Yokohama,Yokohama,35.43333,139.65,JP,JPN,Japan,3777491,False,PPLA,Asia/Tokyo,,21
1853909,Osaka,Osaka,34.69379,135.50107,JP,JPN,Japan,2753862,False,PPLA,Asia/Tokyo,,4
1856057,Nagoya,Nagoya,35.18147,136.90641,JP,JPN,Japan,2332176,False,PPLA,Asia/Tokyo,,23
2128295,Sapporo,Sapporo,43.06667,141.35,JP,JPN,Japan,1973832,False,PPLA,Asia/Tokyo,,26
1863967,Fukuoka,Fukuoka,33.6,130.41667,JP,JPN,Japan,1612392,False,PPLA,Asia/Tokyo,,3
1859642,Kawasaki,Kawasaki,35.52056,139.71722,JP,JPN,Japan,1538262,False,PPLA2,Asia/Tokyo,,1
1859171,Kobe,Kobe,34.6913,135.183,JP,JPN,Japan,1525152,False,PPLA,Asia/Tokyo,,35
1857910,Kyoto,Kyoto,35.02107,135.75385,JP,JPN,Japan,1463723,False,PPLA,Asia/Tokyo,,50
6940394,Saitama,Saitama,35.90807,139.65657,JP,JPN,Japan,1324854,False,PPLA,Asia/Tokyo,,16
1862415,Hiroshima,Hiroshima,34.4,132.45,JP,JPN,Japan,1200754,False,PPLA,Asia/Tokyo,,16
2111149,Sendai,Sendai,38.26667,140.86667,JP,JPN,Japan,1096704,False,PPLA,Asia/Tokyo,,53
1526384,Almaty,Almaty,43.25249,76.9115,KZ,KAZ,Kazakhstan,1977011,False,PPLA,Asia/Almaty,,783
1518980,Shymkent,Shymkent,42.30988,69.60042,KZ,KAZ,Kazakhstan,1200000,False,PPLA,Asia/Almaty,,520
610611,Aktobe,Aktobe,50.27969,57.20718,KZ,KAZ,Kazakhstan,500757,False,PPLA,Asia/Aqtobe,,210
609655,Karagandy,Karagandy,49.80187,73.10211,KZ,KAZ,Kazakhstan,497777,False,PPLA,Asia/Almaty,,545
1516905,Taraz,Taraz,42.89799,71.37334,KZ,KAZ,Kazakhstan,358153,False,PPLA,Asia/Almaty,,611
1519922,Kyzylorda,Kyzylorda,44.85278,65.50917,KZ,KAZ,Kazakhstan,354800,False,PPLA,Asia/Qyzylorda,,128
1526273,Astana,Astana,51.1801,71.44598,KZ,KAZ,Kazakhstan,345604,True,PPLC,Asia/Almaty,,358
608668,Oral,Oral,51.24601,51.42558,KZ,KAZ,Kazakhstan,330000,False,PPLA,Asia/Oral,,29
1520240,Pavlodar,Pavlodar,52.27601,76.96881,KZ,KAZ,Kazakhstan,329002,False,PPLA,Asia/Almaty,,125
