geonameid,name,asciiname,name_en,name_es,name_fr,name_it,name_ru,lat,lon,elevation,timezone,feature_code,is_capital,iso_a2,iso_a3,country_name,admin1_code,admin1_name,population,metro_population,pop_growth_10yr,annual_mean_temp,max_temp_warmest_month,min_temp_coldest_month,temp_annual_range,annual_precipitation,sunshine_hours_yr,mean_wind_speed,pm25,pm10,gdp_per_capita_ppp,hdi,internet_pct,life_expectancy,urban_pct,agri_pct_gdp,industry_pct_gdp,services_pct_gdp,literacy_rate,gini,co2_per_capita,hospital_beds_per_1k
3577154,Oranjestad,Oranjestad,Oranjestad,Oranjestad,Oranjestad,Oranjestad,Ораньестад,12.52398,-70.02703,22.0,America/Aruba,PPLC,national,AW,ABW,Aruba,00,,29998,,,,,,,,,,,,50649.3015,,,,61.7909,0.0342,9.7359,,,,,
1138958,Kabul,Kabul,Kabul,Kabul,Kaboul,Kabul,Кабул,34.52813,69.17233,1798.0,Asia/Kabul,PPLC,national,AF,AFG,Afghanistan,13,Kabul,4434550,,,12.6,25.8,-3.1,28.9,389.1,3963.0,11.9,,,2201.7229,0.462,,,25.7007,34.7432,13.4498,,37.27,,,0.35
1140026,Herāt,Herat,Herat,Herāt,Hérat,Herat,Герат,34.34817,62.19967,927.0,Asia/Kabul,PPLA,admin1,AF,AFG,Afghanistan,11,Herat,574300,,,,,,,,,,,,2201.7229,0.462,,,25.7007,34.7432,13.4498,,37.27,,,0.35
1133616,Mazār-e Sharīf,Mazar-e Sharif,Mazari Sharif,Mazār-e Šarīf,Mazari Sharif,Mazari Sharif,Мазари-Шариф,36.70904,67.11087,361.0,Asia/Kabul,PPLA,admin1,AF,AFG,Afghanistan,30,Balkh,523300,,,,,,,,,,,,2201.7229,0.462,,,25.7007,34.7432,13.4498,,37.27,,,0.35
1138336,Kandahār,Kandahar,Kandahar,Kandahar,Kandahar,Kandahar,Кандагар,31.61332,65.71013,1007.0,Asia/Kabul,PPLA,admin1,AF,AFG,Afghanistan,23,Kandahar,523300,,,,,,,,,,,,2201.7229,0.462,,,25.7007,34.7432,13.4498,,37.27,,,0.35
1139715,Jalālābād,Jalalabad,Jalalabad,Jalalabad,Jalalabad,Jalalabad,Джелалабад,34.42647,70.45153,575.0,Asia/Kabul,PPLA,admin1,AF,AFG,Afghanistan,18,Nangarhar,271900,,,,,,,,,,,,2201.7229,0.462,,,25.7007,34.7432,13.4498,,37.27,,,0.35
1135689,Kunduz,Kunduz,Kunduz,Qundūz,Kondôz,Konduz,Кундуз,36.72895,68.857,402.0,Asia/Kabul,PPLA,admin1,AF,AFG,Afghanistan,24,Kunduz,161902,,,17.7,32.4,3.1,29.3,394.1,3752.0,10.5,,,2201.7229,0.462,,,25.7007,34.7432,13.4498,,37.27,,,0.35
1141269,Ghazni,Ghazni,Ghazni,Gazni,Ghazni,Ghazni,Газни,33.55391,68.42096,2179.0,Asia/Kabul,PPLA,admin1,AF,AFG,Afghanistan,08,Ghazni,141000,,,,,,,,,,,,2201.7229,0.462,,,25.7007,34.7432,13.4498,,37.27,,,0.35
1147290,Balkh,Balkh,Balkh,Balj,Balkh,Balkh,Балх,36.75635,66.8972,348.0,Asia/Kabul,PPLA2,no,AF,AFG,Afghanistan,30,Balkh,114883,,,,,,,,,,,,2201.7229,0.462,,,25.7007,34.7432,13.4498,,37.27,,,0.35
1147540,Baghlān,Baghlan,Baghlan,Baghlan,Baghlan,Baghlan,Баглан,36.13068,68.70829,531.0,Asia/Kabul,PPLA2,no,AF,AFG,Afghanistan,03,Baghlan,108449,,,,,,,,,,,,2201.7229,0.462,,,25.7007,34.7432,13.4498,,37.27,,,0.35
1141857,Gardez,Gardez,Gardez,Gardez,Gardêz,Gardez,Гардез,33.59744,69.22592,2308.0,Asia/Kabul,PPLA,admin1,AF,AFG,Afghanistan,36,Paktia,103601,,,,,,,,,,,,2201.7229,0.462,,,25.7007,34.7432,13.4498,,37.27,,,0.35
1136469,Khōst,Khost,Khōst,Khōst,Khōst,Khōst,Хост,33.33951,69.92041,1183.0,Asia/Kabul,PPLA,admin1,AF,AFG,Afghanistan,37,Khowst,96123,,,,,,,,,,,,2201.7229,0.462,,,25.7007,34.7432,13.4498,,37.27,,,0.35
1133453,Maymana,Maymana,Maymana,Maymanah,Maïmana,Meymaneh,Меймене,35.92139,64.78361,864.0,Asia/Kabul,PPLA,admin1,AF,AFG,Afghanistan,07,Faryab,75900,,,,,,,,,,,,2201.7229,0.462,,,25.7007,34.7432,13.4498,,37.27,,,0.35
1137168,Khanabad,Khanabad,Khanabad,Khanabad,Khanabad,Khanabad,Ханабад,36.68304,69.11279,499.0,Asia/Kabul,PPLA2,no,AF,AFG,Afghanistan,24,Kunduz,71531,,,,,,,,,,,,2201.7229,0.462,,,25.7007,34.7432,13.4498,,37.27,,,0.35
1429434,Bāzārak,Bazarak,Bāzārak,Bāzārak,Bāzārak,Bāzārak,Базарак,35.31292,69.51519,1965.0,Asia/Kabul,PPLA,admin1,AF,AFG,Afghanistan,42,Panjshir,65000,,,,,,,,,,,,2201.7229,0.462,,,25.7007,34.7432,13.4498,,37.27,,,0.35
1136575,Khulm,Khulm,Khulm,Khulm,Khulm,Khulm,Ташкурган,36.69736,67.69826,445.0,Asia/Kabul,PPLA2,no,AF,AFG,Afghanistan,30,Balkh,64933,,,,,,,,,,,,2201.7229,0.462,,,25.7007,34.7432,13.4498,,37.27,,,0.35
1123004,Taloqan,Taloqan,Taloqan,Taloqan,Tâloqân,Taloqan,Таликан,36.73605,69.53451,801.0,Asia/Kabul,PPLA,admin1,AF,AFG,Afghanistan,26,Takhar,64256,,,,,,,,,,,,2201.7229,0.462,,,25.7007,34.7432,13.4498,,37.27,,,0.35
1147242,Bāmyān,Bamyan,Bāmyān,Bāmyān,Bāmyān,Bāmyān,Bāmyān,34.82156,67.82734,2550.0,Asia/Kabul,PPLA,admin1,AF,AFG,Afghanistan,05,Bamyan,61863,,,,,,,,,,,,2201.7229,0.462,,,25.7007,34.7432,13.4498,,37.27,,,0.35
1130490,Pul-e Khumrī,Pul-e Khumri,Pul-e Khumrī,Pul-e Khumrī,Pul-e Khumrī,Pul-e Khumrī,Пули-Хумри,35.94458,68.71512,638.0,Asia/Kabul,PPLA,admin1,AF,AFG,Afghanistan,03,Baghlan,56369,,,,,,,,,,,,2201.7229,0.462,,,25.7007,34.7432,13.4498,,37.27,,,0.35
1125444,Shibirghān,Shibirghan,Shibirghān,Shibirghān,Shibirghān,Shibirghān,Шеберган,36.66757,65.7529,360.0,Asia/Kabul,PPLA,admin1,AF,AFG,Afghanistan,31,Jowzjan,55641,,,,,,,,,,,,2201.7229,0.462,,,25.7007,34.7432,13.4498,,37.27,,,0.35
1145352,Charikar,Charikar,Charikar,Charikar,Charikar,Charikar,Чарикар,35.01361,69.17139,1554.0,Asia/Kabul,PPLA,admin1,AF,AFG,Afghanistan,40,Parwan,53676,,,,,,,,,,,,2201.7229,0.462,,,25.7007,34.7432,13.4498,,37.27,,,0.35
1127110,Sar-e Pul,Sar-e Pul,Sar-e Pul,Sar-e Pul,Sar-e Pul,Sar-e Pul,Сари-Пуль,36.21544,65.93249,636.0,Asia/Kabul,PPLA,admin1,AF,AFG,Afghanistan,33,Sar-e Pol Province,52121,,,,,,,,,,,,2201.7229,0.462,,,25.7007,34.7432,13.4498,,37.27,,,0.35
1120985,Zaranj,Zaranj,Zaranj,Zaranj,Zarandj,Zaranj,Зарани,30.95962,61.86037,489.0,Asia/Kabul,PPLA,admin1,AF,AFG,Afghanistan,19,Nimroz,49851,,,,,,,,,,,,2201.7229,0.462,,,25.7007,34.7432,13.4498,,37.27,,,0.35
1131316,Paghmān,Paghman,Paghmān,Paghmān,Paghmān,Paghmān,Пагман,34.58787,68.95091,2328.0,Asia/Kabul,PPL,no,AF,AFG,Afghanistan,13,Kabul,49157,,,,,,,,,,,,2201.7229,0.462,,,25.7007,34.7432,13.4498,,37.27,,,0.35
1148311,Asadābād,Asadabad,Asadābād,Asadābād,Asadābād,Asadābād,Асадабад,34.87311,71.14697,837.0,Asia/Kabul,PPLA,admin1,AF,AFG,Afghanistan,34,Kunar,48400,,,,,,,,,,,,2201.7229,0.462,,,25.7007,34.7432,13.4498,,37.27,,,0.35
1127768,Aībak,Aibak,Aībak,Aībak,Aībak,Aībak,Саманган,36.26468,68.01551,969.0,Asia/Kabul,PPLA,admin1,AF,AFG,Afghanistan,32,Samangan,47823,,,,,,,,,,,,2201.7229,0.462,,,25.7007,34.7432,13.4498,,37.27,,,0.35
1142170,Fayzabad,Fayzabad,Fayzabad,Fayzabad,Fayzabad,Fayzabad,Файзабад,37.11664,70.58002,1210.0,Asia/Kabul,PPLA,admin1,AF,AFG,Afghanistan,01,Badakhshan,44421,,,,,,,,,,,,2201.7229,0.462,,,25.7007,34.7432,13.4498,,37.27,,,0.35
1134720,Lashkar Gāh,Lashkar Gah,Lashkar Gah,Lashkar Gah,Lashkar Gah,Lashkar Gah,Лашкаргах,31.59382,64.37161,786.0,Asia/Kabul,PPLA,admin1,AF,AFG,Afghanistan,10,Helmand,43934,,,,,,,,,,,,2201.7229,0.462,,,25.7007,34.7432,13.4498,,37.27,,,0.35
1141540,Gereshk,Gereshk,Gereshk,Gereshk,Gereshk,Gereshk,Герешк,31.82089,64.57005,830.0,Asia/Kabul,PPLA2,no,AF,AFG,Afghanistan,10,Helmand,43588,,,,,,,,,,,,2201.7229,0.462,,,25.7007,34.7432,13.4498,,37.27,,,0.35
1142264,Farah,Farah,Farah,Farāh,Farâh,Farah,Фарах,32.37451,62.11638,662.0,Asia/Kabul,PPLA,admin1,AF,AFG,Afghanistan,06,Farah,43561,,,,,,,,,,,,2201.7229,0.462,,,25.7007,34.7432,13.4498,,37.27,,,0.35
1142330,Istālif,Istalif,Istālif,Istālif,Istālif,Istālif,Istālif,34.83268,69.07756,1891.0,Asia/Kabul,PPLA2,no,AF,AFG,Afghanistan,13,Kabul,41413,,,,,,,,,,,,2201.7229,0.462,,,25.7007,34.7432,13.4498,,37.27,,,0.35
1148658,Andkhōy,Andkhoy,Andkhōy,Andkhōy,Andkhōy,Andkhōy,Andkhōy,36.95293,65.12376,306.0,Asia/Kabul,PPLA2,no,AF,AFG,Afghanistan,07,Faryab,37900,,,,,,,,,,,,2201.7229,0.462,,,25.7007,34.7432,13.4498,,37.27,,,0.35
1147489,Bahārak,Baharak,Bahārak,Bahārak,Bahārak,Bahārak,Bahārak,37.00254,70.90664,1552.0,Asia/Kabul,PPLA2,no,AF,AFG,Afghanistan,01,Badakhshan,32551,,,,,,,,,,,,2201.7229,0.462,,,25.7007,34.7432,13.4498,,37.27,,,0.35
1131833,Nīlī,Nili,Nīlī,Nīlī,Nīlī,Nīlī,Nīlī,33.72178,66.13023,2069.0,Asia/Kabul,PPLA,admin1,AF,AFG,Afghanistan,41,Daykundi,30058,,,,,,,,,,,,2201.7229,0.462,,,25.7007,34.7432,13.4498,,37.27,,,0.35
1141089,Ghormach,Ghormach,Ghormach,Ghormach,Ghormach,Ghormach,Ghormach,35.73062,63.78264,659.0,Asia/Kabul,PPLA2,no,AF,AFG,Afghanistan,02,Badghis,30000,,,,,,,,,,,,2201.7229,0.462,,,25.7007,34.7432,13.4498,,37.27,,,0.35
2240449,Luanda,Luanda,Luanda,Luanda,Luanda,Luanda,Луанда,-8.83682,13.23432,73.0,Africa/Luanda,PPLC,national,AO,AGO,Angola,20,Luanda,2776168,,,,,,,,,,,,10118.609,0.586,,,70.6551,22.0693,34.5673,,,,,0.75
3347762,Lubango,Lubango,Lubango,Lubango,Lubango,Lubango,Лубанго,-14.91717,13.4925,1760.0,Africa/Luanda,PPLA,admin1,AO,AGO,Angola,09,Huíla,600751,,,,,,,,,,,,10118.609,0.586,,,70.6551,22.0693,34.5673,,,,,0.75
3348313,Huambo,Huambo,Huambo,Huambo,Huambo,Huambo,Уамбо,-12.77611,15.73917,1716.0,Africa/Luanda,PPLA,admin1,AO,AGO,Angola,08,Huambo,595304,,,,,,,,,,,,10118.609,0.586,,,70.6551,22.0693,34.5673,,,,,0.75
3351663,Benguela,Benguela,Benguela,Benguela,Benguela,Benguela,Бенгела,-12.57674,13.40268,30.0,Africa/Luanda,PPLA,admin1,AO,AGO,Angola,01,Benguela,555124,,,,,,,,,,,,10118.609,0.586,,,70.6551,22.0693,34.5673,,,,,0.75
2243271,Cabinda,Cabinda,Cabinda,Cabinda,Cabinda,Cabinda,Кабинда,-5.56198,12.19476,1.0,Africa/Luanda,PPLA,admin1,AO,AGO,Angola,03,Cabinda,550000,,,,,,,,,,,,10118.609,0.586,,,70.6551,22.0693,34.5673,,,,,0.75
2591976,Talatona,Talatona,Talatona,Talatona,Talatona,Talatona,Talatona,-8.91783,13.18562,56.0,Africa/Luanda,PPL,no,AO,AGO,Angola,20,Luanda,500000,,,,,,,,,,,,10118.609,0.586,,,70.6551,22.0693,34.5673,,,,,0.75
2239862,Malanje,Malanje,Malanje,Malanje,Malanje,Malanje,Маланже,-9.54015,16.34096,1134.0,Africa/Luanda,PPLA,admin1,AO,AGO,Angola,12,Malanje,455000,,,,,,,,,,,,10118.609,0.586,,,70.6551,22.0693,34.5673,,,,,0.75
2591949,Cazenga,Cazenga,Cazenga,Cazenga,Cazenga,Cazenga,Cazenga,-8.82488,13.31318,77.0,Africa/Luanda,PPL,no,AO,AGO,Angola,20,Luanda,424528,,,,,,,,,,,,10118.609,0.586,,,70.6551,22.0693,34.5673,,,,,0.75
145531,Saurimo,Saurimo,Saurimo,Saurimo,Saurimo,Saurimo,Сауримо,-9.66078,20.39155,1071.0,Africa/Luanda,PPLA,admin1,AO,AGO,Angola,18,Lunda Sul,393000,,,,,,,,,,,,10118.609,0.586,,,70.6551,22.0693,34.5673,,,,,0.75
3347939,Lobito,Lobito,Lobito,Lobito,Lobito,Lobito,Лобиту,-12.3644,13.53601,4.0,Africa/Luanda,PPL,no,AO,AGO,Angola,01,Benguela,357950,,,,,,,,,,,,10118.609,0.586,,,70.6551,22.0693,34.5673,,,,,0.75
3348078,Cuíto,Cuito,Cuito,Cuito,Cuito,Cuito,Куито,-12.38333,16.93333,1715.0,Africa/Luanda,PPLA,admin1,AO,AGO,Angola,02,Bíe,355423,,,,,,,,,,,,10118.609,0.586,,,70.6551,22.0693,34.5673,,,,,0.75
2236568,Uíge,Uige,Uíge,Uíge,Uíge,Uíge,Уиже,-7.60874,15.06131,825.0,Africa/Luanda,PPLA,admin1,AO,AGO,Angola,15,Uíge,322531,,,,,,,,,,,,10118.609,0.586,,,70.6551,22.0693,34.5673,,,,,0.75
3347719,Luena,Luena,Luena,Luena,Luena,Luena,Луэна,-11.78333,19.91667,1337.0,Africa/Luanda,PPLA,admin1,AO,AGO,Angola,14,Moxico,273675,,,,,,,,,,,,10118.609,0.586,,,70.6551,22.0693,34.5673,,,,,0.75
3347019,Mossamedes,Mossamedes,Mossamedes,Mossamedes,Mossamedes,Mossamedes,Намибе,-15.19611,12.15222,13.0,Africa/Luanda,PPLA,admin1,AO,AGO,Angola,13,Namibe,255000,,,,,,,,,,,,10118.609,0.586,,,70.6551,22.0693,34.5673,,,,,0.75
3347353,Menongue,Menongue,Menongue,Menongue,Menongue,Menongue,Менонге,-14.6585,17.69099,1355.0,Africa/Luanda,PPLA,admin1,AO,AGO,Angola,04,Cuando Cobango,251178,,,,,,,,,,,,10118.609,0.586,,,70.6551,22.0693,34.5673,,,,,0.75
145778,Chitato,Chitato,Chitato,Chitato,Chitato,Chitato,Chitato,-7.3,20.73333,770.0,Africa/Luanda,PPL,no,AO,AGO,Angola,17,Luanda Norte,246880,,,,,,,,,,,,10118.609,0.586,,,70.6551,22.0693,34.5673,,,,,0.75
3346015,Sumbe,Sumbe,Sumbe,Sumbe,Sumbe,Sumbe,Сумбе,-11.20605,13.84371,10.0,Africa/Luanda,PPLA,admin1,AO,AGO,Angola,06,Kwanza Sul,205832,,,,,,,,,,,,10118.609,0.586,,,70.6551,22.0693,34.5673,,,,,0.75
2236967,Soyo,Soyo,Soyo,Soyo,Soyo,Soyo,Сойо,-6.1349,12.36894,10.0,Africa/Luanda,PPL,no,AO,AGO,Angola,16,Zaire,200920,,,,,,,,,,,,10118.609,0.586,,,70.6551,22.0693,34.5673,,,,,0.75
145757,Dundo,Dundo,Dundo,Dundo,Dundo,Dundo,Дунду,-7.36643,20.81557,733.0,Africa/Luanda,PPLA,admin1,AO,AGO,Angola,17,Luanda Norte,177604,,,,,,,,,,,,10118.609,0.586,,,70.6551,22.0693,34.5673,,,,,0.75
2239076,N'dalatando,N'dalatando,N'dalatando,N'dalatando,N'dalatando,N'dalatando,N'dalatando,-9.29782,14.91162,795.0,Africa/Luanda,PPLA,admin1,AO,AGO,Angola,05,Cuanza Norte,161584,,,,,,,,,,,,10118.609,0.586,,,70.6551,22.0693,34.5673,,,,,0.75
2239520,Mbanza Kongo,Mbanza Kongo,Mbanza Kongo,Mbanza Kongo,Mbanza Kongo,Mbanza Kongo,Mbanza Kongo,-6.26667,14.23833,531.0,Africa/Luanda,PPLA,admin1,AO,AGO,Angola,16,Zaire,148000,,,,,,,,,,,,10118.609,0.586,,,70.6551,22.0693,34.5673,,,,,0.75
3351500,Caála,Caala,Caála,Caála,Caála,Caála,Каале,-12.8525,15.56056,1742.0,Africa/Luanda,PPL,no,AO,AGO,Angola,08,Huambo,130000,,,,,,,,,,,,10118.609,0.586,,,70.6551,22.0693,34.5673,,,,,0.75
3346821,Ondjiva,Ondjiva,Ondjiva,Ondjiva,Ondjiva,Ondjiva,Онджива,-17.06667,15.73333,1113.0,Africa/Luanda,PPLA,admin1,AO,AGO,Angola,07,Cunene,121537,,,,,,,,,,,,10118.609,0.586,,,70.6551,22.0693,34.5673,,,,,0.75
3348613,Gabela,Gabela,Gabela,Gabela,Gabela,Gabela,Габела,-10.85147,14.37993,1045.0,Africa/Luanda,PPL,no,AO,AGO,Angola,06,Kwanza Sul,116903,,,,,,,,,,,,10118.609,0.586,,,70.6551,22.0693,34.5673,,,,,0.75
145724,Lucapa,Lucapa,Lucapa,Lucapa,Lucapa,Lucapa,Лукапа,-8.41915,20.74466,955.0,Africa/Luanda,PPL,no,AO,AGO,Angola,17,Luanda Norte,110000,,,,,,,,,,,,10118.609,0.586,,,70.6551,22.0693,34.5673,,,,,0.75
3350246,Catumbela,Catumbela,Catumbela,Catumbela,Catumbela,Catumbela,Катумбела,-12.43002,13.54677,12.0,Africa/Luanda,PPL,no,AO,AGO,Angola,01,Benguela,95034,,,,,,,,,,,,10118.609,0.586,,,70.6551,22.0693,34.5673,,,,,0.75
2239069,Negage,Negage,Negage,Negage,Negage,Negage,Негаге,-7.75938,15.2722,1240.0,Africa/Luanda,PPL,no,AO,AGO,Angola,15,Uíge,92950,,,,,,,,,,,,10118.609,0.586,,,70.6551,22.0693,34.5673,,,,,0.75
3346661,Porto Amboim,Porto Amboim,Porto Amboim,Amboim,Porto Amboim,Porto Amboim,Порту Амбоим,-10.73251,13.76844,36.0,Africa/Luanda,PPL,no,AO,AGO,Angola,06,Kwanza Sul,91605,,,,,,,,,,,,10118.609,0.586,,,70.6551,22.0693,34.5673,,,,,0.75
3349229,Cubal,Cubal,Cubal,Cubal,Cubal,Cubal,Кубал,-13.03865,14.2455,912.0,Africa/Luanda,PPL,no,AO,AGO,Angola,01,Benguela,90367,,,,,,,,,,,,10118.609,0.586,,,70.6551,22.0693,34.5673,,,,,0.75
3350123,Cela,Cela,Cela,Cela,Cela,Cela,Кела,-11.42173,15.12345,1308.0,Africa/Luanda,PPL,no,AO,AGO,Angola,06,Kwanza Sul,90000,,,,,,,,,,,,10118.609,0.586,,,70.6551,22.0693,34.5673,,,,,0.75
7768322,Cafunfo,Cafunfo,Cafunfo,Cafunfo,Cafunfo,Cafunfo,Cafunfo,-8.7672,17.99572,853.0,Africa/Luanda,PPL,no,AO,AGO,Angola,17,Luanda Norte,90000,,,,,,,,,,,,10118.609,0.586,,,70.6551,22.0693,34.5673,,,,,0.75
3347424,Matala,Matala,Matala,Matala,Matala,Matala,Матала,-14.73272,15.03479,1238.0,Africa/Luanda,PPL,no,AO,AGO,Angola,09,Huíla,78000,,,,,,,,,,,,10118.609,0.586,,,70.6551,22.0693,34.5673,,,,,0.75
2243677,Barra do Dande,Barra do Dande,Barra do Dande,Barra do Dande,Barra do Dande,Barra do Dande,Barra do Dande,-8.47175,13.37011,10.0,Africa/Luanda,PPL,no,AO,AGO,Angola,19,Bengo,75000,,,,,,,,,,,,10118.609,0.586,,,70.6551,22.0693,34.5673,,,,,0.75
2243866,Bailundo,Bailundo,Bailundo,Bailundo,Bailundo,Bailundo,Байлунду,-9.57499,15.99442,1101.0,Africa/Luanda,PPL,no,AO,AGO,Angola,12,Malanje,70481,,,,,,,,,,,,10118.609,0.586,,,70.6551,22.0693,34.5673,,,,,0.75
3347615,Luquembo,Luquembo,Luquembo,Luquembo,Luquembo,Luquembo,Luquembo,-10.73912,17.71766,1125.0,Africa/Luanda,PPL,no,AO,AGO,Angola,12,Malanje,69420,,,,,,,,,,,,10118.609,0.586,,,70.6551,22.0693,34.5673,,,,,0.75
2591933,Gama,Gama,Gama,Gama,Gama,Gama,Gama,-8.5675,13.47639,8.0,Africa/Luanda,PPL,no,AO,AGO,Angola,19,Bengo,66202,,,,,,,,,,,,10118.609,0.586,,,70.6551,22.0693,34.5673,,,,,0.75
3350867,Camucuio,Camucuio,Camucuio,Camucuio,Camucuio,Camucuio,Camucuio,-14.11667,13.25,670.0,Africa/Luanda,PPL,no,AO,AGO,Angola,13,Namibe,66112,,,,,,,,,,,,10118.609,0.586,,,70.6551,22.0693,34.5673,,,,,0.75
3348581,Ganda,Ganda,Ganda,Ganda,Ganda,Ganda,Ганда,-13.01592,14.63502,1267.0,Africa/Luanda,PPL,no,AO,AGO,Angola,01,Benguela,65000,,,,,,,,,,,,10118.609,0.586,,,70.6551,22.0693,34.5673,,,,,0.75
2241371,Dondo,Dondo,Dondo,Dondo,Dondo,Dondo,Dondo,-9.68456,14.42788,59.0,Africa/Luanda,PPL,no,AO,AGO,Angola,05,Cuanza Norte,64643,,,,,,,,,,,,10118.609,0.586,,,70.6551,22.0693,34.5673,,,,,0.75
2241372,Dondo,Dondo,Dondo,Dondo,Dondo,Dondo,Dondo,-9.05,15.31667,1127.0,Africa/Luanda,PPL,no,AO,AGO,Angola,05,Cuanza Norte,64643,,,,,,,,,,,,10118.609,0.586,,,70.6551,22.0693,34.5673,,,,,0.75
2236360,Nzagi,Nzagi,Nzagi,Nzagi,Nzagi,Nzagi,Nzagi,-8.38549,15.30126,906.0,Africa/Luanda,PPL,no,AO,AGO,Angola,05,Cuanza Norte,60000,,,,,,,,,,,,10118.609,0.586,,,70.6551,22.0693,34.5673,,,,,0.75
3351014,Camacupa,Camacupa,Camacupa,Camacupa,Camacupa,Camacupa,Камакупа,-12.01667,17.48333,1473.0,Africa/Luanda,PPL,no,AO,AGO,Angola,02,Bíe,59000,,,,,,,,,,,,10118.609,0.586,,,70.6551,22.0693,34.5673,,,,,0.75
876177,Luau,Luau,Luau,Luau,Luau,Luau,Луау,-10.70727,22.22466,1106.0,Africa/Luanda,PPL,no,AO,AGO,Angola,14,Moxico,55432,,,,,,,,,,,,10118.609,0.586,,,70.6551,22.0693,34.5673,,,,,0.75
2242001,Caxito,Caxito,Caxito,Caxito,Caxito,Caxito,Кашито,-8.57848,13.66425,20.0,Africa/Luanda,PPLA,admin1,AO,AGO,Angola,19,Bengo,55000,,,,,,,,,,,,10118.609,0.586,,,70.6551,22.0693,34.5673,,,,,0.75
2241668,Cuango-Luzamba,Cuango-Luzamba,Cuango,Cuango,Cuango,Cuango,Cuango,-9.14583,18.04453,863.0,Africa/Luanda,PPL,no,AO,AGO,Angola,17,Luanda Norte,55000,,,,,,,,,,,,10118.609,0.586,,,70.6551,22.0693,34.5673,,,,,0.75
3351884,Andulo,Andulo,Andulo,Andulo,Andulo,Andulo,Андулу,-11.48676,16.69663,1686.0,Africa/Luanda,PPL,no,AO,AGO,Angola,02,Bíe,50000,,,,,,,,,,,,10118.609,0.586,,,70.6551,22.0693,34.5673,,,,,0.75
3345669,Ucu Seles,Ucu Seles,Ucu Seles,Ucu Seles,Ucu Seles,Ucu Seles,Уку,-11.41237,14.30663,1035.0,Africa/Luanda,PPL,no,AO,AGO,Angola,06,Kwanza Sul,47421,,,,,,,,,,,,10118.609,0.586,,,70.6551,22.0693,34.5673,,,,,0.75
3345790,Tômbua,Tombua,Tômbua,Tômbua,Tômbua,Tômbua,Томбуа,-15.80394,11.84485,11.0,Africa/Luanda,PPL,no,AO,AGO,Angola,13,Namibe,46573,,,,,,,,,,,,10118.609,0.586,,,70.6551,22.0693,34.5673,,,,,0.75
3351786,Baía Farta,Baia Farta,Baía Farta,Baía Farta,Baía Farta,Baía Farta,Baía Farta,-12.60417,13.19667,18.0,Africa/Luanda,PPL,no,AO,AGO,Angola,01,Benguela,45000,,,,,,,,,,,,10118.609,0.586,,,70.6551,22.0693,34.5673,,,,,0.75
3351064,Calulo,Calulo,Calulo,Calulo,Calulo,Calulo,Калуло,-10.00055,14.89519,995.0,Africa/Luanda,PPL,no,AO,AGO,Angola,06,Kwanza Sul,44000,,,,,,,,,,,,10118.609,0.586,,,70.6551,22.0693,34.5673,,,,,0.75
3345517,Virei,Virei,Virei,Virei,Virei,Virei,Virei,-15.727,12.94961,444.0,Africa/Luanda,PPL,no,AO,AGO,Angola,13,Namibe,42607,,,,,,,,,,,,10118.609,0.586,,,70.6551,22.0693,34.5673,,,,,0.75
2239732,Maquela do Zombo,Maquela do Zombo,Maquela do Zombo,Maquela do Zombo,Maquela do Zombo,Maquela do Zombo,Maquela do Zombo,-6.05716,15.10971,904.0,Africa/Luanda,PPL,no,AO,AGO,Angola,15,Uíge,42000,,,,,,,,,,,,10118.609,0.586,,,70.6551,22.0693,34.5673,,,,,0.75
2241623,Cuímba,Cuimba,Cuímba,Cuímba,Cuímba,Cuímba,Куимба,-6.12085,14.62086,536.0,Africa/Luanda,PPL,no,AO,AGO,Angola,16,Zaire,41878,,,,,,,,,,,,10118.609,0.586,,,70.6551,22.0693,34.5673,,,,,0.75
2243458,Buco Zau,Buco Zau,Buco Zau,Buco Zau,Buco Zau,Buco Zau,Buco Zau,-4.76667,12.55,49.0,Africa/Luanda,PPL,no,AO,AGO,Angola,03,Cabinda,40953,,,,,,,,,,,,10118.609,0.586,,,70.6551,22.0693,34.5673,,,,,0.75
2243127,Cacuso,Cacuso,Cacuso,Cacuso,Cacuso,Cacuso,Какузу,-9.42102,15.74668,1068.0,Africa/Luanda,PPL,no,AO,AGO,Angola,12,Malanje,39302,,,,,,,,,,,,10118.609,0.586,,,70.6551,22.0693,34.5673,,,,,0.75
3351764,Balombo,Balombo,Balombo,Balombo,Balombo,Balombo,Баломбо,-12.35426,14.77232,1203.0,Africa/Luanda,PPL,no,AO,AGO,Angola,01,Benguela,36361,,,,,,,,,,,,10118.609,0.586,,,70.6551,22.0693,34.5673,,,,,0.75
3348297,Humbe,Humbe,Humbe,Humbe,Humbe,Humbe,Humbe,-16.6864,14.90317,1105.0,Africa/Luanda,PPL,no,AO,AGO,Angola,07,Cunene,35985,,,,,,,,,,,,10118.609,0.586,,,70.6551,22.0693,34.5673,,,,,0.75
3345492,Xangongo,Xangongo,Xangongo,Xangongo,Xangongo,Xangongo,Ксангонго,-16.7444,14.97494,1109.0,Africa/Luanda,PPL,no,AO,AGO,Angola,07,Cunene,35000,,,,,,,,,,,,10118.609,0.586,,,70.6551,22.0693,34.5673,,,,,0.75
3351599,Bocoio,Bocoio,Bocoio,Bocoio,Bocoio,Bocoio,Bocoio,-12.47017,14.13688,972.0,Africa/Luanda,PPL,no,AO,AGO,Angola,01,Benguela,35000,,,,,,,,,,,,10118.609,0.586,,,70.6551,22.0693,34.5673,,,,,0.75
876482,Cazombo,Cazombo,Cazombo,Cazombo,Cazombo,Cazombo,Казомбо,-11.89914,22.90216,1155.0,Africa/Luanda,PPL,no,AO,AGO,Angola,14,Moxico,34000,,,,,,,,,,,,10118.609,0.586,,,70.6551,22.0693,34.5673,,,,,0.75
2241954,Cazombo,Cazombo,Cazombo,Cazombo,Cazombo,Cazombo,Казомбо,-8.73204,15.37124,997.0,Africa/Luanda,PPL,no,AO,AGO,Angola,05,Cuanza Norte,34000,,,,,,,,,,,,10118.609,0.586,,,70.6551,22.0693,34.5673,,,,,0.75
2239149,Mussende,Mussende,Mussende,Mussende,Mussende,Mussende,Муссенде,-10.5143,16.0199,1350.0,Africa/Luanda,PPL,no,AO,AGO,Angola,06,Kwanza Sul,33558,,,,,,,,,,,,10118.609,0.586,,,70.6551,22.0693,34.5673,,,,,0.75
2236991,Songo,Songo,Songo,Songo,Songo,Songo,Songo,-7.35207,14.84629,721.0,Africa/Luanda,PPL,no,AO,AGO,Angola,15,Uíge,31382,,,,,,,,,,,,10118.609,0.586,,,70.6551,22.0693,34.5673,,,,,0.75
3351023,Caluquembe,Caluquembe,Caluquembe,Caluquembe,Caluquembe,Caluquembe,Caluquembe,-13.86667,14.43333,1774.0,Africa/Luanda,PPL,no,AO,AGO,Angola,09,Huíla,31000,,,,,,,,,,,,10118.609,0.586,,,70.6551,22.0693,34.5673,,,,,0.75
3573374,The Valley,The Valley,The Valley,El Valle,The Valley,The Valley,Валли,18.21704,-63.05783,19.0,America/Anguilla,PPLC,national,AI,AIA,Anguilla,11205396,The Valley,2035,,,,,,,,,,,,,,,,,,,,,,,
3041732,Mariehamn,Mariehamn,Mariehamn,Mariehamn,Mariehamn,Mariehamn,Мариехамн,60.09726,19.93481,11.0,Europe/Mariehamn,PPLC,national,AX,ALA,Åland Islands,211,Mariehamns stad,10682,,,,,,,,,,,,,,,,,,,,,,,
3183875,Tirana,Tirana,Tirana,Tirana,Tirana,Tirana,Тирана,41.32744,19.81866,113.0,Europe/Tirane,PPLC,national,AL,ALB,Albania,50,Tirana,418495,,,,,,,,,,,,26701.675,0.789,,,58.5464,15.4519,22.4011,,97.68,,,2.9
3185728,Durrës,Durres,Durrës,Durrës,Durrës,Durazzo,Дуррес,41.32355,19.45469,0.0,Europe/Tirane,PPLA,admin1,AL,ALB,Albania,42,Durrës County,195920,,,,,,,,,,,,26701.675,0.789,,,58.5464,15.4519,22.4011,,97.68,,,2.9
3183719,Vlorë,Vlore,Vlorë,Vlorë,Vlora,Valona,Влёра,40.4696,19.48379,58.0,Europe/Tirane,PPLA,admin1,AL,ALB,Albania,51,Vlorë County,115261,,,,,,,,,,,,26701.675,0.789,,,58.5464,15.4519,22.4011,,97.68,,,2.9
783263,Elbasan,Elbasan,Elbasan,Elbasan,Elbasan,Elbasan,Эльбасан,41.11138,20.08224,126.0,Europe/Tirane,PPLA,admin1,AL,ALB,Albania,43,Elbasan County,100903,,,,,,,,,,,,26701.675,0.789,,,58.5464,15.4519,22.4011,,97.68,,,2.9
3184081,Shkodër,Shkoder,Shkodër,Shkodër,Shkodër,Scutari,Шкодер,42.06828,19.51258,12.0,Europe/Tirane,PPLA,admin1,AL,ALB,Albania,49,Shkodër County,95553,,,,,,,,,,,,26701.675,0.789,,,58.5464,15.4519,22.4011,,97.68,,,2.9
3184862,Lushnjë,Lushnje,Lushnjë,Lushnjë,Lushnjë,Lushnjë,Люшня,40.94194,19.705,22.0,Europe/Tirane,PPLA2,no,AL,ALB,Albania,44,Fier County,63135,,,,,,,,,,,,26701.675,0.789,,,58.5464,15.4519,22.4011,,97.68,,,2.9
3186084,Berat,Berat,Berat,Berat,Berat,Berat,Берат,40.70583,19.95222,66.0,Europe/Tirane,PPLA,admin1,AL,ALB,Albania,40,Berat County,62232,,,,,,,,,,,,26701.675,0.789,,,58.5464,15.4519,22.4011,,97.68,,,2.9
782756,Korçë,Korce,Korçë,Korçë,Korçë,Korçë,Корча,40.61861,20.78083,869.0,Europe/Tirane,PPLA,admin1,AL,ALB,Albania,46,Korçë County,58259,,,,,,,,,,,,26701.675,0.789,,,58.5464,15.4519,22.4011,,97.68,,,2.9
3185672,Fier,Fier,Fier,Fier,Fier,Fier,Фиери,40.7251,19.55823,28.0,Europe/Tirane,PPLA,admin1,AL,ALB,Albania,44,Fier County,56297,,,,,,,,,,,,26701.675,0.789,,,58.5464,15.4519,22.4011,,97.68,,,2.9
3185082,Krujë,Kruje,Krujë,Krujë,Krujë,Croia,Круя,41.50917,19.79278,509.0,Europe/Tirane,PPLA2,no,AL,ALB,Albania,42,Durrës County,51191,,,,,,,,,,,,26701.675,0.789,,,58.5464,15.4519,22.4011,,97.68,,,2.9
781988,Pogradec,Pogradec,Pogradec,Pogradec,Pogradec,Pogradec,Поградец,40.9025,20.6525,702.0,Europe/Tirane,PPLA2,no,AL,ALB,Albania,46,Korçë County,46070,,,,,,,,,,,,26701.675,0.789,,,58.5464,15.4519,22.4011,,97.68,,,2.9
782661,Kukës,Kukes,Kukës,Kukës,Kukës,Kukës,Кукес,42.07694,20.42194,351.0,Europe/Tirane,PPLA,admin1,AL,ALB,Albania,47,Kukës County,36125,,,,,,,,,,,,26701.675,0.789,,,58.5464,15.4519,22.4011,,97.68,,,2.9
3185060,Kuçovë,Kucove,Kuçovë,Kuçovë,Kuçovë,Kuçovë,Кучова,40.80028,19.91667,58.0,Europe/Tirane,PPLA2,no,AL,ALB,Albania,40,Berat County,31077,,,,,,,,,,,,26701.675,0.789,,,58.5464,15.4519,22.4011,,97.68,,,2.9
3185211,Kavajë,Kavaje,Kavajë,Kavajë,Kavajë,Kavajë,Кавайе,41.18556,19.55694,19.0,Europe/Tirane,PPLA2,no,AL,ALB,Albania,50,Tirana,30012,,,,,,,,,,,,26701.675,0.789,,,58.5464,15.4519,22.4011,,97.68,,,2.9
3041563,Andorra la Vella,Andorra la Vella,Andorra la Vella,Andorra la Vella,Andorre-la-Vieille,Andorra la Vella,Андорра-ла-Велья,42.50779,1.52109,1037.0,Europe/Andorra,PPLC,national,AD,AND,Andorra,07,Andorra la Vella,20430,,,,,,,,,,,,74939.4746,0.884,,,88.885,0.4659,12.753,,,,,
292223,Dubai,Dubai,Dubai,Dubái,Dubaï,Dubai,Дубай,25.07725,55.30927,24.0,Asia/Dubai,PPLA,admin1,AE,ARE,United Arab Emirates,03,Dubai,3790000,,,,,,,,,,,,79228.7388,0.911,,,85.8171,0.7694,44.3293,,98.81,,,1.87
292968,Abu Dhabi,Abu Dhabi,Abu Dhabi,Abu Dabi,Abou Dabi,Abu Dhabi,Абу-Даби,24.45118,54.39696,6.0,Asia/Dubai,PPLC,national,AE,ARE,United Arab Emirates,01,Abu Dhabi,1807000,,,,,,,,,,,,79228.7388,0.911,,,85.8171,0.7694,44.3293,,98.81,,,1.87
292672,Sharjah,Sharjah,Sharjah city,Sarja,Charjah,Sharja,Шарджа,25.3342,55.41221,15.0,Asia/Dubai,PPLA,admin1,AE,ARE,United Arab Emirates,06,Sharjah,1800000,,,,,,,,,,,,79228.7388,0.911,,,85.8171,0.7694,44.3293,,98.81,,,1.87
292913,Al Ain City,Al Ain City,Al Ain,Al Ain,Al-Aïn,Al-Ayn,Эль-Айн,24.19167,55.76056,275.0,Asia/Dubai,PPL,no,AE,ARE,United Arab Emirates,01,Abu Dhabi,846747,,,,,,,,,,,,79228.7388,0.911,,,85.8171,0.7694,44.3293,,98.81,,,1.87
292932,Ajman,Ajman,Ajman,Ajman,Ajman,Ajman,Аджман,25.40177,55.47878,2.0,Asia/Dubai,PPLA,admin1,AE,ARE,United Arab Emirates,02,Ajman,490035,,,,,,,,,,,,79228.7388,0.911,,,85.8171,0.7694,44.3293,,98.81,,,1.87
291074,Ras Al Khaimah,Ras Al Khaimah,Ras al-Khaimah,Ras al-Khaimah,Ras el Khaïmah,Ras al-Khaimah,Рас-эль-Хайма,25.78953,55.9432,2.0,Asia/Dubai,PPLA,admin1,AE,ARE,United Arab Emirates,05,Ras Al Khaimah,351943,,,,,,,,,,,,79228.7388,0.911,,,85.8171,0.7694,44.3293,,98.81,,,1.87
12042053,Musaffah,Musaffah,Musaffah City,Musaffah City,Musaffah City,Musaffah City,Мусаффа,24.35893,54.48267,7.0,Asia/Dubai,PPL,no,AE,ARE,United Arab Emirates,01,Abu Dhabi,243341,,,,,,,,,,,,79228.7388,0.911,,,85.8171,0.7694,44.3293,,98.81,,,1.87
11524601,Jebel Ali,Jebel Ali,Jebel Ali,Jebel Ali,Jebel Ali,Jebel Ali,Jebel Ali,25.00255,55.10811,5.0,Asia/Dubai,PPL,no,AE,ARE,United Arab Emirates,03,Dubai,210000,,,,,,,,,,,,79228.7388,0.911,,,85.8171,0.7694,44.3293,,98.81,,,1.87
292878,Fujairah,Fujairah,Fujairah,Fujairah,Fujairah,Fujairah,Фуджейра,25.11641,56.34141,15.0,Asia/Dubai,PPLA,admin1,AE,ARE,United Arab Emirates,04,Fujairah,118933,,,,,,,,,,,,79228.7388,0.911,,,85.8171,0.7694,44.3293,,98.81,,,1.87
290503,Warīsān,Warisan,Warisan,Warisan,Warisan,Warisan,Warisan,25.16744,55.40708,12.0,Asia/Dubai,PPL,no,AE,ARE,United Arab Emirates,03,Dubai,108759,,,,,,,,,,,,79228.7388,0.911,,,85.8171,0.7694,44.3293,,98.81,,,1.87
8057551,Khalifah A City,Khalifah A City,Khalifah A City,Khalifah A City,Khalifah A City,Khalifah A City,Khalifah A City,24.42588,54.605,0.0,Asia/Dubai,PPL,no,AE,ARE,United Arab Emirates,01,Abu Dhabi,85374,,,,,,,,,,,,79228.7388,0.911,,,85.8171,0.7694,44.3293,,98.81,,,1.87
13118447,Mohammed Bin Zayed City,Mohammed Bin Zayed City,Mohammed Bin Zayed City,Mohammed Bin Zayed City,Mohammed Bin Zayed City,Mohammed Bin Zayed City,Mohammed Bin Zayed City,24.34794,54.55368,3.0,Asia/Dubai,PPL,no,AE,ARE,United Arab Emirates,01,Abu Dhabi,85000,,,,,,,,,,,,79228.7388,0.911,,,85.8171,0.7694,44.3293,,98.81,,,1.87
12047417,Reef Al Fujairah City,Reef Al Fujairah City,Reef Al Fujairah City,Reef Al Fujairah City,Reef Al Fujairah City,Reef Al Fujairah City,Reef Al Fujairah City,25.14479,56.24764,129.0,Asia/Dubai,PPL,no,AE,ARE,United Arab Emirates,04,Fujairah,82310,,,,,,,,,,,,79228.7388,0.911,,,85.8171,0.7694,44.3293,,98.81,,,1.87
12042052,Bani Yas City,Bani Yas City,Bani Yas City,Bani Yas City,Bani Yas City,Bani Yas City,Bani Yas City,24.30978,54.62944,14.0,Asia/Dubai,PPL,no,AE,ARE,United Arab Emirates,01,Abu Dhabi,80498,,,,,,,,,,,,79228.7388,0.911,,,85.8171,0.7694,44.3293,,98.81,,,1.87
291580,Zayed City,Zayed City,Zayed City,Zayed City,Zayed City,Zayed City,Zayed City,23.65416,53.70522,118.0,Asia/Dubai,PPL,no,AE,ARE,United Arab Emirates,01,Abu Dhabi,63482,,,,,,,,,,,,79228.7388,0.911,,,85.8171,0.7694,44.3293,,98.81,,,1.87
12047416,Al Shamkhah City,Al Shamkhah City,Al Shamkhah City,Al Shamkhah City,Al Shamkhah City,Al Shamkhah City,Al Shamkhah City,24.39268,54.70779,34.0,Asia/Dubai,PPL,no,AE,ARE,United Arab Emirates,01,Abu Dhabi,61710,,,,,,,,,,,,79228.7388,0.911,,,85.8171,0.7694,44.3293,,98.81,,,1.87
290594,Umm Al Quwain City,Umm Al Quwain City,Umm al-Quwain,Umm al-Quwain,Oumm al Qaïwaïn,Umm al-Quwain,Умм-эль-Кайвайн,25.56473,55.55517,2.0,Asia/Dubai,PPLA,admin1,AE,ARE,United Arab Emirates,07,Umm al Qaywayn,59098,,,,,,,,,,,,79228.7388,0.911,,,85.8171,0.7694,44.3293,,98.81,,,1.87
13118438,Al Sajaah,Al Sajaah,Al Sajaah,Al Sajaah,Al Sajaah,Al Sajaah,Al Sajaah,25.31532,55.63211,67.0,Asia/Dubai,PPL,no,AE,ARE,United Arab Emirates,06,Sharjah,53079,,,,,,,,,,,,79228.7388,0.911,,,85.8171,0.7694,44.3293,,98.81,,,1.87
13118439,Lahbab,Lahbab,Lahbab,Lahbab,Lahbab,Lahbab,Lahbab,25.03763,55.59135,125.0,Asia/Dubai,PPL,no,AE,ARE,United Arab Emirates,03,Dubai,53079,,,,,,,,,,,,79228.7388,0.911,,,85.8171,0.7694,44.3293,,98.81,,,1.87
290680,Ţarīf Kalbā,Tarif Kalba,Ţarīf Kalbā,Ţarīf Kalbā,Ţarīf Kalbā,Ţarīf Kalbā,Ţarīf Kalbā,25.0695,56.33115,10.0,Asia/Dubai,PPL,no,AE,ARE,United Arab Emirates,04,Fujairah,51000,,,,,,,,,,,,79228.7388,0.911,,,85.8171,0.7694,44.3293,,98.81,,,1.87
291696,Khawr Fakkān,Khawr Fakkan,Khor'fakkan,Khor'fakkan,Khor'fakkan,Khor'fakkan,Хор-Факкан,25.33132,56.34199,20.0,Asia/Dubai,PPL,no,AE,ARE,United Arab Emirates,06,Sharjah,40677,,,,,,,,,,,,79228.7388,0.911,,,85.8171,0.7694,44.3293,,98.81,,,1.87
292231,Dibba Al-Fujairah,Dibba Al-Fujairah,Dibba Al-Fujairah,Dibba Al-Fujairah,Dibba Al-Fujairah,Dibba Al-Fujairah,Dibba Al-Fujairah,25.59246,56.26176,16.0,Asia/Dubai,PPL,no,AE,ARE,United Arab Emirates,04,Fujairah,30000,,,,,,,,,,,,79228.7388,0.911,,,85.8171,0.7694,44.3293,,98.81,,,1.87
3435910,Buenos Aires,Buenos Aires,Buenos Aires,Buenos Aires,Buenos Aires,Buenos Aires,Буэнос-Айрес,-34.61315,-58.37723,31.0,America/Argentina/Buenos_Aires,PPLC,national,AR,ARG,Argentina,07,Buenos Aires F.D.,2891082,,,,,,,,,,,,30431.1931,0.849,,,92.2742,5.806,23.9966,,99.14,,,3.36
3860259,Córdoba,Cordoba,Córdoba,Córdoba,Córdoba,Córdoba,Кордова,-31.40648,-64.18853,378.0,America/Argentina/Cordoba,PPLA,admin1,AR,ARG,Argentina,05,Cordoba,2106734,,,,,,,,,,,,30431.1931,0.849,,,92.2742,5.806,23.9966,,99.14,,,3.36
3838583,Rosario,Rosario,Rosario,Rosario,Rosario,Rosario,Росарио,-32.94682,-60.63932,38.0,America/Argentina/Cordoba,PPLA2,no,AR,ARG,Argentina,21,Santa Fe,948312,,,,,,,,,,,,30431.1931,0.849,,,92.2742,5.806,23.9966,,99.14,,,3.36
3430863,Mar del Plata,Mar del Plata,Mar del Plata,Mar del Plata,Mar del Plata,Mar del Plata,Мар-дель-Плата,-38.00042,-57.5562,14.0,America/Argentina/Buenos_Aires,PPLA2,no,AR,ARG,Argentina,01,Buenos Aires,593337,,,,,,,,,,,,30431.1931,0.849,,,92.2742,5.806,23.9966,,99.14,,,3.36
3836873,San Miguel de Tucumán,San Miguel de Tucuman,San Miguel de Tucumán,San Miguel de Tucumán,San Miguel de Tucumán,San Miguel de Tucumán,Сан-Мигель-де-Тукуман,-26.81601,-65.21051,440.0,America/Argentina/Tucuman,PPLA,admin1,AR,ARG,Argentina,24,Tucuman,548866,,,,,,,,,,,,30431.1931,0.849,,,92.2742,5.806,23.9966,,99.14,,,3.36
3838233,Salta,Salta,Salta,Ciudad de Salta,Salta,Salta,Сальта,-24.80645,-65.41999,1054.0,America/Argentina/Salta,PPLA,admin1,AR,ARG,Argentina,17,Salta,520683,,,,,,,,,,,,30431.1931,0.849,,,92.2742,5.806,23.9966,,99.14,,,3.36
3836277,Santa Fe,Santa Fe,Santa Fe,Ciudad de Santa Fe,Santa Fe,Santa Fe,Санта-Фе,-31.64881,-60.70868,21.0,America/Argentina/Cordoba,PPLA,admin1,AR,ARG,Argentina,21,Santa Fe,391164,,,,,,,,,,,,30431.1931,0.849,,,92.2742,5.806,23.9966,,99.14,,,3.36
3435217,Corrientes,Corrientes,Corrientes,Ciudad de Corrientes,Corrientes,Corrientes,Корриентес,-27.46784,-58.8344,63.0,America/Argentina/Cordoba,PPLA,admin1,AR,ARG,Argentina,06,Corrientes,346334,,,,,,,,,,,,30431.1931,0.849,,,92.2742,5.806,23.9966,,99.14,,,3.36
3429886,Posadas,Posadas,Posadas,Posadas,Posadas,Posadas,Посадас,-27.39184,-55.92379,108.0,America/Argentina/Cordoba,PPLA,admin1,AR,ARG,Argentina,14,Misiones,305874,,,,,,,,,,,,30431.1931,0.849,,,92.2742,5.806,23.9966,,99.14,,,3.36
3865086,Bahía Blanca,Bahia Blanca,Bahía Blanca,Bahía Blanca,Bahía Blanca,Bahía Blanca,Байя-Бланка,-38.7176,-62.26545,20.0,America/Argentina/Buenos_Aires,PPLA2,no,AR,ARG,Argentina,01,Buenos Aires,299101,,,,,,,,,,,,30431.1931,0.849,,,92.2742,5.806,23.9966,,99.14,,,3.36
3429577,Resistencia,Resistencia,Resistencia,Ciudad de Resistencia,Resistencia,Resistencia,Ресистенсия,-27.46363,-58.98665,45.0,America/Argentina/Cordoba,PPLA,admin1,AR,ARG,Argentina,03,Chaco,290793,,,,,,,,,,,,30431.1931,0.849,,,92.2742,5.806,23.9966,,99.14,,,3.36
3430697,Merlo,Merlo,Merlo,Merlo,Merlo,Merlo,Мерло,-34.66536,-58.72744,13.0,America/Argentina/Buenos_Aires,PPLA2,no,AR,ARG,Argentina,01,Buenos Aires,268961,,,,,,,,,,,,30431.1931,0.849,,,92.2742,5.806,23.9966,,99.14,,,3.36
3429652,Quilmes,Quilmes,Quilmes,Quilmes,Quilmes,Quilmes,Кильмес,-34.72065,-58.25454,24.0,America/Argentina/Buenos_Aires,PPLA2,no,AR,ARG,Argentina,01,Buenos Aires,262379,,,,,,,,,,,,30431.1931,0.849,,,92.2742,5.806,23.9966,,99.14,,,3.36
3836564,San Salvador de Jujuy,San Salvador de Jujuy,San Salvador de Jujuy,San Salvador de Jujuy,San Salvador de Jujuy,San Salvador de Jujuy,Сан Сальвадор де Жужуй,-24.1928,-65.29342,1217.0,America/Argentina/Jujuy,PPLA,admin1,AR,ARG,Argentina,10,Jujuy,257970,,,,,,,,,,,,30431.1931,0.849,,,92.2742,5.806,23.9966,,99.14,,,3.36
3835869,Santiago del Estero,Santiago del Estero,Santiago del Estero,Ciudad de Santiago del Estero,Santiago del Estero,Santiago del Estero,Сантьяго-дель-Эстеро,-27.80047,-64.26285,176.0,America/Argentina/Cordoba,PPLA,admin1,AR,ARG,Argentina,22,Santiago del Estero,252192,,,,,,,,,,,,30431.1931,0.849,,,92.2742,5.806,23.9966,,99.14,,,3.36
3841956,Paraná,Parana,Paraná,Paraná,Paraná,Paraná,Парана,-31.73271,-60.52897,78.0,America/Argentina/Cordoba,PPLA,admin1,AR,ARG,Argentina,08,Entre Rios,247139,,,,,,,,,,,,30431.1931,0.849,,,92.2742,5.806,23.9966,,99.14,,,3.36
3843123,Neuquén,Neuquen,Neuquén,Ciudad de Neuquén,Neuquén,Neuquén,Неукен,-38.95078,-68.0592,281.0,America/Argentina/Salta,PPLA,admin1,AR,ARG,Argentina,15,Neuquen,231198,,,,,,,,,,,,30431.1931,0.849,,,92.2742,5.806,23.9966,,99.14,,,3.36
12076997,José C. Paz,Jose C. Paz,José C. Paz,José C. Paz,José C. Paz,José C. Paz,José C. Paz,-34.51541,-58.76813,32.0,America/Argentina/Buenos_Aires,PPLA2,no,AR,ARG,Argentina,01,Buenos Aires,230208,,,,,,,,,,,,30431.1931,0.849,,,92.2742,5.806,23.9966,,99.14,,,3.36
3433899,Formosa,Formosa,Formosa,Ciudad de Formosa,Formosa,Formosa,Формоза,-26.18489,-58.17313,67.0,America/Argentina/Cordoba,PPLA,admin1,AR,ARG,Argentina,09,Formosa,222226,,,,,,,,,,,,30431.1931,0.849,,,92.2742,5.806,23.9966,,99.14,,,3.36
3432043,La Plata,La Plata,La Plata,La Plata,La Plata,La Plata,Ла-Плата,-34.92126,-57.95442,27.0,America/Argentina/Buenos_Aires,PPLA,admin1,AR,ARG,Argentina,01,Buenos Aires,195443,,,,,,,,,,,,30431.1931,0.849,,,92.2742,5.806,23.9966,,99.14,,,3.36
3436043,Berazategui,Berazategui,Berazategui,Berazategui,Berazategui,Berazategui,Берасатеги,-34.76531,-58.21278,20.0,America/Argentina/Buenos_Aires,PPL,no,AR,ARG,Argentina,01,Buenos Aires,180523,,,,,,,,,,,,30431.1931,0.849,,,92.2742,5.806,23.9966,,99.14,,,3.36
3848950,La Rioja,La Rioja,La Rioja,Ciudad de La Rioja,La Rioja,La Rioja,Ла-Риоха,-29.41328,-66.85637,493.0,America/Argentina/La_Rioja,PPLA,admin1,AR,ARG,Argentina,12,La Rioja,178872,,,,,,,,,,,,30431.1931,0.849,,,92.2742,5.806,23.9966,,99.14,,,3.36
3837056,San Luis,San Luis,San Luis,San Luis,San Luis,San Luis,Сан-Луис,-33.2914,-66.32467,729.0,America/Argentina/San_Luis,PPLA,admin1,AR,ARG,Argentina,19,San Luis,169947,,,,,,,,,,,,30431.1931,0.849,,,92.2742,5.806,23.9966,,99.14,,,3.36
7645166,San Miguel,San Miguel,San Miguel,San Miguel,San Miguel,San Miguel,San Miguel,-34.54335,-58.71229,37.0,America/Argentina/Buenos_Aires,PPL,no,AR,ARG,Argentina,01,Buenos Aires,168762,,,,,,,,,,,,30431.1931,0.849,,,92.2742,5.806,23.9966,,99.14,,,3.36
3433360,Ituzaingó,Ituzaingo,Ituzaingó,Ituzaingó,Ituzaingó,Ituzaingó,Ituzaingó,-27.58504,-56.68707,63.0,America/Argentina/Cordoba,PPLA2,no,AR,ARG,Argentina,06,Corrientes,168419,,,,,,,,,,,,30431.1931,0.849,,,92.2742,5.806,23.9966,,99.14,,,3.36
3837702,Catamarca,Catamarca,Catamarca,San Fernando del Valle de Catamarca,San Fernando del Valle de Catamarca,Catamarca,Сан-Фернандо-дель-Валье-де-Катамарка,-28.46957,-65.78524,545.0,America/Argentina/Catamarca,PPLA,admin1,AR,ARG,Argentina,02,Catamarca,159139,,,,,,,,,,,,30431.1931,0.849,,,92.2742,5.806,23.9966,,99.14,,,3.36
3838874,Río Cuarto,Rio Cuarto,Río Cuarto,Ciudad de Río Cuarto,Río Cuarto,Río Cuarto,Рио-Куарто,-33.13044,-64.35272,429.0,America/Argentina/Cordoba,PPLA2,no,AR,ARG,Argentina,05,Cordoba,157010,,,,,,,,,,,,30431.1931,0.849,,,92.2742,5.806,23.9966,,99.14,,,3.36
3435261,Concordia,Concordia,Concordia,Concordia,Concordia,Concordia,Конкордия,-31.39195,-58.01706,36.0,America/Argentina/Cordoba,PPLA2,no,AR,ARG,Argentina,08,Entre Rios,145210,,,,,,,,,,,,30431.1931,0.849,,,92.2742,5.806,23.9966,,99.14,,,3.36
3860443,Comodoro Rivadavia,Comodoro Rivadavia,Comodoro Rivadavia,Comodoro Rivadavia,Comodoro Rivadavia,Comodoro Rivadavia,Комодоро-Ривадавия,-45.86256,-67.494,65.0,America/Argentina/Catamarca,PPLA2,no,AR,ARG,Argentina,04,Chubut,140850,,,,,,,,,,,,30431.1931,0.849,,,92.2742,5.806,23.9966,,99.14,,,3.36
3836846,San Nicolás de los Arroyos,San Nicolas de los Arroyos,San Nicolás de los Arroyos,San Nicolás de los Arroyos,San Nicolás de los Arroyos,San Nicolás de los Arroyos,San Nicolás de los Arroyos,-33.33425,-60.2108,28.0,America/Argentina/Buenos_Aires,PPLA2,no,AR,ARG,Argentina,01,Buenos Aires,134217,,,,,,,,,,,,30431.1931,0.849,,,92.2742,5.806,23.9966,,99.14,,,3.36
3836669,San Rafael,San Rafael,San Rafael,San Rafael,San Rafael,San Rafael,Сан-Рафаэль,-34.61531,-68.33238,690.0,America/Argentina/Mendoza,PPLA2,no,AR,ARG,Argentina,13,Mendoza,118009,,,,,,,,,,,,30431.1931,0.849,,,92.2742,5.806,23.9966,,99.14,,,3.36
3427833,Tandil,Tandil,Tandil,Tandil,Tandil,Tandil,Тандиль,-37.3287,-59.1369,207.0,America/Argentina/Buenos_Aires,PPLA2,no,AR,ARG,Argentina,01,Buenos Aires,115877,,,,,,,,,,,,30431.1931,0.849,,,92.2742,5.806,23.9966,,99.14,,,3.36
3433975,Ezeiza,Ezeiza,Ezeiza,José María Ezeiza,Ezeiza,Ezeiza,Ezeiza,-34.8544,-58.52474,16.0,America/Argentina/Buenos_Aires,PPLA2,no,AR,ARG,Argentina,01,Buenos Aires,115021,,,,,,,,,,,,30431.1931,0.849,,,92.2742,5.806,23.9966,,99.14,,,3.36
3844421,Mendoza,Mendoza,Mendoza,Mendoza,Mendoza,Mendoza,Мендоса,-32.88946,-68.84582,853.0,America/Argentina/Mendoza,PPLA,admin1,AR,ARG,Argentina,13,Mendoza,114893,,,,,,,,,,,,30431.1931,0.849,,,92.2742,5.806,23.9966,,99.14,,,3.36
3431271,Lomas de Zamora,Lomas de Zamora,Lomas de Zamora,Lomas de Zamora,Lomas de Zamora,Lomas de Zamora,Lomas de Zamora,-34.7574,-58.40279,22.0,America/Argentina/Buenos_Aires,PPLA2,no,AR,ARG,Argentina,01,Buenos Aires,111897,,,,,,,,,,,,30431.1931,0.849,,,92.2742,5.806,23.9966,,99.14,,,3.36
3837213,San Juan,San Juan,San Juan,Ciudad de San Juan,San Juan,San Juan,Сан-Хуан,-31.53726,-68.52568,646.0,America/Argentina/San_Juan,PPLA,admin1,AR,ARG,Argentina,18,San Juan,109123,,,,,,,,,,,,30431.1931,0.849,,,92.2742,5.806,23.9966,,99.14,,,3.36
3428775,San Justo,San Justo,San Justo,San Justo,San Justo,San Justo,San Justo,-34.68107,-58.56379,29.0,America/Argentina/Buenos_Aires,PPLA2,no,AR,ARG,Argentina,01,Buenos Aires,105274,,,,,,,,,,,,30431.1931,0.849,,,92.2742,5.806,23.9966,,99.14,,,3.36
3835994,Santa Rosa,Santa Rosa,Santa Rosa,Ciudad de Santa Rosa,Santa Rosa,Santa Rosa,Санта-Роса,-36.61617,-64.28991,163.0,America/Argentina/Salta,PPLA,admin1,AR,ARG,Argentina,11,La Pampa,102860,,,,,,,,,,,,30431.1931,0.849,,,92.2742,5.806,23.9966,,99.14,,,3.36
3430545,Morón,Moron,Morón,Morón,Morón,Morón,Морон,-34.65118,-58.62205,25.0,America/Argentina/Buenos_Aires,PPLA2,no,AR,ARG,Argentina,01,Buenos Aires,99066,,,,,,,,,,,,30431.1931,0.849,,,92.2742,5.806,23.9966,,99.14,,,3.36
3427213,Zárate,Zarate,Zárate,Zárate,Zárate,Zárate,Зарате,-34.09584,-59.02423,27.0,America/Argentina/Buenos_Aires,PPLA2,no,AR,ARG,Argentina,01,Buenos Aires,99061,,,,,,,,,,,,30431.1931,0.849,,,92.2742,5.806,23.9966,,99.14,,,3.36
3833883,Trelew,Trelew,Trelew,Trelew,Trelew,Trelew,Trelew,-43.24895,-65.30505,14.0,America/Argentina/Catamarca,PPL,no,AR,ARG,Argentina,04,Chubut,97915,,,,,,,,,,,,30431.1931,0.849,,,92.2742,5.806,23.9966,,99.14,,,3.36
3430988,Luján,Lujan,Luján,Luján,Luján,Luján,Лухан,-34.5664,-59.11478,17.0,America/Argentina/Buenos_Aires,PPLA2,no,AR,ARG,Argentina,01,Buenos Aires,97363,,,,,,,,,,,,30431.1931,0.849,,,92.2742,5.806,23.9966,,99.14,,,3.36
7116866,Villa Mercedes,Villa Mercedes,Villa Mercedes,Villa Mercedes,Villa Mercedes,Villa Mercedes,Villa Mercedes,-33.67571,-65.45783,516.0,America/Argentina/San_Luis,PPL,no,AR,ARG,Argentina,19,San Luis,96781,,,,,,,,,,,,30431.1931,0.849,,,92.2742,5.806,23.9966,,99.14,,,3.36
3838859,Río Gallegos,Rio Gallegos,Río Gallegos,Río Gallegos,Río Gallegos,Río Gallegos,Рио-Гальегос,-51.6253,-69.25229,1.0,America/Argentina/Rio_Gallegos,PPLA,admin1,AR,ARG,Argentina,20,Santa Cruz,95796,,,,,,,,,,,,30431.1931,0.849,,,92.2742,5.806,23.9966,,99.14,,,3.36
7647007,San Carlos de Bariloche,San Carlos de Bariloche,Bariloche,Bariloche,Bariloche,Bariloche,Сан Карлос де Барилоче,-41.14557,-71.30822,839.0,America/Argentina/Salta,PPLA3,no,AR,ARG,Argentina,16,Rio Negro,95394,,,,,,,,,,,,30431.1931,0.849,,,92.2742,5.806,23.9966,,99.14,,,3.36
3832694,Villa María,Villa Maria,Villa María,Villa María,Villa María,Villa María,Villa María,-32.40751,-63.24016,202.0,America/Argentina/Cordoba,PPLA2,no,AR,ARG,Argentina,05,Cordoba,92453,,,,,,,,,,,,30431.1931,0.849,,,92.2742,5.806,23.9966,,99.14,,,3.36
3841490,Pergamino,Pergamino,Pergamino,Pergamino,Pergamino,Pergamino,Пергамино,-33.89101,-60.57462,62.0,America/Argentina/Buenos_Aires,PPLA2,no,AR,ARG,Argentina,01,Buenos Aires,91399,,,,,,,,,,,,30431.1931,0.849,,,92.2742,5.806,23.9966,,99.14,,,3.36
3429594,Reconquista,Reconquista,Reconquista,Reconquista,Reconquista,Reconquista,Реконкиста,-29.15,-59.65,50.0,America/Argentina/Cordoba,PPLA2,no,AR,ARG,Argentina,21,Santa Fe,90184,,,,,,,,,,,,30431.1931,0.849,,,92.2742,5.806,23.9966,,99.14,,,3.36
3842670,Olavarría,Olavarria,Olavarría,Olavarría,Olavarría,Olavarría,Олаваррия,-36.89384,-60.32319,163.0,America/Argentina/Buenos_Aires,PPLA2,no,AR,ARG,Argentina,01,Buenos Aires,89721,,,,,,,,,,,,30431.1931,0.849,,,92.2742,5.806,23.9966,,99.14,,,3.36
3839479,Rafaela,Rafaela,Rafaela,Rafaela,Rafaela,Rafaela,Рафаэла,-31.25285,-61.49078,96.0,America/Argentina/Cordoba,PPLA2,no,AR,ARG,Argentina,21,Santa Fe,88713,,,,,,,,,,,,30431.1931,0.849,,,92.2742,5.806,23.9966,,99.14,,,3.36
3853354,Junín,Junin,Junín,Junín,Junín,Junín,Junín,-34.59391,-60.94644,73.0,America/Argentina/Buenos_Aires,PPLA2,no,AR,ARG,Argentina,01,Buenos Aires,87509,,,,,,,,,,,,30431.1931,0.849,,,92.2742,5.806,23.9966,,99.14,,,3.36
3435810,Campana,Campana,Campana,Campana,Campana,Campana,Кампана,-34.16327,-58.95919,19.0,America/Argentina/Buenos_Aires,PPLA2,no,AR,ARG,Argentina,01,Buenos Aires,86860,,,,,,,,,,,,30431.1931,0.849,,,92.2742,5.806,23.9966,,99.14,,,3.36
3836992,San Martín,San Martin,San Martín,San Martín,San Martín,San Martín,San Martín,-33.08338,-68.47312,656.0,America/Argentina/Mendoza,PPLA2,no,AR,ARG,Argentina,13,Mendoza,82549,,,,,,,,,,,,30431.1931,0.849,,,92.2742,5.806,23.9966,,99.14,,,3.36
3840300,Presidencia Roque Sáenz Peña,Presidencia Roque Saenz Pena,Presidencia Roque Sáenz Peña,Presidencia Roque Sáenz Peña,Presidencia Roque Sáenz Peña,Presidencia Roque Sáenz Peña,Presidencia Roque Sáenz Peña,-26.79095,-60.44132,90.0,America/Argentina/Cordoba,PPLA2,no,AR,ARG,Argentina,03,Chaco,81879,,,,,,,,,,,,30431.1931,0.849,,,92.2742,5.806,23.9966,,99.14,,,3.36
3429980,Pilar,Pilar,Pilar,Pilar,Pilar,Pilar,Pilar,-34.45867,-58.91398,27.0,America/Argentina/Buenos_Aires,PPLA2,no,AR,ARG,Argentina,01,Buenos Aires,81120,,,,,,,,,,,,30431.1931,0.849,,,92.2742,5.806,23.9966,,99.14,,,3.36
3433658,Gualeguaychú,Gualeguaychu,Gualeguaychú,Gualeguaychú,Gualeguaychú,Gualeguaychú,Гуалегуайчу,-33.00777,-58.51836,19.0,America/Argentina/Cordoba,PPLA2,no,AR,ARG,Argentina,08,Entre Rios,78676,,,,,,,,,,,,30431.1931,0.849,,,92.2742,5.806,23.9966,,99.14,,,3.36
3861056,Cipolletti,Cipolletti,Cipolletti,Cipolletti,Cipolletti,Cipolletti,Чиполлетти,-38.93392,-67.99032,267.0,America/Argentina/Salta,PPL,no,AR,ARG,Argentina,16,Rio Negro,75078,,,,,,,,,,,,30431.1931,0.849,,,92.2742,5.806,23.9966,,99.14,,,3.36
3854985,Gobernador Gálvez,Gobernador Galvez,Gobernador Gálvez,Gobernador Gálvez,Gobernador Gálvez,Gobernador Gálvez,Gobernador Gálvez,-33.03016,-60.64045,28.0,America/Argentina/Cordoba,PPL,no,AR,ARG,Argentina,21,Santa Fe,74650,,,,,,,,,,,,30431.1931,0.849,,,92.2742,5.806,23.9966,,99.14,,,3.36
3836620,San Ramón de la Nueva Orán,San Ramon de la Nueva Oran,Orán,San Ramón de la Nueva Orán,San Ramón de la Nueva Orán,Orán,Сан-Рамон-де-ла-Нуэва-Оран,-23.13705,-64.32426,358.0,America/Argentina/Salta,PPL,no,AR,ARG,Argentina,17,Salta,74059,,,,,,,,,,,,30431.1931,0.849,,,92.2742,5.806,23.9966,,99.14,,,3.36
3430443,Necochea,Necochea,Necochea,Necochea,Necochea,Necochea,Necochea,-38.5545,-58.73961,19.0,America/Argentina/Buenos_Aires,PPLA2,no,AR,ARG,Argentina,01,Buenos Aires,73557,,,,,,,,,,,,30431.1931,0.849,,,92.2742,5.806,23.9966,,99.14,,,3.36
3855065,General Roca,General Roca,General Roca,Ciudad de General Roca,General Roca,General Roca,Хенераль,-39.03333,-67.58333,237.0,America/Argentina/Salta,PPL,no,AR,ARG,Argentina,16,Rio Negro,73212,,,,,,,,,,,,30431.1931,0.849,,,92.2742,5.806,23.9966,,99.14,,,3.36
3833062,Venado Tuerto,Venado Tuerto,Venado Tuerto,Venado Tuerto,Venado Tuerto,Venado Tuerto,Неукен,-33.74585,-61.96711,109.0,America/Argentina/Cordoba,PPL,no,AR,ARG,Argentina,21,Santa Fe,72340,,,,,,,,,,,,30431.1931,0.849,,,92.2742,5.806,23.9966,,99.14,,,3.36
3435010,Don Torcuato,Don Torcuato,Don Torcuato,Don Torcuato,Don Torcuato,Don Torcuato,Don Torcuato,-34.49459,-58.62729,25.0,America/Argentina/Buenos_Aires,PPL,no,AR,ARG,Argentina,01,Buenos Aires,71356,,,,,,,,,,,,30431.1931,0.849,,,92.2742,5.806,23.9966,,99.14,,,3.36
3433715,Goya,Goya,Goya,Goya,Goya,Goya,Гойя,-29.13995,-59.26343,42.0,America/Argentina/Cordoba,PPLA2,no,AR,ARG,Argentina,06,Corrientes,70245,,,,,,,,,,,,30431.1931,0.849,,,92.2742,5.806,23.9966,,99.14,,,3.36
3832791,Villa Carlos Paz,Villa Carlos Paz,Villa Carlos Paz,Villa Carlos Paz,Villa Carlos Paz,Villa Carlos Paz,Карлос-Паз,-31.4183,-64.49008,702.0,America/Argentina/Cordoba,PPL,no,AR,ARG,Argentina,05,Cordoba,69451,,,,,,,,,,,,30431.1931,0.849,,,92.2742,5.806,23.9966,,99.14,,,3.36
3435264,Concepción del Uruguay,Concepcion del Uruguay,Concepción del Uruguay,Concepción del Uruguay,Concepción del Uruguay,Concepción del Uruguay,Консепсьон-дель-Уругвай,-32.48463,-58.23217,21.0,America/Argentina/Cordoba,PPLA2,no,AR,ARG,Argentina,08,Entre Rios,67895,,,,,,,,,,,,30431.1931,0.849,,,92.2742,5.806,23.9966,,99.14,,,3.36
3840092,Puerto Madryn,Puerto Madryn,Puerto Madryn,Puerto Madryn,Puerto Madryn,Puerto Madryn,Пуэрто-Мадрин,-42.76848,-65.03827,11.0,America/Argentina/Catamarca,PPLA2,no,AR,ARG,Argentina,04,Chubut,64555,,,,,,,,,,,,30431.1931,0.849,,,92.2742,5.806,23.9966,,99.14,,,3.36
3430708,Mercedes,Mercedes,Mercedes,Mercedes,Mercedes,Mercedes,Mercedes,-34.65072,-59.43143,40.0,America/Argentina/Buenos_Aires,PPLA2,no,AR,ARG,Argentina,01,Buenos Aires,63284,,,,,,,,,,,,30431.1931,0.849,,,92.2742,5.806,23.9966,,99.14,,,3.36
3834601,Tartagal,Tartagal,Tartagal,Tartagal,Tartagal,Tartagal,Тартагал,-22.51682,-63.8056,467.0,America/Argentina/Salta,PPLA2,no,AR,ARG,Argentina,17,Salta,60819,,,,,,,,,,,,30431.1931,0.849,,,92.2742,5.806,23.9966,,99.14,,,3.36
3433522,Hurlingham,Hurlingham,Hurlingham,Hurlingham,Hurlingham,Hurlingham,Hurlingham,-34.5904,-58.62904,16.0,America/Argentina/Buenos_Aires,PPLA2,no,AR,ARG,Argentina,01,Buenos Aires,60000,,,,,,,,,,,,30431.1931,0.849,,,92.2742,5.806,23.9966,,99.14,,,3.36
3835793,Santo Tomé,Santo Tome,Santo Tomé,Santo Tomé,Santo Tomé,Santo Tomé,Santo Tomé,-31.66274,-60.7653,19.0,America/Argentina/Cordoba,PPL,no,AR,ARG,Argentina,21,Santa Fe,59072,,,,,,,,,,,,30431.1931,0.849,,,92.2742,5.806,23.9966,,99.14,,,3.36
3837675,San Francisco,San Francisco,San Francisco,San Francisco,San Francisco,San Francisco,San Francisco,-31.42497,-62.08404,120.0,America/Argentina/Cordoba,PPLA2,no,AR,ARG,Argentina,05,Cordoba,59062,,,,,,,,,,,,30431.1931,0.849,,,92.2742,5.806,23.9966,,99.14,,,3.36
3836772,San Pedro de Jujuy,San Pedro de Jujuy,San Pedro de Jujuy,San Pedro de Jujuy,San Pedro de Jujuy,San Pedro de Jujuy,San Pedro de Jujuy,-24.23127,-64.86614,587.0,America/Argentina/Jujuy,PPLA2,no,AR,ARG,Argentina,10,Jujuy,58430,,,,,,,,,,,,30431.1931,0.849,,,92.2742,5.806,23.9966,,99.14,,,3.36
3435352,Colón,Colon,Colón,Colón,Colón,Colón,Colón,-32.22312,-58.14426,25.0,America/Argentina/Cordoba,PPLA2,no,AR,ARG,Argentina,08,Entre Rios,58219,,,,,,,,,,,,30431.1931,0.849,,,92.2742,5.806,23.9966,,99.14,,,3.36
3839982,Punta Alta,Punta Alta,Punta Alta,Punta Alta,Punta Alta,Punta Alta,Пунта-Альта,-38.8805,-62.07503,3.0,America/Argentina/Buenos_Aires,PPLA2,no,AR,ARG,Argentina,01,Buenos Aires,57209,,,,,,,,,,,,30431.1931,0.849,,,92.2742,5.806,23.9966,,99.14,,,3.36
3855075,General Pico,General Pico,General Pico,General Pico,General Pico,General Pico,General Pico,-35.6593,-63.75787,112.0,America/Argentina/Salta,PPLA2,no,AR,ARG,Argentina,11,La Pampa,57029,,,,,,,,,,,,30431.1931,0.849,,,92.2742,5.806,23.9966,,99.14,,,3.36
3833367,Ushuaia,Ushuaia,Ushuaia,Ushuaia,Ushuaïa,Ushuaia,Ушуая,-54.81084,-68.31591,6.0,America/Argentina/Ushuaia,PPLA,admin1,AR,ARG,Argentina,23,Tierra del Fuego,56825,,,,,,,,,,,,30431.1931,0.849,,,92.2742,5.806,23.9966,,99.14,,,3.36
3430340,Oberá,Obera,Oberá,Oberá,Oberá,Oberá,Обера,-27.48683,-55.11994,345.0,America/Argentina/Cordoba,PPLA2,no,AR,ARG,Argentina,14,Misiones,56528,,,,,,,,,,,,30431.1931,0.849,,,92.2742,5.806,23.9966,,99.14,,,3.36
3861344,Chivilcoy,Chivilcoy,Chivilcoy,Chivilcoy,Chivilcoy,Chivilcoy,Chivilcoy,-34.8969,-60.01909,40.0,America/Argentina/Buenos_Aires,PPLA2,no,AR,ARG,Argentina,01,Buenos Aires,54514,,,,,,,,,,,,30431.1931,0.849,,,92.2742,5.806,23.9966,,99.14,,,3.36
3429790,Puerto Eldorado,Puerto Eldorado,Puerto Eldorado,Puerto Eldorado,Puerto Eldorado,Puerto Eldorado,Puerto Eldorado,-26.40843,-54.69463,102.0,America/Argentina/Cordoba,PPL,no,AR,ARG,Argentina,14,Misiones,54189,,,,,,,,,,,,30431.1931,0.849,,,92.2742,5.806,23.9966,,99.14,,,3.36
3436199,Azul,Azul,Azul,Azul,Azul,Azul,Азул,-36.77803,-59.85848,137.0,America/Argentina/Buenos_Aires,PPLA2,no,AR,ARG,Argentina,01,Buenos Aires,53941,,,,,,,,,,,,30431.1931,0.849,,,92.2742,5.806,23.9966,,99.14,,,3.36
3838793,Río Tercero,Rio Tercero,Río Tercero,Río Tercero,Río Tercero,Río Tercero,Río Tercero,-32.17675,-64.11295,372.0,America/Argentina/Cordoba,PPL,no,AR,ARG,Argentina,05,Cordoba,53389,,,,,,,,,,,,30431.1931,0.849,,,92.2742,5.806,23.9966,,99.14,,,3.36
3838854,Río Grande,Rio Grande,Río Grande,Río Grande,Río Grande,Río Grande,Рио-Гранде,-53.78773,-67.70975,9.0,America/Argentina/Ushuaia,PPLA2,no,AR,ARG,Argentina,23,Tierra del Fuego,52681,,,,,,,,,,,,30431.1931,0.849,,,92.2742,5.806,23.9966,,99.14,,,3.36
3436124,Barranqueras,Barranqueras,Barranqueras,Barranqueras,Barranqueras,Barranqueras,Barranqueras,-27.48132,-58.93925,52.0,America/Argentina/Cordoba,PPL,no,AR,ARG,Argentina,03,Chaco,50823,,,,,,,,,,,,30431.1931,0.849,,,92.2742,5.806,23.9966,,99.14,,,3.36
3832260,Yerba Buena,Yerba Buena,Yerba Buena,Yerba Buena,Yerba Buena,Yerba Buena,Yerba Buena,-26.81298,-65.29543,472.0,America/Argentina/Tucuman,PPLA2,no,AR,ARG,Argentina,24,Tucuman,50783,,,,,,,,,,,,30431.1931,0.849,,,92.2742,5.806,23.9966,,99.14,,,3.36
3846915,Libertador General San Martín,Libertador General San Martin,Libertador General San Martín,Libertador General San Martín,Libertador General San Martín,Libertador General San Martín,Libertador General San Martín,-23.81305,-64.79353,464.0,America/Argentina/Jujuy,PPLA2,no,AR,ARG,Argentina,10,Jujuy,49267,,,,,,,,,,,,30431.1931,0.849,,,92.2742,5.806,23.9966,,99.14,,,3.36
3832899,Viedma,Viedma,Viedma,Viedma,Viedma,Viedma,Вьедма,-40.81519,-63.0004,10.0,America/Argentina/Salta,PPLA,admin1,AR,ARG,Argentina,16,Rio Negro,48940,,,,,,,,,,,,30431.1931,0.849,,,92.2742,5.806,23.9966,,99.14,,,3.36
3834813,Tafí Viejo,Tafi Viejo,Tafí Viejo,Tafí Viejo,Tafí Viejo,Tafí Viejo,Tafí Viejo,-26.7333,-65.26146,617.0,America/Argentina/Tucuman,PPLA2,no,AR,ARG,Argentina,24,Tucuman,48459,,,,,,,,,,,,30431.1931,0.849,,,92.2742,5.806,23.9966,,99.14,,,3.36
3842190,Palpalá,Palpala,Palpalá,Palpalá,Palpalá,Palpalá,Palpalá,-24.25798,-65.21358,1058.0,America/Argentina/Jujuy,PPLA2,no,AR,ARG,Argentina,10,Jujuy,48199,,,,,,,,,,,,30431.1931,0.849,,,92.2742,5.806,23.9966,,99.14,,,3.36
3428759,San Lorenzo,San Lorenzo,San Lorenzo,San Lorenzo,San Lorenzo,San Lorenzo,San Lorenzo,-28.13442,-58.76685,63.0,America/Argentina/Cordoba,PPL,no,AR,ARG,Argentina,06,Corrientes,47626,,,,,,,,,,,,30431.1931,0.849,,,92.2742,5.806,23.9966,,99.14,,,3.36
3435448,Chascomús,Chascomus,Chascomús,Chascomús,Chascomús,Chascomús,Chascomús,-35.57681,-58.01215,19.0,America/Argentina/Buenos_Aires,PPLA2,no,AR,ARG,Argentina,01,Buenos Aires,47524,,,,,,,,,,,,30431.1931,0.849,,,92.2742,5.806,23.9966,,99.14,,,3.36
3428576,San Pedro,San Pedro,San Pedro,San Pedro,San Pedro,San Pedro,San Pedro,-33.67918,-59.66633,30.0,America/Argentina/Buenos_Aires,PPLA2,no,AR,ARG,Argentina,01,Buenos Aires,47452,,,,,,,,,,,,30431.1931,0.849,,,92.2742,5.806,23.9966,,99.14,,,3.36
3859552,Cutral-Có,Cutral-Co,Cutral-Có,Cutral-Có,Cutral-Có,Cutral-Có,Cutral-Có,-38.93424,-69.23052,613.0,America/Argentina/Salta,PPL,no,AR,ARG,Argentina,15,Neuquen,47380,,,,,,,,,,,,30431.1931,0.849,,,92.2742,5.806,23.9966,,99.14,,,3.36
3833859,Tres Arroyos,Tres Arroyos,Tres Arroyos,Tres Arroyos,Tres Arroyos,Tres Arroyos,Tres Arroyos,-38.37694,-60.27563,100.0,America/Argentina/Buenos_Aires,PPLA2,no,AR,ARG,Argentina,01,Buenos Aires,47136,,,,,,,,,,,,30431.1931,0.849,,,92.2742,5.806,23.9966,,99.14,,,3.36
3428992,San Isidro,San Isidro,San Isidro,San Isidro,San Isidro,San Isidro,San Isidro,-34.46971,-58.52111,16.0,America/Argentina/Buenos_Aires,PPLA2,no,AR,ARG,Argentina,01,Buenos Aires,45190,,,,,,,,,,,,30431.1931,0.849,,,92.2742,5.806,23.9966,,99.14,,,3.36
3841679,Pehuajó,Pehuajo,Pehuajó,Pehuajó,Pehuajó,Pehuajó,Pehuajó,-35.81081,-61.89897,85.0,America/Argentina/Buenos_Aires,PPLA2,no,AR,ARG,Argentina,01,Buenos Aires,44783,,,,,,,,,,,,30431.1931,0.849,,,92.2742,5.806,23.9966,,99.14,,,3.36
3832778,Villa Constitución,Villa Constitucion,Villa Constitución,Villa Constitución,Villa Constitución,Villa Constitución,Villa Constitución,-33.22795,-60.32994,32.0,America/Argentina/Cordoba,PPLA2,no,AR,ARG,Argentina,21,Santa Fe,44271,,,,,,,,,,,,30431.1931,0.849,,,92.2742,5.806,23.9966,,99.14,,,3.36
3430104,Paso de los Libres,Paso de los Libres,Paso de los Libres,Paso de los Libres,Paso de los Libres,Paso de los Libres,Paso de los Libres,-29.71251,-57.08771,73.0,America/Argentina/Cordoba,PPLA2,no,AR,ARG,Argentina,06,Corrientes,43805,,,,,,,,,,,,30431.1931,0.849,,,92.2742,5.806,23.9966,,99.14,,,3.36
3832811,Villa Ángela,Villa Angela,Villa Ángela,Villa Ángela,Villa Ángela,Villa Ángela,Villa Ángela,-27.57679,-60.71114,74.0,America/Argentina/Cordoba,PPLA2,no,AR,ARG,Argentina,03,Chaco,43511,,,,,,,,,,,,30431.1931,0.849,,,92.2742,5.806,23.9966,,99.14,,,3.36
3430415,Nogoyá,Nogoya,Nogoyá,Nogoyá,Nogoyá,Nogoyá,Nogoyá,-32.39375,-59.78955,50.0,America/Argentina/Cordoba,PPLA2,no,AR,ARG,Argentina,08,Entre Rios,43195,,,,,,,,,,,,30431.1931,0.849,,,92.2742,5.806,23.9966,,99.14,,,3.36
3861445,Chilecito,Chilecito,Chilecito,Chilecito,Chilecito,Chilecito,Чилесито,-29.16163,-67.49934,1107.0,America/Argentina/La_Rioja,PPLA2,no,AR,ARG,Argentina,12,La Rioja,42248,,,,,,,,,,,,30431.1931,0.849,,,92.2742,5.806,23.9966,,99.14,,,3.36
3846864,Lincoln,Lincoln,Lincoln,Lincoln,Lincoln,Lincoln,Lincoln,-34.86819,-61.52929,77.0,America/Argentina/Buenos_Aires,PPLA2,no,AR,ARG,Argentina,01,Buenos Aires,41808,,,,,,,,,,,,30431.1931,0.849,,,92.2742,5.806,23.9966,,99.14,,,3.36
3840860,Pocito,Pocito,Pocito,Pocito,Pocito,Pocito,Pocito,-31.68333,-68.58333,608.0,America/Argentina/San_Juan,PPL,no,AR,ARG,Argentina,18,San Juan,40969,,,,,,,,,,,,30431.1931,0.849,,,92.2742,5.806,23.9966,,99.14,,,3.36
3866163,Alta Gracia,Alta Gracia,Alta Gracia,Alta Gracia,Alta Gracia,Alta Gracia,Альта-Грация,-31.64978,-64.42972,544.0,America/Argentina/Cordoba,PPLA2,no,AR,ARG,Argentina,05,Cordoba,40384,,,,,,,,,,,,30431.1931,0.849,,,92.2742,5.806,23.9966,,99.14,,,3.36
3838227,Salto,Salto,Salto,Salto,Salto,Salto,Salto,-34.29175,-60.2545,31.0,America/Argentina/Buenos_Aires,PPLA2,no,AR,ARG,Argentina,01,Buenos Aires,40157,,,,,,,,,,,,30431.1931,0.849,,,92.2742,5.806,23.9966,,99.14,,,3.36
3436177,Balcarce,Balcarce,Balcarce,Balcarce,Balcarce,Balcarce,Balcarce,-37.84638,-58.25549,126.0,America/Argentina/Buenos_Aires,PPLA2,no,AR,ARG,Argentina,01,Buenos Aires,38823,,,,,,,,,,,,30431.1931,0.849,,,92.2742,5.806,23.9966,,99.14,,,3.36
11147723,Ingeniero Pablo Nogués,Ingeniero Pablo Nogues,Ingeniero Pablo Nogués,Ingeniero Pablo Nogués,Ingeniero Pablo Nogués,Ingeniero Pablo Nogués,Ingeniero Pablo Nogués,-34.47775,-58.70652,25.0,America/Argentina/Buenos_Aires,PPL,no,AR,ARG,Argentina,01,Buenos Aires,38470,,,,,,,,,,,,30431.1931,0.849,,,92.2742,5.806,23.9966,,99.14,,,3.36
3428068,San Vicente,San Vicente,San Vicente,San Vicente,San Vicente,San Vicente,San Vicente,-26.61667,-54.13333,603.0,America/Argentina/Cordoba,PPL,no,AR,ARG,Argentina,14,Misiones,38247,,,,,,,,,,,,30431.1931,0.849,,,92.2742,5.806,23.9966,,99.14,,,3.36
3428075,Santos Lugares,Santos Lugares,Santos Lugares,Santos Lugares,Santos Lugares,Santos Lugares,Santos Lugares,-34.60306,-58.54074,25.0,America/Argentina/Buenos_Aires,PPL,no,AR,ARG,Argentina,01,Buenos Aires,37267,,,,,,,,,,,,30431.1931,0.849,,,92.2742,5.806,23.9966,,99.14,,,3.36
3862320,Juan José Castelli,Juan Jose Castelli,Juan José Castelli,Juan José Castelli,Juan José Castelli,Juan José Castelli,Juan José Castelli,-25.9466,-60.62008,113.0,America/Argentina/Cordoba,PPLA2,no,AR,ARG,Argentina,03,Chaco,36588,,,,,,,,,,,,30431.1931,0.849,,,92.2742,5.806,23.9966,,99.14,,,3.36
3435103,Curuzú Cuatiá,Curuzu Cuatia,Curuzú Cuatiá,Curuzú Cuatiá,Curuzú Cuatiá,Curuzú Cuatiá,Curuzú Cuatiá,-29.79145,-58.0499,62.0,America/Argentina/Cordoba,PPLA2,no,AR,ARG,Argentina,06,Corrientes,36390,,,,,,,,,,,,30431.1931,0.849,,,92.2742,5.806,23.9966,,99.14,,,3.36
3863379,Caleta Olivia,Caleta Olivia,Caleta Olivia,Caleta Olivia,Caleta Olivia,Caleta Olivia,Калета-Оливия,-46.44785,-67.52274,19.0,America/Argentina/Rio_Gallegos,PPL,no,AR,ARG,Argentina,20,Santa Cruz,36077,,,,,,,,,,,,30431.1931,0.849,,,92.2742,5.806,23.9966,,99.14,,,3.36
3862981,Cañada de Gómez,Canada de Gomez,Cañada de Gómez,Cañada de Gómez,Cañada de Gómez,Cañada de Gómez,Канада-де-Гомес,-32.82033,-61.39513,74.0,America/Argentina/Cordoba,PPLA2,no,AR,ARG,Argentina,21,Santa Fe,36000,,,,,,,,,,,,30431.1931,0.849,,,92.2742,5.806,23.9966,,99.14,,,3.36
3856022,Esperanza,Esperanza,Esperanza,Esperanza,Esperanza,Esperanza,Esperanza,-31.44957,-60.93153,40.0,America/Argentina/Cordoba,PPLA2,no,AR,ARG,Argentina,21,Santa Fe,35885,,,,,,,,,,,,30431.1931,0.849,,,92.2742,5.806,23.9966,,99.14,,,3.36
3429399,Saladillo,Saladillo,Saladillo,Saladillo,Saladillo,Saladillo,Saladillo,-35.63884,-59.77938,47.0,America/Argentina/Buenos_Aires,PPLA2,no,AR,ARG,Argentina,01,Buenos Aires,35669,,,,,,,,,,,,30431.1931,0.849,,,92.2742,5.806,23.9966,,99.14,,,3.36
3864331,Bell Ville,Bell Ville,Bell Ville,Bell Ville,Bell Ville,Bell Ville,Bell Ville,-32.63021,-62.68883,124.0,America/Argentina/Cordoba,PPLA2,no,AR,ARG,Argentina,05,Cordoba,35105,,,,,,,,,,,,30431.1931,0.849,,,92.2742,5.806,23.9966,,99.14,,,3.36
3842881,Nueve de Julio,Nueve de Julio,Nueve de Julio,Nueve de Julio,Nueve de Julio,Nueve de Julio,Нев-де-Хулио,-35.44394,-60.88463,79.0,America/Argentina/Buenos_Aires,PPLA2,no,AR,ARG,Argentina,01,Buenos Aires,34718,,,,,,,,,,,,30431.1931,0.849,,,92.2742,5.806,23.9966,,99.14,,,3.36
3861953,Chacabuco,Chacabuco,Chacabuco,Chacabuco,Chacabuco,Chacabuco,Чакабуко,-34.64203,-60.47124,66.0,America/Argentina/Buenos_Aires,PPLA2,no,AR,ARG,Argentina,01,Buenos Aires,34587,,,,,,,,,,,,30431.1931,0.849,,,92.2742,5.806,23.9966,,99.14,,,3.36
3862240,Caucete,Caucete,Caucete,Caucete,Caucete,Caucete,Caucete,-31.6515,-68.28216,592.0,America/Argentina/San_Juan,PPLA2,no,AR,ARG,Argentina,18,San Juan,33609,,,,,,,,,,,,30431.1931,0.849,,,92.2742,5.806,23.9966,,99.14,,,3.36
3429902,Pontevedra,Pontevedra,Pontevedra,Pontevedra,Pontevedra,Pontevedra,Pontevedra,-34.74947,-58.70158,20.0,America/Argentina/Buenos_Aires,PPL,no,AR,ARG,Argentina,01,Buenos Aires,33515,,,,,,,,,,,,30431.1931,0.849,,,92.2742,5.806,23.9966,,99.14,,,3.36
3433663,Gualeguay,Gualeguay,Gualeguay,Gualeguay,Gualeguay,Gualeguay,Gualeguay,-33.14091,-59.31257,13.0,America/Argentina/Cordoba,PPLA2,no,AR,ARG,Argentina,08,Entre Rios,33120,,,,,,,,,,,,30431.1931,0.849,,,92.2742,5.806,23.9966,,99.14,,,3.36
3866496,Aguilares,Aguilares,Aguilares,Aguilares,Aguilares,Aguilares,Aguilares,-27.4315,-65.61465,341.0,America/Argentina/Tucuman,PPLA2,no,AR,ARG,Argentina,24,Tucuman,32494,,,,,,,,,,,,30431.1931,0.849,,,92.2742,5.806,23.9966,,99.14,,,3.36
3854895,Granadero Baigorria,Granadero Baigorria,Granadero Baigorria,Granadero Baigorria,Granadero Baigorria,Granadero Baigorria,Granadero Baigorria,-32.85683,-60.71754,32.0,America/Argentina/Cordoba,PPL,no,AR,ARG,Argentina,21,Santa Fe,32427,,,,,,,,,,,,30431.1931,0.849,,,92.2742,5.806,23.9966,,99.14,,,3.36
3839490,Quitilipi,Quitilipi,Quitilipi,Quitilipi,Quitilipi,Quitilipi,Quitilipi,-26.8708,-60.21537,82.0,America/Argentina/Cordoba,PPLA2,no,AR,ARG,Argentina,03,Chaco,32083,,,,,,,,,,,,30431.1931,0.849,,,92.2742,5.806,23.9966,,99.14,,,3.36
3427428,Villaguay,Villaguay,Villaguay,Villaguay,Villaguay,Villaguay,Villaguay,-31.86767,-59.02701,42.0,America/Argentina/Cordoba,PPLA2,no,AR,ARG,Argentina,08,Entre Rios,32027,,,,,,,,,,,,30431.1931,0.849,,,92.2742,5.806,23.9966,,99.14,,,3.36
3862351,Casilda,Casilda,Casilda,Casilda,Casilda,Casilda,Casilda,-33.04459,-61.16423,73.0,America/Argentina/Cordoba,PPLA2,no,AR,ARG,Argentina,21,Santa Fe,32002,,,,,,,,,,,,30431.1931,0.849,,,92.2742,5.806,23.9966,,99.14,,,3.36
3433803,General José de San Martín,General Jose de San Martin,General José de San Martín,General José de San Martín,General José de San Martín,General José de San Martín,General José de San Martín,-26.53643,-59.34138,62.0,America/Argentina/Cordoba,PPLA2,no,AR,ARG,Argentina,03,Chaco,31758,,,,,,,,,,,,30431.1931,0.849,,,92.2742,5.806,23.9966,,99.14,,,3.36
3832132,Zapala,Zapala,Zapala,Zapala,Zapala,Zapala,Сапала,-38.90056,-70.06674,1019.0,America/Argentina/Salta,PPLA2,no,AR,ARG,Argentina,15,Neuquen,31534,,,,,,,,,,,,30431.1931,0.849,,,92.2742,5.806,23.9966,,99.14,,,3.36
3832647,Villa Regina,Villa Regina,Villa Regina,Villa Regina,Villa Regina,Villa Regina,Villa Regina,-39.09631,-67.08374,197.0,America/Argentina/Salta,PPL,no,AR,ARG,Argentina,16,Rio Negro,31209,,,,,,,,,,,,30431.1931,0.849,,,92.2742,5.806,23.9966,,99.14,,,3.36
3427761,Tigre,Tigre,Tigre,Tigre,Tigre,Tigre,Тигре,-34.42603,-58.57962,8.0,America/Argentina/Buenos_Aires,PPL,no,AR,ARG,Argentina,01,Buenos Aires,31106,,,,,,,,,,,,30431.1931,0.849,,,92.2742,5.806,23.9966,,99.14,,,3.36
3855666,Famaillá,Famailla,Famaillá,Famaillá,Famaillá,Famaillá,Famaillá,-27.05452,-65.40189,339.0,America/Argentina/Tucuman,PPLA2,no,AR,ARG,Argentina,24,Tucuman,30951,,,,,,,,,,,,30431.1931,0.849,,,92.2742,5.806,23.9966,,99.14,,,3.36
3435486,Chajarí,Chajari,Chajarí,Chajarí,Chajarí,Chajarí,Chajarí,-30.75482,-57.98196,35.0,America/Argentina/Cordoba,PPL,no,AR,ARG,Argentina,08,Entre Rios,30655,,,,,,,,,,,,30431.1931,0.849,,,92.2742,5.806,23.9966,,99.14,,,3.36
3430709,Mercedes,Mercedes,Mercedes,Mercedes,Mercedes,Mercedes,Мерседес,-29.18416,-58.07519,96.0,America/Argentina/Cordoba,PPLA2,no,AR,ARG,Argentina,06,Corrientes,30649,,,,,,,,,,,,30431.1931,0.849,,,92.2742,5.806,23.9966,,99.14,,,3.36
616052,Yerevan,Yerevan,Yerevan,Ereván,Erevan,Jerevan,Ереван,40.17765,44.5126,1002.0,Asia/Yerevan,PPLC,national,AM,ARM,Armenia,11,Yerevan,1144700,,,,,,,,,,,,22823.1795,0.786,,,65.8114,7.8059,22.8571,,99.84,,,4.24
616635,Gyumri,Gyumri,Gyumri,Gyumri,Gyumri,Gyumri,Гюмри,40.79305,43.84635,1553.0,Asia/Yerevan,PPLA,admin1,AM,ARM,Armenia,07,Shirak,114667,,,,,,,,,,,,22823.1795,0.786,,,65.8114,7.8059,22.8571,,99.84,,,4.24
616530,Vanadzor,Vanadzor,Vanadzor,Vanadzor,Vanadzor,Vanadzor,Ванадзор,40.8074,44.49704,1368.0,Asia/Yerevan,PPLA,admin1,AM,ARM,Armenia,06,Lori,78100,,,,,,,,,,,,22823.1795,0.786,,,65.8114,7.8059,22.8571,,99.84,,,4.24
616629,Hrazdan,Hrazdan,Hrazdan,Hrazdan,Hrazdan,Hrazdan,Раздан,40.5169,44.75591,1702.0,Asia/Yerevan,PPLA,admin1,AM,ARM,Armenia,05,Kotayk,49500,,,,,,,,,,,,22823.1795,0.786,,,65.8114,7.8059,22.8571,,99.84,,,4.24
617026,Abovyan,Abovyan,Abovyan,Abovyan,Abovyan,Abovyan,Абовян,40.2717,44.63342,1450.0,Asia/Yerevan,PPLA2,no,AM,ARM,Armenia,05,Kotayk,47546,,,,,,,,,,,,22823.1795,0.786,,,65.8114,7.8059,22.8571,,99.84,,,4.24
616062,Vagharshapat,Vagharshapat,Vagharshapat,Echmiadzin,Etchmiadzin,Echmiadzin,Вагаршапат,40.16557,44.29462,877.0,Asia/Yerevan,PPLA2,no,AM,ARM,Armenia,03,Armavir,45842,,,,,,,,,,,,22823.1795,0.786,,,65.8114,7.8059,22.8571,,99.84,,,4.24
174875,Kapan,Kapan,Kapan,Kapan,Kapan,Kapan,Капан,39.20762,46.40678,774.0,Asia/Yerevan,PPLA,admin1,AM,ARM,Armenia,08,Syunik,32900,,,,,,,,,,,,22823.1795,0.786,,,65.8114,7.8059,22.8571,,99.84,,,4.24
5881576,Pago Pago,Pago Pago,Pago Pago,Pago Pago,Pago Pago,Pago Pago,Пагопаго,-14.27806,-170.7025,144.0,Pacific/Pago_Pago,PPLC,national,AS,ASM,American Samoa,010,Eastern District,11500,,,,,,,,,,,,,,,,80.9447,,,,,,,
1546102,Port-aux-Français,Port-aux-Francais,Port-aux-Français,Port-aux-Français,Port-aux-Français,Port-aux-Français,Порт-о-Франсэ,-49.34916,70.21937,11.0,Indian/Kerguelen,PPLC,national,TF,ATF,French Southern and Antarctic Lands,03,Kerguelen,45,,,,,,,,,,,,,,,,,,,,,,,
3576022,Saint John’s,Saint John's,St John's,Saint John's,Saint John's,Saint John's,Сент-Джонс,17.12096,-61.84329,12.0,America/Antigua,PPLC,national,AG,ATG,Antigua and Barbuda,04,Saint John Parish,51737,,,,,,,,,,,,33386.1917,,,,24.3907,1.9433,18.9871,,,,,3.42
2147714,Sydney,Sydney,Sydney,Sídney,Sydney,Sydney,Сидней,-33.86785,151.20732,58.0,Australia/Sydney,PPLA,admin1,AU,AUS,Australia,02,New South Wales,5557233,,,,,,,,,,,,72111.1845,0.946,,,87.6021,2.0357,25.5307,,,,,
2158177,Melbourne,Melbourne,Melbourne,Melbourne,Melbourne,Melbourne,Мельбурн,-37.814,144.96332,25.0,Australia/Melbourne,PPLA,admin1,AU,AUS,Australia,07,Victoria,5350705,,,,,,,,,,,,72111.1845,0.946,,,87.6021,2.0357,25.5307,,,,,
2174003,Brisbane,Brisbane,Brisbane,Brisbane,Brisbane,Brisbane,Брисбен,-27.46794,153.02809,27.0,Australia/Brisbane,PPLA,admin1,AU,AUS,Australia,04,Queensland,2780063,,,,,,,,,,,,72111.1845,0.946,,,87.6021,2.0357,25.5307,,,,,
2063523,Perth,Perth,Perth,Perth,Perth,Perth,Перт,-31.95224,115.8614,34.0,Australia/Perth,PPLA,admin1,AU,AUS,Australia,08,Western Australia,2309338,,,,,,,,,,,,72111.1845,0.946,,,87.6021,2.0357,25.5307,,,,,
2078025,Adelaide,Adelaide,Adelaide,Adelaida,Adélaïde,Adelaide,Аделаида,-34.92866,138.59863,59.0,Australia/Adelaide,PPLA,admin1,AU,AUS,Australia,05,South Australia,1469163,,,,,,,,,,,,72111.1845,0.946,,,87.6021,2.0357,25.5307,,,,,
2165087,Gold Coast,Gold Coast,Gold Coast,Costa Dorada,Gold Coast,Gold Coast,Голд Коуст,-28.00029,153.43088,12.0,Australia/Brisbane,PPL,no,AU,AUS,Australia,04,Queensland,640778,,,,,,,,,,,,72111.1845,0.946,,,87.6021,2.0357,25.5307,,,,,
2155472,Newcastle,Newcastle,Newcastle,Newcastle,Newcastle,Newcastle,Ньюкасл,-32.92953,151.7801,48.0,Australia/Sydney,PPLA2,no,AU,AUS,Australia,02,New South Wales,508437,,,,,,,,,,,,72111.1845,0.946,,,87.6021,2.0357,25.5307,,,,,
2172517,Canberra,Canberra,Canberra,Canberra,Canberra,Canberra,Канберра,-35.28346,149.12807,571.0,Australia/Sydney,PPLC,national,AU,AUS,Australia,01,Australian Capital Territory,367752,,,,,,,,,,,,72111.1845,0.946,,,87.6021,2.0357,25.5307,,,,,
8310663,Central Coast,Central Coast,Central Coast,Central Coast,Central Coast,Central Coast,Central Coast,-33.42979,151.37144,15.0,Australia/Sydney,PPL,no,AU,AUS,Australia,02,New South Wales,346596,,,,,,,,,,,,72111.1845,0.946,,,87.6021,2.0357,25.5307,,,,,
10630449,Sunshine Coast,Sunshine Coast,Sunshine Coast,Sunshine Coast,Sunshine Coast,Sunshine Coast,Sunshine Coast,-26.65682,153.07955,9.0,Australia/Brisbane,PPLA2,no,AU,AUS,Australia,04,Queensland,346522,,,,,,,,,,,,72111.1845,0.946,,,87.6021,2.0357,25.5307,,,,,
7281838,Logan City,Logan City,Logan City,Logan,Logan City,Città di Logan,Logan City,-27.63917,153.10944,39.0,Australia/Brisbane,PPL,no,AU,AUS,Australia,04,Queensland,345098,,,,,,,,,,,,72111.1845,0.946,,,87.6021,2.0357,25.5307,,,,,
2165798,Geelong,Geelong,Geelong,Geelong,Geelong,Geelong,Джилонг,-38.14711,144.36069,23.0,Australia/Melbourne,PPL,no,AU,AUS,Australia,07,Victoria,282809,,,,,,,,,,,,72111.1845,0.946,,,87.6021,2.0357,25.5307,,,,,
2171507,Wollongong,Wollongong,Wollongong,Wollongong,Wollongong,Wollongong,Вуллонгонг,-34.424,150.89345,29.0,Australia/Sydney,PPLA2,no,AU,AUS,Australia,02,New South Wales,280153,,,,,,,,,,,,72111.1845,0.946,,,87.6021,2.0357,25.5307,,,,,
2163355,Hobart,Hobart,Hobart,Hobart,Hobart,Hobart,Хобарт,-42.87936,147.32941,19.0,Australia/Hobart,PPLA,admin1,AU,AUS,Australia,06,Tasmania,252639,,,,,,,,,,,,72111.1845,0.946,,,87.6021,2.0357,25.5307,,,,,
2146142,Townsville,Townsville,Townsville,Townsville,Townsville,Townsville,Таунсвилл,-19.26639,146.80569,15.0,Australia/Brisbane,PPL,no,AU,AUS,Australia,04,Queensland,201313,,,,,,,,,,,,72111.1845,0.946,,,87.6021,2.0357,25.5307,,,,,
2172797,Cairns,Cairns,Cairns,Cairns,Cairns,Cairns,Кернс,-16.92366,145.76613,7.0,Australia/Brisbane,PPL,no,AU,AUS,Australia,04,Queensland,153075,,,,,,,,,,,,72111.1845,0.946,,,87.6021,2.0357,25.5307,,,,,
2146268,Toowoomba,Toowoomba,Toowoomba,Toowoomba,Toowoomba,Toowoomba,Тувумба,-27.56056,151.95386,599.0,Australia/Brisbane,PPL,no,AU,AUS,Australia,04,Queensland,142163,,,,,,,,,,,,72111.1845,0.946,,,87.6021,2.0357,25.5307,,,,,
2073124,Darwin,Darwin,Darwin,Darwin,Darwin,Darwin,Дарвин,-12.46113,130.84185,31.0,Australia/Darwin,PPLA,admin1,AU,AUS,Australia,03,Northern Territory,139902,,,,,,,,,,,,72111.1845,0.946,,,87.6021,2.0357,25.5307,,,,,
2159220,Mackay,Mackay,Mackay,Mackay,Mackay,Mackay,Макей,-21.15345,149.16554,11.0,Australia/Brisbane,PPLA2,no,AU,AUS,Australia,04,Queensland,121691,,,,,,,,,,,,72111.1845,0.946,,,87.6021,2.0357,25.5307,,,,,
2177091,Ballarat,Ballarat,Ballarat,Ballarat,Ballarat,Ballarat,Балларат,-37.56622,143.84957,445.0,Australia/Melbourne,PPL,no,AU,AUS,Australia,07,Victoria,111973,,,,,,,,,,,,72111.1845,0.946,,,87.6021,2.0357,25.5307,,,,,
2176187,Bendigo,Bendigo,Bendigo,Bendigo,Bendigo,Bendigo,Бендиго,-36.75818,144.28024,221.0,Australia/Melbourne,PPLA2,no,AU,AUS,Australia,07,Victoria,103034,,,,,,,,,,,,72111.1845,0.946,,,87.6021,2.0357,25.5307,,,,,
2172710,Caloundra,Caloundra,Caloundra,Caloundra,Caloundra,Caloundra,Калундра,-26.80346,153.12195,8.0,Australia/Brisbane,PPL,no,AU,AUS,Australia,04,Queensland,96305,,,,,,,,,,,,72111.1845,0.946,,,87.6021,2.0357,25.5307,,,,,
2160517,Launceston,Launceston,Launceston,Launceston,Launceston,Launceston,Лонсестон,-41.43876,147.13467,11.0,Australia/Hobart,PPLA2,no,AU,AUS,Australia,06,Tasmania,90953,,,,,,,,,,,,72111.1845,0.946,,,87.6021,2.0357,25.5307,,,,,
2067119,Mandurah,Mandurah,Mandurah,Mandurah,Mandurah,Mandurah,Мандъюра,-32.5269,115.7217,4.0,Australia/Perth,PPLA2,no,AU,AUS,Australia,08,Western Australia,90306,,,,,,,,,,,,72111.1845,0.946,,,87.6021,2.0357,25.5307,,,,,
2159045,Maitland,Maitland,Maitland,Maitland,Maitland,Maitland,Мейтленд,-32.73308,151.5574,16.0,Australia/Sydney,PPLA2,no,AU,AUS,Australia,02,New South Wales,89597,,,,,,,,,,,,72111.1845,0.946,,,87.6021,2.0357,25.5307,,,,,
2151437,Rockhampton,Rockhampton,Rockhampton,Rockhampton,Rockhampton,Rockhampton,Рокхемптон,-23.38032,150.50595,13.0,Australia/Brisbane,PPL,no,AU,AUS,Australia,04,Queensland,81021,,,,,,,,,,,,72111.1845,0.946,,,87.6021,2.0357,25.5307,,,,,
2171085,Coffs Harbour,Coffs Harbour,Coffs Harbour,Coffs Harbour,Coffs Harbour,Coffs Harbour,Кофс-Харбор,-30.29626,153.11351,6.0,Australia/Sydney,PPL,no,AU,AUS,Australia,02,New South Wales,78759,,,,,,,,,,,,72111.1845,0.946,,,87.6021,2.0357,25.5307,,,,,
2075432,Bunbury,Bunbury,Bunbury,Bunbury,Bunbury,Bunbury,Банбери,-33.32711,115.64137,5.0,Australia/Perth,PPLA2,no,AU,AUS,Australia,08,Western Australia,76452,,,,,,,,,,,,72111.1845,0.946,,,87.6021,2.0357,25.5307,,,,,
2173323,Bundaberg,Bundaberg,Bundaberg,Bundaberg,Bundaberg,Bundaberg,Бандаберг,-24.86621,152.3479,17.0,Australia/Brisbane,PPL,no,AU,AUS,Australia,04,Queensland,73747,,,,,,,,,,,,72111.1845,0.946,,,87.6021,2.0357,25.5307,,,,,
7302628,Adelaide Hills,Adelaide Hills,Adelaide Hills,Adelaide Hills,Adelaide Hills,Adelaide Hills,Adelaide Hills,-34.91119,138.70735,426.0,Australia/Adelaide,PPL,no,AU,AUS,Australia,05,South Australia,72260,,,,,,,,,,,,72111.1845,0.946,,,87.6021,2.0357,25.5307,,,,,
6354957,Hervey Bay,Hervey Bay,Hervey Bay,Hervey Bay,Hervey Bay,Hervey Bay,Харви-Бей,-25.28762,152.76936,9.0,Australia/Brisbane,PPL,no,AU,AUS,Australia,04,Queensland,52230,,,,,,,,,,,,72111.1845,0.946,,,87.6021,2.0357,25.5307,,,,,
2152659,Port Macquarie,Port Macquarie,Port Macquarie,Port Macquarie,Port Macquarie,Port Macquarie,Порт Маккуори,-31.43084,152.90894,10.0,Australia/Sydney,PPL,no,AU,AUS,Australia,02,New South Wales,51965,,,,,,,,,,,,72111.1845,0.946,,,87.6021,2.0357,25.5307,,,,,
2165478,Gladstone,Gladstone,Gladstone,Gladstone,Gladstone,Gladstone,Глэдстон,-23.84852,151.25775,21.0,Australia/Brisbane,PPLA2,no,AU,AUS,Australia,04,Queensland,45185,,,,,,,,,,,,72111.1845,0.946,,,87.6021,2.0357,25.5307,,,,,
2147497,Tamworth,Tamworth,Tamworth,Tamworth,Tamworth,Tamworth,Тамуорт,-31.09048,150.92905,384.0,Australia/Sydney,PPLA2,no,AU,AUS,Australia,02,New South Wales,43874,,,,,,,,,,,,72111.1845,0.946,,,87.6021,2.0357,25.5307,,,,,
2168305,Dubbo,Dubbo,Dubbo,Dubbo,Dubbo,Dubbo,Даббо,-32.24295,148.60484,264.0,Australia/Sydney,PPL,no,AU,AUS,Australia,02,New South Wales,43516,,,,,,,,,,,,72111.1845,0.946,,,87.6021,2.0357,25.5307,,,,,
2154219,Orange,Orange,Orange,Orange,Orange,Orange,Орандж,-33.28397,149.10018,868.0,Australia/Sydney,PPL,no,AU,AUS,Australia,02,New South Wales,41920,,,,,,,,,,,,72111.1845,0.946,,,87.6021,2.0357,25.5307,,,,,
2143285,Wodonga,Wodonga,Wodonga,Wodonga,Wodonga,Wodonga,Уодонга,-36.12179,146.88809,167.0,Australia/Melbourne,PPL,no,AU,AUS,Australia,07,Victoria,38949,,,,,,,,,,,,72111.1845,0.946,,,87.6021,2.0357,25.5307,,,,,
2070998,Geraldton,Geraldton,Geraldton,Geraldton,Geraldton,Geraldton,Джералдтон,-28.77897,114.61459,15.0,Australia/Perth,PPLA2,no,AU,AUS,Australia,08,Western Australia,38595,,,,,,,,,,,,72111.1845,0.946,,,87.6021,2.0357,25.5307,,,,,
8015209,St Albans,St Albans,Saint Albans,Saint Albans,Saint Albans,Saint Albans,Saint Albans,-37.74496,144.80049,70.0,Australia/Melbourne,PPL,no,AU,AUS,Australia,07,Victoria,37629,,,,,,,,,,,,72111.1845,0.946,,,87.6021,2.0357,25.5307,,,,,
2176632,Bathurst,Bathurst,Bathurst,Bathurst,Bathurst,Bathurst,Бэтхерст,-33.41665,149.5806,670.0,Australia/Sydney,PPLA2,no,AU,AUS,Australia,02,New South Wales,36230,,,,,,,,,,,,72111.1845,0.946,,,87.6021,2.0357,25.5307,,,,,
2077963,Albany,Albany,Albany,Albany,Albany,Albany,Олбани,-35.02692,117.88369,14.0,Australia/Perth,PPLA2,no,AU,AUS,Australia,08,Western Australia,35053,,,,,,,,,,,,72111.1845,0.946,,,87.6021,2.0357,25.5307,,,,,
2157698,Mildura,Mildura,Mildura,Mildura,Mildura,Mildura,Милдьюра,-34.18551,142.16251,56.0,Australia/Melbourne,PPL,no,AU,AUS,Australia,07,Victoria,34565,,,,,,,,,,,,72111.1845,0.946,,,87.6021,2.0357,25.5307,,,,,
2166143,Frankston East,Frankston East,Frankston East,Frankston East,Frankston East,Frankston East,Френкстон,-38.13333,145.13333,10.0,Australia/Melbourne,PPL,no,AU,AUS,Australia,07,Victoria,34457,,,,,,,,,,,,72111.1845,0.946,,,87.6021,2.0357,25.5307,,,,,
6301965,Palmerston,Palmerston,Palmerston,Palmerston,Palmerston,Palmerston,Палмерстон,-12.48602,130.9833,36.0,Australia/Darwin,PPL,no,AU,AUS,Australia,03,Northern Territory,33695,,,,,,,,,,,,72111.1845,0.946,,,87.6021,2.0357,25.5307,,,,,
2144528,Warrnambool,Warrnambool,Warrnambool,Warrnambool,Warrnambool,Warrnambool,Уорнамбул,-38.38176,142.48799,24.0,Australia/Melbourne,PPL,no,AU,AUS,Australia,07,Victoria,32894,,,,,,,,,,,,72111.1845,0.946,,,87.6021,2.0357,25.5307,,,,,
2149645,Shepparton,Shepparton,Shepparton,Shepparton,Shepparton,Shepparton,Шеппартон,-36.38047,145.39867,115.0,Australia/Melbourne,PPL,no,AU,AUS,Australia,07,Victoria,32067,,,,,,,,,,,,72111.1845,0.946,,,87.6021,2.0357,25.5307,,,,,
2068079,Kwinana,Kwinana,Kwinana,Kwinana,Kwinana,Kwinana,Куинана,-32.23013,115.78128,7.0,Australia/Perth,PPL,no,AU,AUS,Australia,08,Western Australia,30433,,,,,,,,,,,,72111.1845,0.946,,,87.6021,2.0357,25.5307,,,,,
2761369,Vienna,Vienna,Vienna,Viena,Vienne,Vienna,Вена,48.20849,16.37208,193.0,Europe/Vienna,PPLC,national,AT,AUT,Austria,09,Vienna,1691468,,,,,,,,,,,,73911.4397,0.926,,,69.4658,1.2166,24.5834,,,,,6.7
2778067,Graz,Graz,Graz,Graz,Graz,Graz,Грац,47.06733,15.44197,362.0,Europe/Vienna,PPLA,admin1,AT,AUT,Austria,06,Styria,303270,,,,,,,,,,,,73911.4397,0.926,,,69.4658,1.2166,24.5834,,,,,6.7
2772400,Linz,Linz,Linz,Linz,Linz,Linz,Линц,48.30639,14.28611,268.0,Europe/Vienna,PPLA,admin1,AT,AUT,Austria,04,Upper Austria,204846,,,,,,,,,,,,73911.4397,0.926,,,69.4658,1.2166,24.5834,,,,,6.7
2766824,Salzburg,Salzburg,Salzburg,Salzburgo,Salzbourg,Salisburgo,Зальцбург,47.79941,13.04399,435.0,Europe/Vienna,PPLA,admin1,AT,AUT,Austria,05,Salzburg,157245,,,,,,,,,,,,73911.4397,0.926,,,69.4658,1.2166,24.5834,,,,,6.7
2775220,Innsbruck,Innsbruck,Innsbruck,Innsbruck,Innsbruck,Innsbruck,Инсбрук,47.26266,11.39454,587.0,Europe/Vienna,PPLA,admin1,AT,AUT,Austria,07,Tyrol,132493,,,,,,,,,,,,73911.4397,0.926,,,69.4658,1.2166,24.5834,,,,,6.7
2774326,Klagenfurt am Wörthersee,Klagenfurt am Woerthersee,Klagenfurt,Klagenfurt,Klagenfurt,Klagenfurt,Клагенфурт,46.62472,14.30528,450.0,Europe/Vienna,PPLA,admin1,AT,AUT,Austria,02,Carinthia,100316,,,,,,,,,,,,73911.4397,0.926,,,69.4658,1.2166,24.5834,,,,,6.7
2762372,Villach,Villach,Villach,Villach,Villach,Villaco,Филлах,46.61028,13.85583,494.0,Europe/Vienna,PPLA2,no,AT,AUT,Austria,02,Carinthia,58882,,,,,,,,,,,,73911.4397,0.926,,,69.4658,1.2166,24.5834,,,,,6.7
2780741,Dornbirn,Dornbirn,Dornbirn,Dornbirn,Dornbirn,Dornbirn,Дорнбирн,47.41427,9.74195,437.0,Europe/Vienna,PPLA3,no,AT,AUT,Austria,08,Vorarlberg,49278,,,,,,,,,,,,73911.4397,0.926,,,69.4658,1.2166,24.5834,,,,,6.7
2761353,Wiener Neustadt,Wiener Neustadt,Wiener Neustadt,Wiener Neustadt,Wiener Neustadt,Wiener Neustadt,Винер-Нойштадт,47.80485,16.23196,270.0,Europe/Vienna,PPLA3,no,AT,AUT,Austria,03,Lower Austria,44820,,,,,,,,,,,,73911.4397,0.926,,,69.4658,1.2166,24.5834,,,,,6.7
2764359,Steyr,Steyr,Steyr,Steyr,Steyr,Steyr,Штайр,48.04274,14.42127,290.0,Europe/Vienna,PPLA3,no,AT,AUT,Austria,04,Upper Austria,38331,,,,,,,,,,,,73911.4397,0.926,,,69.4658,1.2166,24.5834,,,,,6.7
2779674,Feldkirch,Feldkirch,Feldkirch,Feldkirch,Feldkirch,Feldkirch,Фельдкирх,47.23306,9.6,475.0,Europe/Vienna,PPLA2,no,AT,AUT,Austria,08,Vorarlberg,33420,,,,,,,,,,,,73911.4397,0.926,,,69.4658,1.2166,24.5834,,,,,6.7
587084,Baku,Baku,Baku,Bakú,Bakou,Baku,Баку,40.37767,49.89201,-23.0,Asia/Baku,PPLC,national,AZ,AZE,Azerbaijan,09,Baki,1116513,,,,,,,,,,,,25088.9994,0.745,,,58.5738,5.6572,42.612,,99.78,,,3.68
584923,Sumqayıt,Sumqayit,Sumqayit,Sumqayit,Sumqayit,Sumqayit,Сумгаит,40.58972,49.66861,-11.0,Asia/Baku,PPLA,admin1,AZ,AZE,Azerbaijan,54,Sumqayit,358675,,,,,,,,,,,,25088.9994,0.745,,,58.5738,5.6572,42.612,,99.78,,,3.68
586523,Ganja,Ganja,Ganja,Gandja,Gandja,Gäncä,Гянджа,40.68157,46.36134,409.0,Asia/Baku,PPLA,admin1,AZ,AZE,Azerbaijan,20,Gǝncǝ,335600,,,,,,,,,,,,25088.9994,0.745,,,58.5738,5.6572,42.612,,99.78,,,3.68
147622,Lankaran,Lankaran,Lankaran,Lankaran,Lankaran,Lankaran,Ленкорань,38.75428,48.85062,-22.0,Asia/Baku,PPLA,admin1,AZ,AZE,Azerbaijan,29,Lənkəran,240300,,,,,,,,,,,,25088.9994,0.745,,,58.5738,5.6572,42.612,,99.78,,,3.68
584821,Tovuz,Tovuz,Tovuz,Tovuz,Tovuz,Tovuz,Тауз,40.99249,45.62838,421.0,Asia/Baku,PPLA,admin1,AZ,AZE,Azerbaijan,58,Tovuz District,177200,,,,,,,,,,,,25088.9994,0.745,,,58.5738,5.6572,42.612,,99.78,,,3.68
584649,Yevlakh,Yevlakh,Yevlakh,Yevlakh,Yevlakh,Yevlakh,Евлах,40.61832,47.15014,17.0,Asia/Baku,PPLA,admin1,AZ,AZE,Azerbaijan,68,Yevlax City,127400,,,,,,,,,,,,25088.9994,0.745,,,58.5738,5.6572,42.612,,99.78,,,3.68
585514,Mingachevir,Mingachevir,Mingachevir,Mingacevir,Mingachevir,Mingachevir,Мингечаур,40.76422,47.06227,26.0,Asia/Baku,PPLA,admin1,AZ,AZE,Azerbaijan,33,Mingǝcevir,106048,,,,,,,,,,,,25088.9994,0.745,,,58.5738,5.6572,42.612,,99.78,,,3.68
147429,Naxçıvan,Naxcivan,Nakhchivan,Nakhchivan,Nakhitchevan,Nakhchivan,Нахичевань,39.20889,45.41222,887.0,Asia/Baku,PPLA,admin1,AZ,AZE,Azerbaijan,35,Nakhchivan,97200,,,,,,,,,,,,25088.9994,0.745,,,58.5738,5.6572,42.612,,99.78,,,3.68
585103,Qaraçuxur,Qaracuxur,Qaraçuxur,Qaraçuxur,Qaraçuxur,Qaraçuxur,Гарачухур,40.39667,49.97361,51.0,Asia/Baku,PPL,no,AZ,AZE,Azerbaijan,09,Baki,87349,,,,,,,,,,,,25088.9994,0.745,,,58.5738,5.6572,42.612,,99.78,,,3.68
147288,Saatlı,Saatli,Saatlı,Saatlı,Saatlı,Saatlı,Саатлы,39.93214,48.36892,-7.0,Asia/Baku,PPLA,admin1,AZ,AZE,Azerbaijan,45,Saatlı,87000,,,,,,,,,,,,25088.9994,0.745,,,58.5738,5.6572,42.612,,99.78,,,3.68
147611,Lerik,Lerik,Lerik,Lerik,Lerik,Lerik,Лерик,38.77388,48.41497,1094.0,Asia/Baku,PPLA,admin1,AZ,AZE,Azerbaijan,31,Lerik District,87000,,,,,,,,,,,,25088.9994,0.745,,,58.5738,5.6572,42.612,,99.78,,,3.68
148565,Şirvan,Sirvan,Şirvan,Şirvan,Şirvan,Şirvan,Ширван,39.93778,48.929,-15.0,Asia/Baku,PPLA,admin1,AZ,AZE,Azerbaijan,07,Shirvan,70220,,,,,,,,,,,,25088.9994,0.745,,,58.5738,5.6572,42.612,,99.78,,,3.68
585170,Sheki,Sheki,Şǝki,Şǝki,Şǝki,Şǝki,Шеки,41.19194,47.17056,549.0,Asia/Baku,PPLA,admin1,AZ,AZE,Azerbaijan,48,Shaki City,68400,,,,,,,,,,,,25088.9994,0.745,,,58.5738,5.6572,42.612,,99.78,,,3.68
587384,Agdzhabedy,Agdzhabedy,Ağcabǝdi,Ağcabǝdi,Ağcabǝdi,Ağcabǝdi,Агджабеди,40.05015,47.45937,15.0,Asia/Baku,PPLA,admin1,AZ,AZE,Azerbaijan,02,Ağcabǝdi,43000,,,,,,,,,,,,25088.9994,0.745,,,58.5738,5.6572,42.612,,99.78,,,3.68
586427,Göyçay,Goeycay,Göyçay,Göyçay,Göyçay,Göyçay,Геокчай,40.65055,47.74219,122.0,Asia/Baku,PPLA,admin1,AZ,AZE,Azerbaijan,22,Göyçay,42500,,,,,,,,,,,,25088.9994,0.745,,,58.5738,5.6572,42.612,,99.78,,,3.68
585557,Maştağa,Mastaga,Maştağa,Maştağa,Maştağa,Maştağa,Маштага,40.52983,50.00616,19.0,Asia/Baku,PPL,no,AZ,AZE,Azerbaijan,09,Baki,40092,,,,,,,,,,,,25088.9994,0.745,,,58.5738,5.6572,42.612,,99.78,,,3.68
148619,Ağdam,Agdam,Ağdam,Ağdam,Ağdam,Ağdam,Агдам,39.99096,46.92736,374.0,Asia/Baku,PPLA,admin1,AZ,AZE,Azerbaijan,03,Ağdam,39451,,,,,,,,,,,,25088.9994,0.745,,,58.5738,5.6572,42.612,,99.78,,,3.68
585915,Khirdalan,Khirdalan,Xirdalan,Xirdalan,Xirdalan,Xirdalan,Хырдалан,40.44808,49.75502,75.0,Asia/Baku,PPLA,admin1,AZ,AZE,Azerbaijan,01,Abşeron,37949,,,,,,,,,,,,25088.9994,0.745,,,58.5738,5.6572,42.612,,99.78,,,3.68
587057,Barda,Barda,Bǝrdǝ,Bərdə,Bǝrdǝ,Bərdə,Барда,40.37577,47.12619,77.0,Asia/Baku,PPLA,admin1,AZ,AZE,Azerbaijan,11,Barda,37372,,,,,,,,,,,,25088.9994,0.745,,,58.5738,5.6572,42.612,,99.78,,,3.68
584717,Xaçmaz,Xacmaz,Xaçmaz,Xaçmaz,Xaçmaz,Xaçmaz,Хачмас,41.46426,48.80565,47.0,Asia/Baku,PPLA,admin1,AZ,AZE,Azerbaijan,60,Xaçmaz,37175,,,,,,,,,,,,25088.9994,0.745,,,58.5738,5.6572,42.612,,99.78,,,3.68
147271,Salyan,Salyan,Salyan,Salyan,Salyan,Salyan,Сальян,39.59621,48.98479,-17.0,Asia/Baku,PPLA,admin1,AZ,AZE,Azerbaijan,49,Salyan District,36555,,,,,,,,,,,,25088.9994,0.745,,,58.5738,5.6572,42.612,,99.78,,,3.68
586429,Hövsan,Hovsan,Hövsan,Hövsan,Hovsan,Hövsan,Говсан,40.37444,50.08528,-19.0,Asia/Baku,PPL,no,AZ,AZE,Azerbaijan,09,Baki,36293,,,,,,,,,,,,25088.9994,0.745,,,58.5738,5.6572,42.612,,99.78,,,3.68
148290,Jalilabad,Jalilabad,Jalilabad,Jalilabad,Jalilabad,Jalilabad,Джалильабад,39.20963,48.49186,39.0,Asia/Baku,PPLA,admin1,AZ,AZE,Azerbaijan,15,Jalilabad,36259,,,,,,,,,,,,25088.9994,0.745,,,58.5738,5.6572,42.612,,99.78,,,3.68
585152,Shamkhor,Shamkhor,Şǝmkir,Şǝmkir,Şǝmkir,Şǝmkir,Шамкир,40.82975,46.0178,462.0,Asia/Baku,PPLA,admin1,AZ,AZE,Azerbaijan,51,Şǝmkir,35421,,,,,,,,,,,,25088.9994,0.745,,,58.5738,5.6572,42.612,,99.78,,,3.68
147982,Imishli,Imishli,Imishli,Imishli,Imishli,Imishli,Имишли,39.87095,48.05995,1.0,Asia/Baku,PPLA,admin1,AZ,AZE,Azerbaijan,24,İmişli,34178,,,,,,,,,,,,25088.9994,0.745,,,58.5738,5.6572,42.612,,99.78,,,3.68
584596,Zaqatala,Zaqatala,Zaqatala,Zaqatala,Zaqatala,Zaqatala,Загатала,41.6316,46.64479,503.0,Asia/Baku,PPLA,admin1,AZ,AZE,Azerbaijan,70,Zaqatala District,32171,,,,,,,,,,,,25088.9994,0.745,,,58.5738,5.6572,42.612,,99.78,,,3.68
585630,Lokbatan,Lokbatan,Lökbatan,Lökbatan,Lökbatan,Lökbatan,Локбатан,40.3256,49.73376,4.0,Asia/Baku,PPL,no,AZ,AZE,Azerbaijan,09,Baki,30694,,,,,,,,,,,,25088.9994,0.745,,,58.5738,5.6572,42.612,,99.78,,,3.68
585187,Sabirabad,Sabirabad,Sabirabad,Sabirabad,Sabirabad,Sabirabad,Сабирабад,40.00869,48.47701,-11.0,Asia/Baku,PPLA,admin1,AZ,AZE,Azerbaijan,46,Sabirabad District,30612,,,,,,,,,,,,25088.9994,0.745,,,58.5738,5.6572,42.612,,99.78,,,3.68
425378,Bujumbura,Bujumbura,Bujumbura,Buyumbura,Bujumbura,Bujumbura,Бужумбура,-3.38193,29.36142,807.0,Africa/Bujumbura,PPLA,admin1,BI,BDI,Burundi,24,Bujumbura Mairie,769317,,,,,,,,,,,,1194.9468,0.426,,,24.8303,34.909,17.6555,,71.4078,,,
426272,Gitega,Gitega,Gitega,Gitega,Gitega,Gitega,Гитеге,-3.42708,29.92463,1684.0,Africa/Bujumbura,PPLC,national,BI,BDI,Burundi,13,Gitega,64904,,,,,,,,,,,,1194.9468,0.426,,,24.8303,34.909,17.6555,,71.4078,,,
430569,Ngozi,Ngozi,Ngozi,Ngozi,Ngozi,Ngozi,Нгози,-2.9075,29.8306,1824.0,Africa/Bujumbura,PPLA,admin1,BI,BDI,Burundi,19,Ngozi,61716,,,,,,,,,,,,1194.9468,0.426,,,24.8303,34.909,17.6555,,71.4078,,,
428632,Mpanda,Mpanda,Mpanda,Mpanda,Mpanda,Mpanda,Mpanda,-3.1703,29.4026,876.0,Africa/Bujumbura,PPL,no,BI,BDI,Burundi,09,Bubanza,58913,,,,,,,,,,,,1194.9468,0.426,,,24.8303,34.909,17.6555,,71.4078,,,
423549,Rumonge,Rumonge,Rumonge,Rumonge,Rumonge,Rumonge,Rumonge,-3.9736,29.4386,790.0,Africa/Bujumbura,PPLA,admin1,BI,BDI,Burundi,26,Rumonge,55599,,,,,,,,,,,,1194.9468,0.426,,,24.8303,34.909,17.6555,,71.4078,,,
430021,Cibitoke,Cibitoke,Cibitoke,Cibitoke,Cibitoke,Cibitoke,Cibitoke,-2.8869,29.1248,937.0,Africa/Bujumbura,PPLA,admin1,BI,BDI,Burundi,12,Cibitoke,36959,,,,,,,,,,,,1194.9468,0.426,,,24.8303,34.909,17.6555,,71.4078,,,
430952,Kayanza,Kayanza,Kayanza,Kayanza,Kayanza,Kayanza,Kayanza,-2.9221,29.6293,1918.0,Africa/Bujumbura,PPLA,admin1,BI,BDI,Burundi,15,Kayanza,33682,,,,,,,,,,,,1194.9468,0.426,,,24.8303,34.909,17.6555,,71.4078,,,
427204,Cendajuru,Cendajuru,Cendajuru,Cendajuru,Cendajuru,Cendajuru,Cendajuru,-3.289,30.6011,1369.0,Africa/Bujumbura,PPL,no,BI,BDI,Burundi,11,Cankuzo,32458,,,,,,,,,,,,1194.9468,0.426,,,24.8303,34.909,17.6555,,71.4078,,,
428515,Bubanza,Bubanza,Bubanza,Bubanza,Bubanza,Bubanza,Бубанза,-3.0804,29.391,1079.0,Africa/Bujumbura,PPLA,admin1,BI,BDI,Burundi,09,Bubanza,30996,,,,,,,,,,,,1194.9468,0.426,,,24.8303,34.909,17.6555,,71.4078,,,
2800866,Brussels,Brussels,Brussels,Bruselas,Bruxelles,Bruxelles,Брюссель,50.85045,4.34878,28.0,Europe/Brussels,PPLC,national,BE,BEL,Belgium,BRU,Brussels Capital,1019022,,,,,,,,,,,,73514.4831,0.937,,,87.6127,0.7916,18.7357,,,,,5.42
2803138,Antwerpen,Antwerpen,Antwerp,Amberes,Anvers,Anversa,Антверпен,51.22047,4.40026,13.0,Europe/Brussels,PPL,no,BE,BEL,Belgium,VLG,Flanders,529247,,,,,,,,,,,,73514.4831,0.937,,,87.6127,0.7916,18.7357,,,,,5.42
2797656,Gent,Gent,Ghent,Gante,Gand,Gand,Гент,51.05,3.71667,10.0,Europe/Brussels,PPL,no,BE,BEL,Belgium,VLG,Flanders,265086,,,,,,,,,,,,73514.4831,0.937,,,87.6127,0.7916,18.7357,,,,,5.42
2800481,Charleroi,Charleroi,Charleroi,Charleroi,Charleroi,Charleroi,Шарлеруа,50.41136,4.44448,136.0,Europe/Brussels,PPL,no,BE,BEL,Belgium,WAL,Wallonia,200132,,,,,,,,,,,,73514.4831,0.937,,,87.6127,0.7916,18.7357,,,,,5.42
2792413,Liège,Liege,Liège,Lieja,Liège,Liegi,Льеж,50.63373,5.56749,66.0,Europe/Brussels,PPL,no,BE,BEL,Belgium,WAL,Wallonia,195278,,,,,,,,,,,,73514.4831,0.937,,,87.6127,0.7916,18.7357,,,,,5.42
2800931,Brugge,Brugge,Bruges,Brujas,Bruges,Bruges,Брюгге,51.20892,3.22424,13.0,Europe/Brussels,PPL,no,BE,BEL,Belgium,VLG,Flanders,118509,,,,,,,,,,,,73514.4831,0.937,,,87.6127,0.7916,18.7357,,,,,5.42
2790471,Namur,Namur,Namur,Namur,Namur,Namur,Намюр,50.4669,4.86746,88.0,Europe/Brussels,PPLA,admin1,BE,BEL,Belgium,WAL,Wallonia,110939,,,,,,,,,,,,73514.4831,0.937,,,87.6127,0.7916,18.7357,,,,,5.42
2792482,Leuven,Leuven,Leuven,Lovaina,Louvain,Lovanio,Лёвен,50.87959,4.70093,28.0,Europe/Brussels,PPL,no,BE,BEL,Belgium,VLG,Flanders,101032,,,,,,,,,,,,73514.4831,0.937,,,87.6127,0.7916,18.7357,,,,,5.42
2790869,Mons,Mons,Mons,Mons,Mons,Mons,Монс,50.45413,3.95229,56.0,Europe/Brussels,PPL,no,BE,BEL,Belgium,WAL,Wallonia,95299,,,,,,,,,,,,73514.4831,0.937,,,87.6127,0.7916,18.7357,,,,,5.42
2785123,Uccle,Uccle,Uccle,Uccle,Uccle,Uccle,Уккел,50.80225,4.33943,48.0,Europe/Brussels,PPL,no,BE,BEL,Belgium,BRU,Brussels Capital,82929,,,,,,,,,,,,73514.4831,0.937,,,87.6127,0.7916,18.7357,,,,,5.42
2796491,Hasselt,Hasselt,Hasselt,Hasselt,Hasselt,Hasselt,Хасселт,50.93106,5.33781,42.0,Europe/Brussels,PPL,no,BE,BEL,Belgium,VLG,Flanders,77651,,,,,,,,,,,,73514.4831,0.937,,,87.6127,0.7916,18.7357,,,,,5.42
2803448,Aalst,Aalst,Aalst,Aalst,Alost,Aalst,Aalst,50.93604,4.0355,12.0,Europe/Brussels,PPL,no,BE,BEL,Belgium,VLG,Flanders,77534,,,,,,,,,,,,73514.4831,0.937,,,87.6127,0.7916,18.7357,,,,,5.42
2791537,Mechelen,Mechelen,Mechelen,Malinas,Malines,Malines,Мехелен,51.02574,4.47762,8.0,Europe/Brussels,PPL,no,BE,BEL,Belgium,VLG,Flanders,77530,,,,,,,,,,,,73514.4831,0.937,,,87.6127,0.7916,18.7357,,,,,5.42
2793508,La Louvière,La Louviere,La Louvière,La Louvière,La Louvière,La Louvière,Ла-Лувьер,50.48657,4.18785,133.0,Europe/Brussels,PPL,no,BE,BEL,Belgium,WAL,Wallonia,76668,,,,,,,,,,,,73514.4831,0.937,,,87.6127,0.7916,18.7357,,,,,5.42
2794055,Kortrijk,Kortrijk,Kortrijk,Courtrai,Courtrai,Courtrai,Кортрейк,50.82803,3.26487,22.0,Europe/Brussels,PPL,no,BE,BEL,Belgium,VLG,Flanders,73879,,,,,,,,,,,,73514.4831,0.937,,,87.6127,0.7916,18.7357,,,,,5.42
2785341,Tournai,Tournai,Tournai,Tournai,Tournai,Tournai,Турне,50.60715,3.38932,24.0,Europe/Brussels,PPLA3,no,BE,BEL,Belgium,WAL,Wallonia,69554,,,,,,,,,,,,73514.4831,0.937,,,87.6127,0.7916,18.7357,,,,,5.42
2789786,Ostend,Ostend,Ostend,Ostende,Ostende,Ostenda,Остенде,51.21551,2.927,6.0,Europe/Brussels,PPLA3,no,BE,BEL,Belgium,VLG,Flanders,69011,,,,,,,,,,,,73514.4831,0.937,,,87.6127,0.7916,18.7357,,,,,5.42
2786578,Sint-Niklaas,Sint-Niklaas,Sint-Niklaas,Sint-Niklaas,Saint-Nicolas,Sint-Niklaas,Синт-Никлас,51.16509,4.1437,21.0,Europe/Brussels,PPLA3,no,BE,BEL,Belgium,VLG,Flanders,69010,,,,,,,,,,,,73514.4831,0.937,,,87.6127,0.7916,18.7357,,,,,5.42
2797670,Genk,Genk,Genk,Genk,Genk,Genk,Генк,50.965,5.50082,66.0,Europe/Brussels,PPL,no,BE,BEL,Belgium,VLG,Flanders,63666,,,,,,,,,,,,73514.4831,0.937,,,87.6127,0.7916,18.7357,,,,,5.42
2786824,Seraing,Seraing,Seraing,Seraing,Seraing,Seraing,Серен,50.58362,5.50115,185.0,Europe/Brussels,PPL,no,BE,BEL,Belgium,WAL,Wallonia,60737,,,,,,,,,,,,73514.4831,0.937,,,87.6127,0.7916,18.7357,,,,,5.42
2783476,Woluwe-Saint-Lambert,Woluwe-Saint-Lambert,Woluwe-Saint-Lambert,Woluwe-Saint-Lambert,Woluwe-Saint-Lambert,Woluwe-Saint-Lambert,Волюве-Сен-Ламбер,50.84389,4.42912,72.0,Europe/Brussels,PPL,no,BE,BEL,Belgium,BRU,Brussels Capital,56584,,,,,,,,,,,,73514.4831,0.937,,,87.6127,0.7916,18.7357,,,,,5.42
2787889,Roeselare,Roeselare,Roeselare,Roeselare,Roulers,Roeselare,Руселаре,50.94653,3.12269,22.0,Europe/Brussels,PPL,no,BE,BEL,Belgium,VLG,Flanders,56016,,,,,,,,,,,,73514.4831,0.937,,,87.6127,0.7916,18.7357,,,,,5.42
2784821,Verviers,Verviers,Verviers,Verviers,Verviers,Verviers,Вервье,50.58907,5.86241,201.0,Europe/Brussels,PPL,no,BE,BEL,Belgium,WAL,Wallonia,52824,,,,,,,,,,,,73514.4831,0.937,,,87.6127,0.7916,18.7357,,,,,5.42
2790595,Mouscron,Mouscron,Mouscron,Mouscron,Mouscron,Mouscron,Мускрон,50.74497,3.20639,53.0,Europe/Brussels,PPLA3,no,BE,BEL,Belgium,WAL,Wallonia,52069,,,,,,,,,,,,73514.4831,0.937,,,87.6127,0.7916,18.7357,,,,,5.42
2799645,Dendermonde,Dendermonde,Dendermonde,Dendermonde,Termonde,Dendermonde,Дендермонде,51.02869,4.10106,6.0,Europe/Brussels,PPLA3,no,BE,BEL,Belgium,VLG,Flanders,45673,,,,,,,,,,,,73514.4831,0.937,,,87.6127,0.7916,18.7357,,,,,5.42
2802031,Beveren,Beveren,Beveren,Beveren,Beveren,Beveren,Беверен,51.21187,4.25633,12.0,Europe/Brussels,PPL,no,BE,BEL,Belgium,VLG,Flanders,45179,,,,,,,,,,,,73514.4831,0.937,,,87.6127,0.7916,18.7357,,,,,5.42
2785141,Turnhout,Turnhout,Turnhout,Turnhout,Turnhout,Turnhout,Турнхоут,51.32254,4.94471,29.0,Europe/Brussels,PPLA3,no,BE,BEL,Belgium,VLG,Flanders,44000,,,,,,,,,,,,73514.4831,0.937,,,87.6127,0.7916,18.7357,,,,,5.42
2792196,Lokeren,Lokeren,Lokeren,Lokeren,Lokeren,Lokeren,Локерен,51.10364,3.99339,6.0,Europe/Brussels,PPL,no,BE,BEL,Belgium,VLG,Flanders,41438,,,,,,,,,,,,73514.4831,0.937,,,87.6127,0.7916,18.7357,,,,,5.42
2783615,Wilrijk,Wilrijk,Wilrijk,Wilrijk,Wilrijk,Wilrijk,Вилрейк,51.16734,4.39513,16.0,Europe/Brussels,PPL,no,BE,BEL,Belgium,VLG,Flanders,41403,,,,,,,,,,,,73514.4831,0.937,,,87.6127,0.7916,18.7357,,,,,5.42
2802170,Beringen,Beringen,Beringen,Beringen,Beringen,Beringen,Берингене,51.04954,5.22606,39.0,Europe/Brussels,PPL,no,BE,BEL,Belgium,VLG,Flanders,40930,,,,,,,,,,,,73514.4831,0.937,,,87.6127,0.7916,18.7357,,,,,5.42
2799365,Dilbeek,Dilbeek,Dilbeek,Dilbeek,Dilbeek,Dilbeek,Дилбек,50.84799,4.25972,84.0,Europe/Brussels,PPL,no,BE,BEL,Belgium,VLG,Flanders,39482,,,,,,,,,,,,73514.4831,0.937,,,87.6127,0.7916,18.7357,,,,,5.42
2786545,Sint-Truiden,Sint-Truiden,Sint-Truiden,Sint-Truiden,Saint-Trond,Sint-Truiden,Синт-Трюйден,50.81679,5.18647,54.0,Europe/Brussels,PPL,no,BE,BEL,Belgium,VLG,Flanders,37859,,,,,,,,,,,,73514.4831,0.937,,,87.6127,0.7916,18.7357,,,,,5.42
2801154,Braine-l'Alleud,Braine-l'Alleud,Braine-l'Alleud,Braine-l'Alleud,Braine-l'Alleud,Braine-l'Alleud,Брен-л'Аллё,50.68363,4.36784,93.0,Europe/Brussels,PPL,no,BE,BEL,Belgium,WAL,Wallonia,37512,,,,,,,,,,,,73514.4831,0.937,,,87.6127,0.7916,18.7357,,,,,5.42
2801117,Brasschaat,Brasschaat,Brasschaat,Brasschaat,Brasschaat,Brasschaat,Брасхат,51.2912,4.49182,10.0,Europe/Brussels,PPL,no,BE,BEL,Belgium,VLG,Flanders,37040,,,,,,,,,,,,73514.4831,0.937,,,87.6127,0.7916,18.7357,,,,,5.42
2784604,Vilvoorde,Vilvoorde,Vilvoorde,Vilvoorde,Vilvoorde,Vilvoorde,Вилворде,50.92814,4.42938,19.0,Europe/Brussels,PPL,no,BE,BEL,Belgium,VLG,Flanders,36955,,,,,,,,,,,,73514.4831,0.937,,,87.6127,0.7916,18.7357,,,,,5.42
2795930,Herstal,Herstal,Herstal,Herstal,Herstal,Herstal,Эрсталь,50.66415,5.62346,81.0,Europe/Brussels,PPL,no,BE,BEL,Belgium,WAL,Wallonia,36503,,,,,,,,,,,,73514.4831,0.937,,,87.6127,0.7916,18.7357,,,,,5.42
2791961,Maasmechelen,Maasmechelen,Maasmechelen,Maasmechelen,Maasmechelen,Maasmechelen,Маасмехелене,50.96545,5.69452,39.0,Europe/Brussels,PPL,no,BE,BEL,Belgium,VLG,Flanders,36251,,,,,,,,,,,,73514.4831,0.937,,,87.6127,0.7916,18.7357,,,,,5.42
2784068,Waregem,Waregem,Waregem,Waregem,Waregem,Waregem,Варегем,50.88898,3.42756,13.0,Europe/Brussels,PPL,no,BE,BEL,Belgium,VLG,Flanders,35896,,,,,,,,,,,,73514.4831,0.937,,,87.6127,0.7916,18.7357,,,,,5.42
2800448,Châtelet,Chatelet,Châtelet,Châtelet,Châtelet,Châtelet,Шатле,50.40338,4.52826,118.0,Europe/Brussels,PPL,no,BE,BEL,Belgium,WAL,Wallonia,35238,,,,,,,,,,,,73514.4831,0.937,,,87.6127,0.7916,18.7357,,,,,5.42
2795100,Ieper,Ieper,Ieper,Ypres,Ypres,Ypres,Ипр,50.85114,2.88569,24.0,Europe/Brussels,PPLA3,no,BE,BEL,Belgium,VLG,Flanders,35089,,,,,,,,,,,,73514.4831,0.937,,,87.6127,0.7916,18.7357,,,,,5.42
2790114,Ninove,Ninove,Ninove,Ninove,Ninove,Ninove,Нинове,50.82776,4.02657,17.0,Europe/Brussels,PPL,no,BE,BEL,Belgium,VLG,Flanders,34795,,,,,,,,,,,,73514.4831,0.937,,,87.6127,0.7916,18.7357,,,,,5.42
2797779,Geel,Geel,Geel,Geel,Geel,Geel,Геел,51.16557,4.98917,22.0,Europe/Brussels,PPL,no,BE,BEL,Belgium,VLG,Flanders,34697,,,,,,,,,,,,73514.4831,0.937,,,87.6127,0.7916,18.7357,,,,,5.42
2796696,Halle,Halle,Halle,Halle,Halle,Halle,Галле,50.73385,4.23454,34.0,Europe/Brussels,PPL,no,BE,BEL,Belgium,VLG,Flanders,34479,,,,,,,,,,,,73514.4831,0.937,,,87.6127,0.7916,18.7357,,,,,5.42
2783941,Wavre,Wavre,Wavre,Wavre,Wavre,Wavre,Вавр,50.71717,4.60138,72.0,Europe/Brussels,PPL,no,BE,BEL,Belgium,WAL,Wallonia,34305,,,,,,,,,,,,73514.4831,0.937,,,87.6127,0.7916,18.7357,,,,,5.42
2794210,Knokke-Heist,Knokke-Heist,Knokke-Heist,Knokke-Heist,Knokke-Heist,Knokke-Heist,Кнокке-Хейст,51.35,3.26667,5.0,Europe/Brussels,PPL,no,BE,BEL,Belgium,VLG,Flanders,33781,,,,,,,,,,,,73514.4831,0.937,,,87.6127,0.7916,18.7357,,,,,5.42
2792397,Lier,Lier,Lier,Lier,Lierre,Lier,Льер,51.13128,4.57041,9.0,Europe/Brussels,PPL,no,BE,BEL,Belgium,VLG,Flanders,33272,,,,,,,,,,,,73514.4831,0.937,,,87.6127,0.7916,18.7357,,,,,5.42
2791067,Mol,Mol,Mol,Mol,Mol,Mol,Мол,51.19188,5.11662,27.0,Europe/Brussels,PPL,no,BE,BEL,Belgium,VLG,Flanders,32659,,,,,,,,,,,,73514.4831,0.937,,,87.6127,0.7916,18.7357,,,,,5.42
2801922,Binche,Binche,Binche,Binche,Binche,Binche,Бенш,50.41155,4.16469,92.0,Europe/Brussels,PPL,no,BE,BEL,Belgium,WAL,Wallonia,32030,,,,,,,,,,,,73514.4831,0.937,,,87.6127,0.7916,18.7357,,,,,5.42
2792179,Lommel,Lommel,Lommel,Lommel,Lommel,Lommel,Ломмел,51.23074,5.31349,48.0,Europe/Brussels,PPL,no,BE,BEL,Belgium,VLG,Flanders,31993,,,,,,,,,,,,73514.4831,0.937,,,87.6127,0.7916,18.7357,,,,,5.42
2791343,Menen,Menen,Menen,Menen,Menin,Menen,Менен,50.79722,3.12245,18.0,Europe/Brussels,PPL,no,BE,BEL,Belgium,VLG,Flanders,31916,,,,,,,,,,,,73514.4831,0.937,,,87.6127,0.7916,18.7357,,,,,5.42
2789529,Oudenaarde,Oudenaarde,Oudenaarde,Oudenaarde,Audenarde,Oudenaarde,Оуденаарде,50.85168,3.60891,11.0,Europe/Brussels,PPLA3,no,BE,BEL,Belgium,VLG,Flanders,31866,,,,,,,,,,,,73514.4831,0.937,,,87.6127,0.7916,18.7357,,,,,5.42
2785470,Tienen,Tienen,Tienen,Tienen,Tirlemont,Tienen,Тинен,50.80745,4.9378,46.0,Europe/Brussels,PPL,no,BE,BEL,Belgium,VLG,Flanders,31743,,,,,,,,,,,,73514.4831,0.937,,,87.6127,0.7916,18.7357,,,,,5.42
2798551,Evergem,Evergem,Evergem,Evergem,Evergem,Evergem,Эвергем,51.11306,3.70976,9.0,Europe/Brussels,PPL,no,BE,BEL,Belgium,VLG,Flanders,31615,,,,,,,,,,,,73514.4831,0.937,,,87.6127,0.7916,18.7357,,,,,5.42
2797638,Geraardsbergen,Geraardsbergen,Geraardsbergen,Geraardsbergen,Geraardsbergen,Geraardsbergen,Герардсберген,50.77343,3.88223,32.0,Europe/Brussels,PPL,no,BE,BEL,Belgium,VLG,Flanders,30807,,,,,,,,,,,,73514.4831,0.937,,,87.6127,0.7916,18.7357,,,,,5.42
2786559,Sint-Pieters-Leeuw,Sint-Pieters-Leeuw,Sint-Pieters-Leeuw,Sint-Pieters-Leeuw,Leeuw-Saint-Pierre,Sint-Pieters-Leeuw,Синт-Питерс-Леув,50.77926,4.24355,45.0,Europe/Brussels,PPL,no,BE,BEL,Belgium,VLG,Flanders,30446,,,,,,,,,,,,73514.4831,0.937,,,87.6127,0.7916,18.7357,,,,,5.42
2795261,Houthalen,Houthalen,Houthalen,Houthalen,Houthalen,Houthalen,Houthalen,51.03427,5.37429,64.0,Europe/Brussels,PPL,no,BE,BEL,Belgium,VLG,Flanders,30050,,,,,,,,,,,,73514.4831,0.937,,,87.6127,0.7916,18.7357,,,,,5.42
2394819,Cotonou,Cotonou,Cotonou,Cotonú,Cotonou,Cotonou,Котону,6.36536,2.41833,7.0,Africa/Porto-Novo,PPLG,national,BJ,BEN,Benin,14,Littoral,679012,,,,,,,,,,,,4434.5642,0.504,,,52.5455,24.2317,17.3838,,51.38,,,0.43
2395914,Abomey-Calavi,Abomey-Calavi,Abomey-Calavi,Abomey-Calavi,Abomey-Calavi,Abomey-Calavi,Абомей-Калави,6.44852,2.35566,11.0,Africa/Porto-Novo,PPL,no,BJ,BEN,Benin,09,Atlantique,385755,,,,,,,,,,,,4434.5642,0.504,,,52.5455,24.2317,17.3838,,51.38,,,0.43
2392087,Porto-Novo,Porto-Novo,Porto-Novo,Porto Novo,Porto Novo,Porto-Novo,Порто-Ново,6.49646,2.60359,20.0,Africa/Porto-Novo,PPLC,national,BJ,BEN,Benin,16,Ouémé,264320,,,,,,,,,,,,4434.5642,0.504,,,52.5455,24.2317,17.3838,,51.38,,,0.43
2392204,Parakou,Parakou,Parakou,Parakou,Parakou,Parakou,Параку,9.33716,2.63031,369.0,Africa/Porto-Novo,PPLA,admin1,BJ,BEN,Benin,10,Borgou,255478,,,,,,,,,,,,4434.5642,0.504,,,52.5455,24.2317,17.3838,,51.38,,,0.43
