geonameid,name,asciiname,name_en,name_es,name_fr,name_it,name_ru,lat,lon,elevation,timezone,feature_code,is_capital,iso_a2,iso_a3,country_name,admin1_code,admin1_name,population,metro_population,pop_growth_10yr,annual_mean_temp,max_temp_warmest_month,min_temp_coldest_month,temp_annual_range,annual_precipitation,sunshine_hours_yr,mean_wind_speed,pm25,pm10,gdp_per_capita_ppp,hdi,internet_pct,life_expectancy,urban_pct,agri_pct_gdp,industry_pct_gdp,services_pct_gdp,literacy_rate,gini,co2_per_capita,hospital_beds_per_1k
3577154,Oranjestad,Oranjestad,Oranjestad,Oranjestad,Oranjestad,Oranjestad,Ораньестад,12.52398,-70.02703,22.0,America/Aruba,PPLC,national,AW,ABW,Aruba,00,,29998,,,,,,,,,,,,50649.3015,,,,61.7909,0.0342,9.7359,,,,,
1138958,Kabul,Kabul,Kabul,Kabul,Kaboul,Kabul,Кабул,34.52813,69.17233,1798.0,Asia/Kabul,PPLC,national,AF,AFG,Afghanistan,13,Kabul,4434550,,,,,,,,,,,,2201.7229,0.462,,,25.7007,34.7432,13.4498,,37.27,,,0.35
1140026,Herāt,Herat,Herat,Herāt,Hérat,Herat,Герат,34.34817,62.19967,927.0,Asia/Kabul,PPLA,admin1,AF,AFG,Afghanistan,11,Herat,574300,,,,,,,,,,,,2201.7229,0.462,,,25.7007,34.7432,13.4498,,37.27,,,0.35
1133616,Mazār-e Sharīf,Mazar-e Sharif,Mazari Sharif,Mazār-e Šarīf,Mazari Sharif,Mazari Sharif,Мазари-Шариф,36.70904,67.11087,361.0,Asia/Kabul,PPLA,admin1,AF,AFG,Afghanistan,30,Balkh,523300,,,,,,,,,,,,2201.7229,0.462,,,25.7007,34.7432,13.4498,,37.27,,,0.35
1138336,Kandahār,Kandahar,Kandahar,Kandahar,Kandahar,Kandahar,Кандагар,31.61332,65.71013,1007.0,Asia/Kabul,PPLA,admin1,AF,AFG,Afghanistan,23,Kandahar,523300,,,,,,,,,,,,2201.7229,0.462,,,25.7007,34.7432,13.4498,,37.27,,,0.35
1139715,Jalālābād,Jalalabad,Jalalabad,Jalalabad,Jalalabad,Jalalabad,Джелалабад,34.42647,70.45153,575.0,Asia/Kabul,PPLA,admin1,AF,AFG,Afghanistan,18,Nangarhar,271900,,,,,,,,,,,,2201.7229,0.462,,,25.7007,34.7432,13.4498,,37.27,,,0.35
1135689,Kunduz,Kunduz,Kunduz,Qundūz,Kondôz,Konduz,Кундуз,36.72895,68.857,402.0,Asia/Kabul,PPLA,admin1,AF,AFG,Afghanistan,24,Kunduz,161902,,,,,,,,,,,,2201.7229,0.462,,,25.7007,34.7432,13.4498,,37.27,,,0.35
1141269,Ghazni,Ghazni,Ghazni,Gazni,Ghazni,Ghazni,Газни,33.55391,68.42096,2179.0,Asia/Kabul,PPLA,admin1,AF,AFG,Afghanistan,08,Ghazni,141000,,,,,,,,,,,,2201.7229,0.462,,,25.7007,34.7432,13.4498,,37.27,,,0.35
1147290,Balkh,Balkh,Balkh,Balj,Balkh,Balkh,Балх,36.75635,66.8972,348.0,Asia/Kabul,PPLA2,no,AF,AFG,Afghanistan,30,Balkh,114883,,,,,,,,,,,,2201.7229,0.462,,,25.7007,34.7432,13.4498,,37.27,,,0.35
1147540,Baghlān,Baghlan,Baghlan,Baghlan,Baghlan,Baghlan,Баглан,36.13068,68.70829,531.0,Asia/Kabul,PPLA2,no,AF,AFG,Afghanistan,03,Baghlan,108449,,,,,,,,,,,,2201.7229,0.462,,,25.7007,34.7432,13.4498,,37.27,,,0.35
1141857,Gardez,Gardez,Gardez,Gardez,Gardêz,Gardez,Гардез,33.59744,69.22592,2308.0,Asia/Kabul,PPLA,admin1,AF,AFG,Afghanistan,36,Paktia,103601,,,,,,,,,,,,2201.7229,0.462,,,25.7007,34.7432,13.4498,,37.27,,,0.35
2240449,Luanda,Luanda,Luanda,Luanda,Luanda,Luanda,Луанда,-8.83682,13.23432,73.0,Africa/Luanda,PPLC,national,AO,AGO,Angola,20,Luanda,2776168,,,,,,,,,,,,10118.609,0.586,,,70.6551,22.0693,34.5673,,,,,0.75
3347762,Lubango,Lubango,Lubango,Lubango,Lubango,Lubango,Лубанго,-14.91717,13.4925,1760.0,Africa/Luanda,PPLA,admin1,AO,AGO,Angola,09,Huíla,600751,,,,,,,,,,,,10118.609,0.586,,,70.6551,22.0693,34.5673,,,,,0.75
3348313,Huambo,Huambo,Huambo,Huambo,Huambo,Huambo,Уамбо,-12.77611,15.73917,1716.0,Africa/Luanda,PPLA,admin1,AO,AGO,Angola,08,Huambo,595304,,,,,,,,,,,,10118.609,0.586,,,70.6551,22.0693,34.5673,,,,,0.75
3351663,Benguela,Benguela,Benguela,Benguela,Benguela,Benguela,Бенгела,-12.57674,13.40268,30.0,Africa/Luanda,PPLA,admin1,AO,AGO,Angola,01,Benguela,555124,,,,,,,,,,,,10118.609,0.586,,,70.6551,22.0693,34.5673,,,,,0.75
2243271,Cabinda,Cabinda,Cabinda,Cabinda,Cabinda,Cabinda,Кабинда,-5.56198,12.19476,1.0,Africa/Luanda,PPLA,admin1,AO,AGO,Angola,03,Cabinda,550000,,,,,,,,,,,,10118.609,0.586,,,70.6551,22.0693,34.5673,,,,,0.75
2239862,Malanje,Malanje,Malanje,Malanje,Malanje,Malanje,Маланже,-9.54015,16.34096,1134.0,Africa/Luanda,PPLA,admin1,AO,AGO,Angola,12,Malanje,455000,,,,,,,,,,,,10118.609,0.586,,,70.6551,22.0693,34.5673,,,,,0.75
145531,Saurimo,Saurimo,Saurimo,Saurimo,Saurimo,Saurimo,Сауримо,-9.66078,20.39155,1071.0,Africa/Luanda,PPLA,admin1,AO,AGO,Angola,18,Lunda Sul,393000,,,,,,,,,,,,10118.609,0.586,,,70.6551,22.0693,34.5673,,,,,0.75
3347939,Lobito,Lobito,Lobito,Lobito,Lobito,Lobito,Лобиту,-12.3644,13.53601,4.0,Africa/Luanda,PPL,no,AO,AGO,Angola,01,Benguela,357950,,,,,,,,,,,,10118.609,0.586,,,70.6551,22.0693,34.5673,,,,,0.75
3348078,Cuíto,Cuito,Cuito,Cuito,Cuito,Cuito,Куито,-12.38333,16.93333,1715.0,Africa/Luanda,PPLA,admin1,AO,AGO,Angola,02,Bíe,355423,,,,,,,,,,,,10118.609,0.586,,,70.6551,22.0693,34.5673,,,,,0.75
2236568,Uíge,Uige,Uíge,Uíge,Uíge,Uíge,Уиже,-7.60874,15.06131,825.0,Africa/Luanda,PPLA,admin1,AO,AGO,Angola,15,Uíge,322531,,,,,,,,,,,,10118.609,0.586,,,70.6551,22.0693,34.5673,,,,,0.75
3347719,Luena,Luena,Luena,Luena,Luena,Luena,Луэна,-11.78333,19.91667,1337.0,Africa/Luanda,PPLA,admin1,AO,AGO,Angola,14,Moxico,273675,,,,,,,,,,,,10118.609,0.586,,,70.6551,22.0693,34.5673,,,,,0.75
3347019,Mossamedes,Mossamedes,Mossamedes,Mossamedes,Mossamedes,Mossamedes,Намибе,-15.19611,12.15222,13.0,Africa/Luanda,PPLA,admin1,AO,AGO,Angola,13,Namibe,255000,,,,,,,,,,,,10118.609,0.586,,,70.6551,22.0693,34.5673,,,,,0.75
3347353,Menongue,Menongue,Menongue,Menongue,Menongue,Menongue,Менонге,-14.6585,17.69099,1355.0,Africa/Luanda,PPLA,admin1,AO,AGO,Angola,04,Cuando Cobango,251178,,,,,,,,,,,,10118.609,0.586,,,70.6551,22.0693,34.5673,,,,,0.75
3346015,Sumbe,Sumbe,Sumbe,Sumbe,Sumbe,Sumbe,Сумбе,-11.20605,13.84371,10.0,Africa/Luanda,PPLA,admin1,AO,AGO,Angola,06,Kwanza Sul,205832,,,,,,,,,,,,10118.609,0.586,,,70.6551,22.0693,34.5673,,,,,0.75
2236967,Soyo,Soyo,Soyo,Soyo,Soyo,Soyo,Сойо,-6.1349,12.36894,10.0,Africa/Luanda,PPL,no,AO,AGO,Angola,16,Zaire,200920,,,,,,,,,,,,10118.609,0.586,,,70.6551,22.0693,34.5673,,,,,0.75
145757,Dundo,Dundo,Dundo,Dundo,Dundo,Dundo,Дунду,-7.36643,20.81557,733.0,Africa/Luanda,PPLA,admin1,AO,AGO,Angola,17,Luanda Norte,177604,,,,,,,,,,,,10118.609,0.586,,,70.6551,22.0693,34.5673,,,,,0.75
2239076,N'dalatando,N'dalatando,N'dalatando,N'dalatando,N'dalatando,N'dalatando,N'dalatando,-9.29782,14.91162,795.0,Africa/Luanda,PPLA,admin1,AO,AGO,Angola,05,Cuanza Norte,161584,,,,,,,,,,,,10118.609,0.586,,,70.6551,22.0693,34.5673,,,,,0.75
2239520,Mbanza Kongo,Mbanza Kongo,Mbanza Kongo,Mbanza Kongo,Mbanza Kongo,Mbanza Kongo,Mbanza Kongo,-6.26667,14.23833,531.0,Africa/Luanda,PPLA,admin1,AO,AGO,Angola,16,Zaire,148000,,,,,,,,,,,,10118.609,0.586,,,70.6551,22.0693,34.5673,,,,,0.75
3351500,Caála,Caala,Caála,Caála,Caála,Caála,Каале,-12.8525,15.56056,1742.0,Africa/Luanda,PPL,no,AO,AGO,Angola,08,Huambo,130000,,,,,,,,,,,,10118.609,0.586,,,70.6551,22.0693,34.5673,,,,,0.75
3346821,Ondjiva,Ondjiva,Ondjiva,Ondjiva,Ondjiva,Ondjiva,Онджива,-17.06667,15.73333,1113.0,Africa/Luanda,PPLA,admin1,AO,AGO,Angola,07,Cunene,121537,,,,,,,,,,,,10118.609,0.586,,,70.6551,22.0693,34.5673,,,,,0.75
3348613,Gabela,Gabela,Gabela,Gabela,Gabela,Gabela,Габела,-10.85147,14.37993,1045.0,Africa/Luanda,PPL,no,AO,AGO,Angola,06,Kwanza Sul,116903,,,,,,,,,,,,10118.609,0.586,,,70.6551,22.0693,34.5673,,,,,0.75
145724,Lucapa,Lucapa,Lucapa,Lucapa,Lucapa,Lucapa,Лукапа,-8.41915,20.74466,955.0,Africa/Luanda,PPL,no,AO,AGO,Angola,17,Luanda Norte,110000,,,,,,,,,,,,10118.609,0.586,,,70.6551,22.0693,34.5673,,,,,0.75
3573374,The Valley,The Valley,The Valley,El Valle,The Valley,The Valley,Валли,18.21704,-63.05783,19.0,America/Anguilla,PPLC,national,AI,AIA,Anguilla,11205396,The Valley,2035,,,,,,,,,,,,,,,,,,,,,,,
3041732,Mariehamn,Mariehamn,Mariehamn,Mariehamn,Mariehamn,Mariehamn,Мариехамн,60.09726,19.93481,11.0,Europe/Mariehamn,PPLC,national,AX,ALA,Åland Islands,211,Mariehamns stad,10682,,,,,,,,,,,,,,,,,,,,,,,
3183875,Tirana,Tirana,Tirana,Tirana,Tirana,Tirana,Тирана,41.32744,19.81866,113.0,Europe/Tirane,PPLC,national,AL,ALB,Albania,50,Tirana,418495,,,,,,,,,,,,26701.675,0.789,,,58.5464,15.4519,22.4011,,97.68,,,2.9
3185728,Durrës,Durres,Durrës,Durrës,Durrës,Durazzo,Дуррес,41.32355,19.45469,0.0,Europe/Tirane,PPLA,admin1,AL,ALB,Albania,42,Durrës County,195920,,,,,,,,,,,,26701.675,0.789,,,58.5464,15.4519,22.4011,,97.68,,,2.9
3183719,Vlorë,Vlore,Vlorë,Vlorë,Vlora,Valona,Влёра,40.4696,19.48379,58.0,Europe/Tirane,PPLA,admin1,AL,ALB,Albania,51,Vlorë County,115261,,,,,,,,,,,,26701.675,0.789,,,58.5464,15.4519,22.4011,,97.68,,,2.9
783263,Elbasan,Elbasan,Elbasan,Elbasan,Elbasan,Elbasan,Эльбасан,41.11138,20.08224,126.0,Europe/Tirane,PPLA,admin1,AL,ALB,Albania,43,Elbasan County,100903,,,,,,,,,,,,26701.675,0.789,,,58.5464,15.4519,22.4011,,97.68,,,2.9
3041563,Andorra la Vella,Andorra la Vella,Andorra la Vella,Andorra la Vella,Andorre-la-Vieille,Andorra la Vella,Андорра-ла-Велья,42.50779,1.52109,1037.0,Europe/Andorra,PPLC,national,AD,AND,Andorra,07,Andorra la Vella,20430,,,,,,,,,,,,74939.4746,0.884,,,88.885,0.4659,12.753,,,,,
292223,Dubai,Dubai,Dubai,Dubái,Dubaï,Dubai,Дубай,25.07725,55.30927,24.0,Asia/Dubai,PPLA,admin1,AE,ARE,United Arab Emirates,03,Dubai,3790000,,,,,,,,,,,,79228.7388,0.911,,,85.8171,0.7694,44.3293,,98.81,,,1.87
292968,Abu Dhabi,Abu Dhabi,Abu Dhabi,Abu Dabi,Abou Dabi,Abu Dhabi,Абу-Даби,24.45118,54.39696,6.0,Asia/Dubai,PPLC,national,AE,ARE,United Arab Emirates,01,Abu Dhabi,1807000,,,,,,,,,,,,79228.7388,0.911,,,85.8171,0.7694,44.3293,,98.81,,,1.87
292672,Sharjah,Sharjah,Sharjah city,Sarja,Charjah,Sharja,Шарджа,25.3342,55.41221,15.0,Asia/Dubai,PPLA,admin1,AE,ARE,United Arab Emirates,06,Sharjah,1800000,,,,,,,,,,,,79228.7388,0.911,,,85.8171,0.7694,44.3293,,98.81,,,1.87
292913,Al Ain City,Al Ain City,Al Ain,Al Ain,Al-Aïn,Al-Ayn,Эль-Айн,24.19167,55.76056,275.0,Asia/Dubai,PPL,no,AE,ARE,United Arab Emirates,01,Abu Dhabi,846747,,,,,,,,,,,,79228.7388,0.911,,,85.8171,0.7694,44.3293,,98.81,,,1.87
291074,Ras Al Khaimah,Ras Al Khaimah,Ras al-Khaimah,Ras al-Khaimah,Ras el Khaïmah,Ras al-Khaimah,Рас-эль-Хайма,25.78953,55.9432,2.0,Asia/Dubai,PPLA,admin1,AE,ARE,United Arab Emirates,05,Ras Al Khaimah,351943,,,,,,,,,,,,79228.7388,0.911,,,85.8171,0.7694,44.3293,,98.81,,,1.87
11524601,Jebel Ali,Jebel Ali,Jebel Ali,Jebel Ali,Jebel Ali,Jebel Ali,Jebel Ali,25.00255,55.10811,5.0,Asia/Dubai,PPL,no,AE,ARE,United Arab Emirates,03,Dubai,210000,,,,,,,,,,,,79228.7388,0.911,,,85.8171,0.7694,44.3293,,98.81,,,1.87
292878,Fujairah,Fujairah,Fujairah,Fujairah,Fujairah,Fujairah,Фуджейра,25.11641,56.34141,15.0,Asia/Dubai,PPLA,admin1,AE,ARE,United Arab Emirates,04,Fujairah,118933,,,,,,,,,,,,79228.7388,0.911,,,85.8171,0.7694,44.3293,,98.81,,,1.87
3435910,Buenos Aires,Buenos Aires,Buenos Aires,Buenos Aires,Buenos Aires,Buenos Aires,Буэнос-Айрес,-34.61315,-58.37723,31.0,America/Argentina/Buenos_Aires,PPLC,national,AR,ARG,Argentina,07,Buenos Aires F.D.,2891082,,,,,,,,,,,,30431.1931,0.849,,,92.2742,5.806,23.9966,,99.14,,,3.36
3860259,Córdoba,Cordoba,Córdoba,Córdoba,Córdoba,Córdoba,Кордова,-31.40648,-64.18853,378.0,America/Argentina/Cordoba,PPLA,admin1,AR,ARG,Argentina,05,Cordoba,2106734,,,,,,,,,,,,30431.1931,0.849,,,92.2742,5.806,23.9966,,99.14,,,3.36
3838583,Rosario,Rosario,Rosario,Rosario,Rosario,Rosario,Росарио,-32.94682,-60.63932,38.0,America/Argentina/Cordoba,PPLA2,no,AR,ARG,Argentina,21,Santa Fe,948312,,,,,,,,,,,,30431.1931,0.849,,,92.2742,5.806,23.9966,,99.14,,,3.36
3430863,Mar del Plata,Mar del Plata,Mar del Plata,Mar del Plata,Mar del Plata,Mar del Plata,Мар-дель-Плата,-38.00042,-57.5562,14.0,America/Argentina/Buenos_Aires,PPLA2,no,AR,ARG,Argentina,01,Buenos Aires,593337,,,,,,,,,,,,30431.1931,0.849,,,92.2742,5.806,23.9966,,99.14,,,3.36
3836873,San Miguel de Tucumán,San Miguel de Tucuman,San Miguel de Tucumán,San Miguel de Tucumán,San Miguel de Tucumán,San Miguel de Tucumán,Сан-Мигель-де-Тукуман,-26.81601,-65.21051,440.0,America/Argentina/Tucuman,PPLA,admin1,AR,ARG,Argentina,24,Tucuman,548866,,,,,,,,,,,,30431.1931,0.849,,,92.2742,5.806,23.9966,,99.14,,,3.36
3838233,Salta,Salta,Salta,Ciudad de Salta,Salta,Salta,Сальта,-24.80645,-65.41999,1054.0,America/Argentina/Salta,PPLA,admin1,AR,ARG,Argentina,17,Salta,520683,,,,,,,,,,,,30431.1931,0.849,,,92.2742,5.806,23.9966,,99.14,,,3.36
3836277,Santa Fe,Santa Fe,Santa Fe,Ciudad de Santa Fe,Santa Fe,Santa Fe,Санта-Фе,-31.64881,-60.70868,21.0,America/Argentina/Cordoba,PPLA,admin1,AR,ARG,Argentina,21,Santa Fe,391164,,,,,,,,,,,,30431.1931,0.849,,,92.2742,5.806,23.9966,,99.14,,,3.36
3435217,Corrientes,Corrientes,Corrientes,Ciudad de Corrientes,Corrientes,Corrientes,Корриентес,-27.46784,-58.8344,63.0,America/Argentina/Cordoba,PPLA,admin1,AR,ARG,Argentina,06,Corrientes,346334,,,,,,,,,,,,30431.1931,0.849,,,92.2742,5.806,23.9966,,99.14,,,3.36
3429886,Posadas,Posadas,Posadas,Posadas,Posadas,Posadas,Посадас,-27.39184,-55.92379,108.0,America/Argentina/Cordoba,PPLA,admin1,AR,ARG,Argentina,14,Misiones,305874,,,,,,,,,,,,30431.1931,0.849,,,92.2742,5.806,23.9966,,99.14,,,3.36
3865086,Bahía Blanca,Bahia Blanca,Bahía Blanca,Bahía Blanca,Bahía Blanca,Bahía Blanca,Байя-Бланка,-38.7176,-62.26545,20.0,America/Argentina/Buenos_Aires,PPLA2,no,AR,ARG,Argentina,01,Buenos Aires,299101,,,,,,,,,,,,30431.1931,0.849,,,92.2742,5.806,23.9966,,99.14,,,3.36
3429577,Resistencia,Resistencia,Resistencia,Ciudad de Resistencia,Resistencia,Resistencia,Ресистенсия,-27.46363,-58.98665,45.0,America/Argentina/Cordoba,PPLA,admin1,AR,ARG,Argentina,03,Chaco,290793,,,,,,,,,,,,30431.1931,0.849,,,92.2742,5.806,23.9966,,99.14,,,3.36
3430697,Merlo,Merlo,Merlo,Merlo,Merlo,Merlo,Мерло,-34.66536,-58.72744,13.0,America/Argentina/Buenos_Aires,PPLA2,no,AR,ARG,Argentina,01,Buenos Aires,268961,,,,,,,,,,,,30431.1931,0.849,,,92.2742,5.806,23.9966,,99.14,,,3.36
3429652,Quilmes,Quilmes,Quilmes,Quilmes,Quilmes,Quilmes,Кильмес,-34.72065,-58.25454,24.0,America/Argentina/Buenos_Aires,PPLA2,no,AR,ARG,Argentina,01,Buenos Aires,262379,,,,,,,,,,,,30431.1931,0.849,,,92.2742,5.806,23.9966,,99.14,,,3.36
3836564,San Salvador de Jujuy,San Salvador de Jujuy,San Salvador de Jujuy,San Salvador de Jujuy,San Salvador de Jujuy,San Salvador de Jujuy,Сан Сальвадор де Жужуй,-24.1928,-65.29342,1217.0,America/Argentina/Jujuy,PPLA,admin1,AR,ARG,Argentina,10,Jujuy,257970,,,,,,,,,,,,30431.1931,0.849,,,92.2742,5.806,23.9966,,99.14,,,3.36
3835869,Santiago del Estero,Santiago del Estero,Santiago del Estero,Ciudad de Santiago del Estero,Santiago del Estero,Santiago del Estero,Сантьяго-дель-Эстеро,-27.80047,-64.26285,176.0,America/Argentina/Cordoba,PPLA,admin1,AR,ARG,Argentina,22,Santiago del Estero,252192,,,,,,,,,,,,30431.1931,0.849,,,92.2742,5.806,23.9966,,99.14,,,3.36
3841956,Paraná,Parana,Paraná,Paraná,Paraná,Paraná,Парана,-31.73271,-60.52897,78.0,America/Argentina/Cordoba,PPLA,admin1,AR,ARG,Argentina,08,Entre Rios,247139,,,,,,,,,,,,30431.1931,0.849,,,92.2742,5.806,23.9966,,99.14,,,3.36
3843123,Neuquén,Neuquen,Neuquén,Ciudad de Neuquén,Neuquén,Neuquén,Неукен,-38.95078,-68.0592,281.0,America/Argentina/Salta,PPLA,admin1,AR,ARG,Argentina,15,Neuquen,231198,,,,,,,,,,,,30431.1931,0.849,,,92.2742,5.806,23.9966,,99.14,,,3.36
12076997,José C. Paz,Jose C. Paz,José C. Paz,José C. Paz,José C. Paz,José C. Paz,José C. Paz,-34.51541,-58.76813,32.0,America/Argentina/Buenos_Aires,PPLA2,no,AR,ARG,Argentina,01,Buenos Aires,230208,,,,,,,,,,,,30431.1931,0.849,,,92.2742,5.806,23.9966,,99.14,,,3.36
3433899,Formosa,Formosa,Formosa,Ciudad de Formosa,Formosa,Formosa,Формоза,-26.18489,-58.17313,67.0,America/Argentina/Cordoba,PPLA,admin1,AR,ARG,Argentina,09,Formosa,222226,,,,,,,,,,,,30431.1931,0.849,,,92.2742,5.806,23.9966,,99.14,,,3.36
3432043,La Plata,La Plata,La Plata,La Plata,La Plata,La Plata,Ла-Плата,-34.92126,-57.95442,27.0,America/Argentina/Buenos_Aires,PPLA,admin1,AR,ARG,Argentina,01,Buenos Aires,195443,,,,,,,,,,,,30431.1931,0.849,,,92.2742,5.806,23.9966,,99.14,,,3.36
3848950,La Rioja,La Rioja,La Rioja,Ciudad de La Rioja,La Rioja,La Rioja,Ла-Риоха,-29.41328,-66.85637,493.0,America/Argentina/La_Rioja,PPLA,admin1,AR,ARG,Argentina,12,La Rioja,178872,,,,,,,,,,,,30431.1931,0.849,,,92.2742,5.806,23.9966,,99.14,,,3.36
3837056,San Luis,San Luis,San Luis,San Luis,San Luis,San Luis,Сан-Луис,-33.2914,-66.32467,729.0,America/Argentina/San_Luis,PPLA,admin1,AR,ARG,Argentina,19,San Luis,169947,,,,,,,,,,,,30431.1931,0.849,,,92.2742,5.806,23.9966,,99.14,,,3.36
3433360,Ituzaingó,Ituzaingo,Ituzaingó,Ituzaingó,Ituzaingó,Ituzaingó,Ituzaingó,-27.58504,-56.68707,63.0,America/Argentina/Cordoba,PPLA2,no,AR,ARG,Argentina,06,Corrientes,168419,,,,,,,,,,,,30431.1931,0.849,,,92.2742,5.806,23.9966,,99.14,,,3.36
3837702,Catamarca,Catamarca,Catamarca,San Fernando del Valle de Catamarca,San Fernando del Valle de Catamarca,Catamarca,Сан-Фернандо-дель-Валье-де-Катамарка,-28.46957,-65.78524,545.0,America/Argentina/Catamarca,PPLA,admin1,AR,ARG,Argentina,02,Catamarca,159139,,,,,,,,,,,,30431.1931,0.849,,,92.2742,5.806,23.9966,,99.14,,,3.36
3838874,Río Cuarto,Rio Cuarto,Río Cuarto,Ciudad de Río Cuarto,Río Cuarto,Río Cuarto,Рио-Куарто,-33.13044,-64.35272,429.0,America/Argentina/Cordoba,PPLA2,no,AR,ARG,Argentina,05,Cordoba,157010,,,,,,,,,,,,30431.1931,0.849,,,92.2742,5.806,23.9966,,99.14,,,3.36
3435261,Concordia,Concordia,Concordia,Concordia,Concordia,Concordia,Конкордия,-31.39195,-58.01706,36.0,America/Argentina/Cordoba,PPLA2,no,AR,ARG,Argentina,08,Entre Rios,145210,,,,,,,,,,,,30431.1931,0.849,,,92.2742,5.806,23.9966,,99.14,,,3.36
3860443,Comodoro Rivadavia,Comodoro Rivadavia,Comodoro Rivadavia,Comodoro Rivadavia,Comodoro Rivadavia,Comodoro Rivadavia,Комодоро-Ривадавия,-45.86256,-67.494,65.0,America/Argentina/Catamarca,PPLA2,no,AR,ARG,Argentina,04,Chubut,140850,,,,,,,,,,,,30431.1931,0.849,,,92.2742,5.806,23.9966,,99.14,,,3.36
3836846,San Nicolás de los Arroyos,San Nicolas de los Arroyos,San Nicolás de los Arroyos,San Nicolás de los Arroyos,San Nicolás de los Arroyos,San Nicolás de los Arroyos,San Nicolás de los Arroyos,-33.33425,-60.2108,28.0,America/Argentina/Buenos_Aires,PPLA2,no,AR,ARG,Argentina,01,Buenos Aires,134217,,,,,,,,,,,,30431.1931,0.849,,,92.2742,5.806,23.9966,,99.14,,,3.36
3836669,San Rafael,San Rafael,San Rafael,San Rafael,San Rafael,San Rafael,Сан-Рафаэль,-34.61531,-68.33238,690.0,America/Argentina/Mendoza,PPLA2,no,AR,ARG,Argentina,13,Mendoza,118009,,,,,,,,,,,,30431.1931,0.849,,,92.2742,5.806,23.9966,,99.14,,,3.36
3427833,Tandil,Tandil,Tandil,Tandil,Tandil,Tandil,Тандиль,-37.3287,-59.1369,207.0,America/Argentina/Buenos_Aires,PPLA2,no,AR,ARG,Argentina,01,Buenos Aires,115877,,,,,,,,,,,,30431.1931,0.849,,,92.2742,5.806,23.9966,,99.14,,,3.36
3433975,Ezeiza,Ezeiza,Ezeiza,José María Ezeiza,Ezeiza,Ezeiza,Ezeiza,-34.8544,-58.52474,16.0,America/Argentina/Buenos_Aires,PPLA2,no,AR,ARG,Argentina,01,Buenos Aires,115021,,,,,,,,,,,,30431.1931,0.849,,,92.2742,5.806,23.9966,,99.14,,,3.36
3844421,Mendoza,Mendoza,Mendoza,Mendoza,Mendoza,Mendoza,Мендоса,-32.88946,-68.84582,853.0,America/Argentina/Mendoza,PPLA,admin1,AR,ARG,Argentina,13,Mendoza,114893,,,,,,,,,,,,30431.1931,0.849,,,92.2742,5.806,23.9966,,99.14,,,3.36
3837213,San Juan,San Juan,San Juan,Ciudad de San Juan,San Juan,San Juan,Сан-Хуан,-31.53726,-68.52568,646.0,America/Argentina/San_Juan,PPLA,admin1,AR,ARG,Argentina,18,San Juan,109123,,,,,,,,,,,,30431.1931,0.849,,,92.2742,5.806,23.9966,,99.14,,,3.36
3428775,San Justo,San Justo,San Justo,San Justo,San Justo,San Justo,San Justo,-34.68107,-58.56379,29.0,America/Argentina/Buenos_Aires,PPLA2,no,AR,ARG,Argentina,01,Buenos Aires,105274,,,,,,,,,,,,30431.1931,0.849,,,92.2742,5.806,23.9966,,99.14,,,3.36
3835994,Santa Rosa,Santa Rosa,Santa Rosa,Ciudad de Santa Rosa,Santa Rosa,Santa Rosa,Санта-Роса,-36.61617,-64.28991,163.0,America/Argentina/Salta,PPLA,admin1,AR,ARG,Argentina,11,La Pampa,102860,,,,,,,,,,,,30431.1931,0.849,,,92.2742,5.806,23.9966,,99.14,,,3.36
616052,Yerevan,Yerevan,Yerevan,Ereván,Erevan,Jerevan,Ереван,40.17765,44.5126,1002.0,Asia/Yerevan,PPLC,national,AM,ARM,Armenia,11,Yerevan,1144700,,,,,,,,,,,,22823.1795,0.786,,,65.8114,7.8059,22.8571,,99.84,,,4.24
616635,Gyumri,Gyumri,Gyumri,Gyumri,Gyumri,Gyumri,Гюмри,40.79305,43.84635,1553.0,Asia/Yerevan,PPLA,admin1,AM,ARM,Armenia,07,Shirak,114667,,,,,,,,,,,,22823.1795,0.786,,,65.8114,7.8059,22.8571,,99.84,,,4.24
5881576,Pago Pago,Pago Pago,Pago Pago,Pago Pago,Pago Pago,Pago Pago,Пагопаго,-14.27806,-170.7025,144.0,Pacific/Pago_Pago,PPLC,national,AS,ASM,American Samoa,010,Eastern District,11500,,,,,,,,,,,,,,,,80.9447,,,,,,,
1546102,Port-aux-Français,Port-aux-Francais,Port-aux-Français,Port-aux-Français,Port-aux-Français,Port-aux-Français,Порт-о-Франсэ,-49.34916,70.21937,11.0,Indian/Kerguelen,PPLC,national,TF,ATF,French Southern and Antarctic Lands,03,Kerguelen,45,,,,,,,,,,,,,,,,,,,,,,,
3576022,Saint John’s,Saint John's,St John's,Saint John's,Saint John's,Saint John's,Сент-Джонс,17.12096,-61.84329,12.0,America/Antigua,PPLC,national,AG,ATG,Antigua and Barbuda,04,Saint John Parish,51737,,,,,,,,,,,,33386.1917,,,,24.3907,1.9433,18.9871,,,,,3.42
2147714,Sydney,Sydney,Sydney,Sídney,Sydney,Sydney,Сидней,-33.86785,151.20732,58.0,Australia/Sydney,PPLA,admin1,AU,AUS,Australia,02,New South Wales,5557233,,,,,,,,,,,,72111.1845,0.946,,,87.6021,2.0357,25.5307,,,,,
2158177,Melbourne,Melbourne,Melbourne,Melbourne,Melbourne,Melbourne,Мельбурн,-37.814,144.96332,25.0,Australia/Melbourne,PPLA,admin1,AU,AUS,Australia,07,Victoria,5350705,,,,,,,,,,,,72111.1845,0.946,,,87.6021,2.0357,25.5307,,,,,
2174003,Brisbane,Brisbane,Brisbane,Brisbane,Brisbane,Brisbane,Брисбен,-27.46794,153.02809,27.0,Australia/Brisbane,PPLA,admin1,AU,AUS,Australia,04,Queensland,2780063,,,,,,,,,,,,72111.1845,0.946,,,87.6021,2.0357,25.5307,,,,,
2063523,Perth,Perth,Perth,Perth,Perth,Perth,Перт,-31.95224,115.8614,34.0,Australia/Perth,PPLA,admin1,AU,AUS,Australia,08,Western Australia,2309338,,,,,,,,,,,,72111.1845,0.946,,,87.6021,2.0357,25.5307,,,,,
2078025,Adelaide,Adelaide,Adelaide,Adelaida,Adélaïde,Adelaide,Аделаида,-34.92866,138.59863,59.0,Australia/Adelaide,PPLA,admin1,AU,AUS,Australia,05,South Australia,1469163,,,,,,,,,,,,72111.1845,0.946,,,87.6021,2.0357,25.5307,,,,,
2165087,Gold Coast,Gold Coast,Gold Coast,Costa Dorada,Gold Coast,Gold Coast,Голд Коуст,-28.00029,153.43088,12.0,Australia/Brisbane,PPL,no,AU,AUS,Australia,04,Queensland,640778,,,,,,,,,,,,72111.1845,0.946,,,87.6021,2.0357,25.5307,,,,,
2155472,Newcastle,Newcastle,Newcastle,Newcastle,Newcastle,Newcastle,Ньюкасл,-32.92953,151.7801,48.0,Australia/Sydney,PPLA2,no,AU,AUS,Australia,02,New South Wales,508437,,,,,,,,,,,,72111.1845,0.946,,,87.6021,2.0357,25.5307,,,,,
2172517,Canberra,Canberra,Canberra,Canberra,Canberra,Canberra,Канберра,-35.28346,149.12807,571.0,Australia/Sydney,PPLC,national,AU,AUS,Australia,01,Australian Capital Territory,367752,,,,,,,,,,,,72111.1845,0.946,,,87.6021,2.0357,25.5307,,,,,
8310663,Central Coast,Central Coast,Central Coast,Central Coast,Central Coast,Central Coast,Central Coast,-33.42979,151.37144,15.0,Australia/Sydney,PPL,no,AU,AUS,Australia,02,New South Wales,346596,,,,,,,,,,,,72111.1845,0.946,,,87.6021,2.0357,25.5307,,,,,
10630449,Sunshine Coast,Sunshine Coast,Sunshine Coast,Sunshine Coast,Sunshine Coast,Sunshine Coast,Sunshine Coast,-26.65682,153.07955,9.0,Australia/Brisbane,PPLA2,no,AU,AUS,Australia,04,Queensland,346522,,,,,,,,,,,,72111.1845,0.946,,,87.6021,2.0357,25.5307,,,,,
7281838,Logan City,Logan City,Logan City,Logan,Logan City,Città di Logan,Logan City,-27.63917,153.10944,39.0,Australia/Brisbane,PPL,no,AU,AUS,Australia,04,Queensland,345098,,,,,,,,,,,,72111.1845,0.946,,,87.6021,2.0357,25.5307,,,,,
2165798,Geelong,Geelong,Geelong,Geelong,Geelong,Geelong,Джилонг,-38.14711,144.36069,23.0,Australia/Melbourne,PPL,no,AU,AUS,Australia,07,Victoria,282809,,,,,,,,,,,,72111.1845,0.946,,,87.6021,2.0357,25.5307,,,,,
2171507,Wollongong,Wollongong,Wollongong,Wollongong,Wollongong,Wollongong,Вуллонгонг,-34.424,150.89345,29.0,Australia/Sydney,PPLA2,no,AU,AUS,Australia,02,New South Wales,280153,,,,,,,,,,,,72111.1845,0.946,,,87.6021,2.0357,25.5307,,,,,
2163355,Hobart,Hobart,Hobart,Hobart,Hobart,Hobart,Хобарт,-42.87936,147.32941,19.0,Australia/Hobart,PPLA,admin1,AU,AUS,Australia,06,Tasmania,252639,,,,,,,,,,,,72111.1845,0.946,,,87.6021,2.0357,25.5307,,,,,
2146142,Townsville,Townsville,Townsville,Townsville,Townsville,Townsville,Таунсвилл,-19.26639,146.80569,15.0,Australia/Brisbane,PPL,no,AU,AUS,Australia,04,Queensland,201313,,,,,,,,,,,,72111.1845,0.946,,,87.6021,2.0357,25.5307,,,,,
2172797,Cairns,Cairns,Cairns,Cairns,Cairns,Cairns,Кернс,-16.92366,145.76613,7.0,Australia/Brisbane,PPL,no,AU,AUS,Australia,04,Queensland,153075,,,,,,,,,,,,72111.1845,0.946,,,87.6021,2.0357,25.5307,,,,,
2146268,Toowoomba,Toowoomba,Toowoomba,Toowoomba,Toowoomba,Toowoomba,Тувумба,-27.56056,151.95386,599.0,Australia/Brisbane,PPL,no,AU,AUS,Australia,04,Queensland,142163,,,,,,,,,,,,72111.1845,0.946,,,87.6021,2.0357,25.5307,,,,,
2073124,Darwin,Darwin,Darwin,Darwin,Darwin,Darwin,Дарвин,-12.46113,130.84185,31.0,Australia/Darwin,PPLA,admin1,AU,AUS,Australia,03,Northern Territory,139902,,,,,,,,,,,,72111.1845,0.946,,,87.6021,2.0357,25.5307,,,,,
2159220,Mackay,Mackay,Mackay,Mackay,Mackay,Mackay,Макей,-21.15345,149.16554,11.0,Australia/Brisbane,PPLA2,no,AU,AUS,Australia,04,Queensland,121691,,,,,,,,,,,,72111.1845,0.946,,,87.6021,2.0357,25.5307,,,,,
2177091,Ballarat,Ballarat,Ballarat,Ballarat,Ballarat,Ballarat,Балларат,-37.56622,143.84957,445.0,Australia/Melbourne,PPL,no,AU,AUS,Australia,07,Victoria,111973,,,,,,,,,,,,72111.1845,0.946,,,87.6021,2.0357,25.5307,,,,,
2176187,Bendigo,Bendigo,Bendigo,Bendigo,Bendigo,Bendigo,Бендиго,-36.75818,144.28024,221.0,Australia/Melbourne,PPLA2,no,AU,AUS,Australia,07,Victoria,103034,,,,,,,,,,,,72111.1845,0.946,,,87.6021,2.0357,25.5307,,,,,
2761369,Vienna,Vienna,Vienna,Viena,Vienne,Vienna,Вена,48.20849,16.37208,193.0,Europe/Vienna,PPLC,national,AT,AUT,Austria,09,Vienna,1691468,,,,,,,,,,,,73911.4397,0.926,,,69.4658,1.2166,24.5834,,,,,6.7
2778067,Graz,Graz,Graz,Graz,Graz,Graz,Грац,47.06733,15.44197,362.0,Europe/Vienna,PPLA,admin1,AT,AUT,Austria,06,Styria,303270,,,,,,,,,,,,73911.4397,0.926,,,69.4658,1.2166,24.5834,,,,,6.7
2772400,Linz,Linz,Linz,Linz,Linz,Linz,Линц,48.30639,14.28611,268.0,Europe/Vienna,PPLA,admin1,AT,AUT,Austria,04,Upper Austria,204846,,,,,,,,,,,,73911.4397,0.926,,,69.4658,1.2166,24.5834,,,,,6.7
2766824,Salzburg,Salzburg,Salzburg,Salzburgo,Salzbourg,Salisburgo,Зальцбург,47.79941,13.04399,435.0,Europe/Vienna,PPLA,admin1,AT,AUT,Austria,05,Salzburg,157245,,,,,,,,,,,,73911.4397,0.926,,,69.4658,1.2166,24.5834,,,,,6.7
2775220,Innsbruck,Innsbruck,Innsbruck,Innsbruck,Innsbruck,Innsbruck,Инсбрук,47.26266,11.39454,587.0,Europe/Vienna,PPLA,admin1,AT,AUT,Austria,07,Tyrol,132493,,,,,,,,,,,,73911.4397,0.926,,,69.4658,1.2166,24.5834,,,,,6.7
2774326,Klagenfurt am Wörthersee,Klagenfurt am Woerthersee,Klagenfurt,Klagenfurt,Klagenfurt,Klagenfurt,Клагенфурт,46.62472,14.30528,450.0,Europe/Vienna,PPLA,admin1,AT,AUT,Austria,02,Carinthia,100316,,,,,,,,,,,,73911.4397,0.926,,,69.4658,1.2166,24.5834,,,,,6.7
587084,Baku,Baku,Baku,Bakú,Bakou,Baku,Баку,40.37767,49.89201,-23.0,Asia/Baku,PPLC,national,AZ,AZE,Azerbaijan,09,Baki,1116513,,,,,,,,,,,,25088.9994,0.745,,,58.5738,5.6572,42.612,,99.78,,,3.68
584923,Sumqayıt,Sumqayit,Sumqayit,Sumqayit,Sumqayit,Sumqayit,Сумгаит,40.58972,49.66861,-11.0,Asia/Baku,PPLA,admin1,AZ,AZE,Azerbaijan,54,Sumqayit,358675,,,,,,,,,,,,25088.9994,0.745,,,58.5738,5.6572,42.612,,99.78,,,3.68
586523,Ganja,Ganja,Ganja,Gandja,Gandja,Gäncä,Гянджа,40.68157,46.36134,409.0,Asia/Baku,PPLA,admin1,AZ,AZE,Azerbaijan,20,Gǝncǝ,335600,,,,,,,,,,,,25088.9994,0.745,,,58.5738,5.6572,42.612,,99.78,,,3.68
147622,Lankaran,Lankaran,Lankaran,Lankaran,Lankaran,Lankaran,Ленкорань,38.75428,48.85062,-22.0,Asia/Baku,PPLA,admin1,AZ,AZE,Azerbaijan,29,Lənkəran,240300,,,,,,,,,,,,25088.9994,0.745,,,58.5738,5.6572,42.612,,99.78,,,3.68
584821,Tovuz,Tovuz,Tovuz,Tovuz,Tovuz,Tovuz,Тауз,40.99249,45.62838,421.0,Asia/Baku,PPLA,admin1,AZ,AZE,Azerbaijan,58,Tovuz District,177200,,,,,,,,,,,,25088.9994,0.745,,,58.5738,5.6572,42.612,,99.78,,,3.68
584649,Yevlakh,Yevlakh,Yevlakh,Yevlakh,Yevlakh,Yevlakh,Евлах,40.61832,47.15014,17.0,Asia/Baku,PPLA,admin1,AZ,AZE,Azerbaijan,68,Yevlax City,127400,,,,,,,,,,,,25088.9994,0.745,,,58.5738,5.6572,42.612,,99.78,,,3.68
585514,Mingachevir,Mingachevir,Mingachevir,Mingacevir,Mingachevir,Mingachevir,Мингечаур,40.76422,47.06227,26.0,Asia/Baku,PPLA,admin1,AZ,AZE,Azerbaijan,33,Mingǝcevir,106048,,,,,,,,,,,,25088.9994,0.745,,,58.5738,5.6572,42.612,,99.78,,,3.68
425378,Bujumbura,Bujumbura,Bujumbura,Buyumbura,Bujumbura,Bujumbura,Бужумбура,-3.38193,29.36142,807.0,Africa/Bujumbura,PPLA,admin1,BI,BDI,Burundi,24,Bujumbura Mairie,769317,,,,,,,,,,,,1194.9468,0.426,,,24.8303,34.909,17.6555,,71.4078,,,
426272,Gitega,Gitega,Gitega,Gitega,Gitega,Gitega,Гитеге,-3.42708,29.92463,1684.0,Africa/Bujumbura,PPLC,national,BI,BDI,Burundi,13,Gitega,64904,,,,,,,,,,,,1194.9468,0.426,,,24.8303,34.909,17.6555,,71.4078,,,
2800866,Brussels,Brussels,Brussels,Bruselas,Bruxelles,Bruxelles,Брюссель,50.85045,4.34878,28.0,Europe/Brussels,PPLC,national,BE,BEL,Belgium,BRU,Brussels Capital,1019022,,,,,,,,,,,,73514.4831,0.937,,,87.6127,0.7916,18.7357,,,,,5.42
2803138,Antwerpen,Antwerpen,Antwerp,Amberes,Anvers,Anversa,Антверпен,51.22047,4.40026,13.0,Europe/Brussels,PPL,no,BE,BEL,Belgium,VLG,Flanders,529247,,,,,,,,,,,,73514.4831,0.937,,,87.6127,0.7916,18.7357,,,,,5.42
2797656,Gent,Gent,Ghent,Gante,Gand,Gand,Гент,51.05,3.71667,10.0,Europe/Brussels,PPL,no,BE,BEL,Belgium,VLG,Flanders,265086,,,,,,,,,,,,73514.4831,0.937,,,87.6127,0.7916,18.7357,,,,,5.42
2800481,Charleroi,Charleroi,Charleroi,Charleroi,Charleroi,Charleroi,Шарлеруа,50.41136,4.44448,136.0,Europe/Brussels,PPL,no,BE,BEL,Belgium,WAL,Wallonia,200132,,,,,,,,,,,,73514.4831,0.937,,,87.6127,0.7916,18.7357,,,,,5.42
2792413,Liège,Liege,Liège,Lieja,Liège,Liegi,Льеж,50.63373,5.56749,66.0,Europe/Brussels,PPL,no,BE,BEL,Belgium,WAL,Wallonia,195278,,,,,,,,,,,,73514.4831,0.937,,,87.6127,0.7916,18.7357,,,,,5.42
2800931,Brugge,Brugge,Bruges,Brujas,Bruges,Bruges,Брюгге,51.20892,3.22424,13.0,Europe/Brussels,PPL,no,BE,BEL,Belgium,VLG,Flanders,118509,,,,,,,,,,,,73514.4831,0.937,,,87.6127,0.7916,18.7357,,,,,5.42
2790471,Namur,Namur,Namur,Namur,Namur,Namur,Намюр,50.4669,4.86746,88.0,Europe/Brussels,PPLA,admin1,BE,BEL,Belgium,WAL,Wallonia,110939,,,,,,,,,,,,73514.4831,0.937,,,87.6127,0.7916,18.7357,,,,,5.42
2792482,Leuven,Leuven,Leuven,Lovaina,Louvain,Lovanio,Лёвен,50.87959,4.70093,28.0,Europe/Brussels,PPL,no,BE,BEL,Belgium,VLG,Flanders,101032,,,,,,,,,,,,73514.4831,0.937,,,87.6127,0.7916,18.7357,,,,,5.42
2394819,Cotonou,Cotonou,Cotonou,Cotonú,Cotonou,Cotonou,Котону,6.36536,2.41833,7.0,Africa/Porto-Novo,PPLG,national,BJ,BEN,Benin,14,Littoral,679012,,,,,,,,,,,,4434.5642,0.504,,,52.5455,24.2317,17.3838,,51.38,,,0.43
2392087,Porto-Novo,Porto-Novo,Porto-Novo,Porto Novo,Porto Novo,Porto-Novo,Порто-Ново,6.49646,2.60359,20.0,Africa/Porto-Novo,PPLC,national,BJ,BEN,Benin,16,Ouémé,264320,,,,,,,,,,,,4434.5642,0.504,,,52.5455,24.2317,17.3838,,51.38,,,0.43
2392204,Parakou,Parakou,Parakou,Parakou,Parakou,Parakou,Параку,9.33716,2.63031,369.0,Africa/Porto-Novo,PPLA,admin1,BJ,BEN,Benin,10,Borgou,255478,,,,,,,,,,,,4434.5642,0.504,,,52.5455,24.2317,17.3838,,51.38,,,0.43
2395915,Abomey,Abomey,Abomey,Abomey,Abomey,Abomey,Абомей,7.18286,1.99119,228.0,Africa/Porto-Novo,PPLA,admin1,BJ,BEN,Benin,18,Zou,117824,,,,,,,,,,,,4434.5642,0.504,,,52.5455,24.2317,17.3838,,51.38,,,0.43
3513563,Kralendijk,Kralendijk,Kralendijk,Kralendijk,Kralendijk,Kralendijk,Кралендейк,12.15,-68.26667,4.0,America/Kralendijk,PPLC,national,BQ,BES,Caribbean Netherlands,BO,Bonaire,10620,,,,,,,,,,,,,,,,,,,,,,,
2357048,Ouagadougou,Ouagadougou,Ouagadougou,Uagadugú,Ouagadougou,Ouagadougou,Уагадугу,12.36566,-1.53388,299.0,Africa/Ouagadougou,PPLC,national,BF,BFA,Burkina Faso,03,Centre,2415266,,,,,,,,,,,,2895.8915,0.449,,,28.3353,20.9326,26.5145,,41.442,,,0.2
2362344,Bobo-Dioulasso,Bobo-Dioulasso,Bobo-Dioulasso,Bobo-Dioulasso,Bobo-Dioulasso,Bobo-Dioulasso,Бобо-Диуласо,11.18064,-4.29489,453.0,Africa/Ouagadougou,PPLA,admin1,BF,BFA,Burkina Faso,09,Hauts-Bassins,904920,,,,,,,,,,,,2895.8915,0.449,,,28.3353,20.9326,26.5145,,41.442,,,0.2
2358946,Koudougou,Koudougou,Koudougou,Koudougou,Koudougou,Koudougou,Кудугу,12.25188,-2.36694,281.0,Africa/Ouagadougou,PPLA,admin1,BF,BFA,Burkina Faso,06,Centre-Ouest,160239,,,,,,,,,,,,2895.8915,0.449,,,28.3353,20.9326,26.5145,,41.442,,,0.2
2357043,Ouahigouya,Ouahigouya,Ouahigouya,Ouahigouya,Ouahigouya,Ouahigouya,Вахигуя,13.5769,-2.41786,317.0,Africa/Ouagadougou,PPLA,admin1,BF,BFA,Burkina Faso,10,Nord,124587,,,,,,,,,,,,2895.8915,0.449,,,28.3353,20.9326,26.5145,,41.442,,,0.2
2359608,Kaya,Kaya,Kaya,Kaya,Kaya,Kaya,Кая,13.0883,-1.08368,366.0,Africa/Ouagadougou,PPLA,admin1,BF,BFA,Burkina Faso,05,Centre-Nord,121970,,,,,,,,,,,,2895.8915,0.449,,,28.3353,20.9326,26.5145,,41.442,,,0.2
2362909,Banfora,Banfora,Banfora,Banfora,Banfora,Banfora,Банфору,10.64064,-4.75285,304.0,Africa/Ouagadougou,PPLA,admin1,BF,BFA,Burkina Faso,02,Cascades Region,117452,,,,,,,,,,,,2895.8915,0.449,,,28.3353,20.9326,26.5145,,41.442,,,0.2
1185241,Dhaka,Dhaka,Dhaka,Daca,Dacca,Dacca,Дакка,23.7104,90.40744,23.0,Asia/Dhaka,PPLC,national,BD,BGD,Bangladesh,81,Dhaka Division,10356500,,,,,,,,,,,,9646.7698,0.67,,,32.6783,11.1648,34.0972,,79.0,,,0.92
1205733,Chattogram,Chattogram,Chittagong,Chittagong,Chittagong,Chittagong,Читтагонг,22.3384,91.83168,15.0,Asia/Dhaka,PPLA,admin1,BD,BGD,Bangladesh,84,Chittagong,3920222,,,,,,,,,,,,9646.7698,0.67,,,32.6783,11.1648,34.0972,,79.0,,,0.92
1200109,Gazipur,Gazipur,Gazipur,Gazipur,Gazipur,Gazipur,Газипур,23.99844,90.42234,12.0,Asia/Dhaka,PPLA2,no,BD,BGD,Bangladesh,81,Dhaka Division,2674697,,,,,,,,,,,,9646.7698,0.67,,,32.6783,11.1648,34.0972,,79.0,,,0.92
1336135,Khulna,Khulna,Khulna,Khulna,Khulnâ,Khulna,Кхулна,22.80979,89.56439,8.0,Asia/Dhaka,PPLA,admin1,BD,BGD,Bangladesh,82,Khulna Division,1500689,,,,,,,,,,,,9646.7698,0.67,,,32.6783,11.1648,34.0972,,79.0,,,0.92
1185188,Rangpur,Rangpur,Rangpur City,Rangpur City,Rangpur City,Rangpur City,Рангпур,25.74664,89.25166,36.0,Asia/Dhaka,PPLA,admin1,BD,BGD,Bangladesh,87,Rangpur Division,1031388,,,,,,,,,,,,9646.7698,0.67,,,32.6783,11.1648,34.0972,,79.0,,,0.92
1185186,Comilla,Comilla,Comilla,Comilla,Comilla,Comilla,Комилле,23.46186,91.18503,17.0,Asia/Dhaka,PPL,no,BD,BGD,Bangladesh,84,Chittagong,1030000,,,,,,,,,,,,9646.7698,0.67,,,32.6783,11.1648,34.0972,,79.0,,,0.92
1185128,Rajshahi,Rajshahi,Rajshahi,Rajshahi,Rajshahi,Rajshahi,Раджшахи,24.374,88.60114,23.0,Asia/Dhaka,PPLA,admin1,BD,BGD,Bangladesh,83,Rajshahi Division,763580,,,,,,,,,,,,9646.7698,0.67,,,32.6783,11.1648,34.0972,,79.0,,,0.92
1194041,Mohammadpur,Mohammadpur,Mohammadpur,Mohammadpur,Mohammadpur,Mohammadpur,Mohammadpur,24.89843,88.52844,40.0,Asia/Dhaka,PPL,no,BD,BGD,Bangladesh,83,Rajshahi Division,527571,,,,,,,,,,,,9646.7698,0.67,,,32.6783,11.1648,34.0972,,79.0,,,0.92
1462674,Hāthazāri,Hathazari,Hāthazāri,Hāthazāri,Hāthazāri,Hāthazāri,Hāthazāri,22.50515,91.81339,9.0,Asia/Dhaka,PPL,no,BD,BGD,Bangladesh,84,Chittagong,498179,,,,,,,,,,,,9646.7698,0.67,,,32.6783,11.1648,34.0972,,79.0,,,0.92
1185270,Bāndarban,Bandarban,Bāndarban,Bāndarban,Bāndarban,Bāndarban,Бандарбан,22.19534,92.21946,24.0,Asia/Dhaka,PPL,no,BD,BGD,Bangladesh,84,Chittagong,495272,,,,,,,,,,,,9646.7698,0.67,,,32.6783,11.1648,34.0972,,79.0,,,0.92
1185107,Shibganj,Shibganj,Shibganj,Shibganj,Shibganj,Shibganj,Шибгандж,25.00146,89.32266,26.0,Asia/Dhaka,PPL,no,BD,BGD,Bangladesh,83,Rajshahi Division,378701,,,,,,,,,,,,9646.7698,0.67,,,32.6783,11.1648,34.0972,,79.0,,,0.92
7483813,Natore,Natore,Natore,Natore,Natore,Natore,Натор,24.41112,88.98673,22.0,Asia/Dhaka,PPL,no,BD,BGD,Bangladesh,83,Rajshahi Division,369138,,,,,,,,,,,,9646.7698,0.67,,,32.6783,11.1648,34.0972,,79.0,,,0.92
1349452,Savar,Savar,Savar Upazila,Savar Upazila,Savar Upazila,Savar Upazila,Савар,23.84858,90.25002,10.0,Asia/Dhaka,PPL,no,BD,BGD,Bangladesh,81,Dhaka Division,286008,,,,,,,,,,,,9646.7698,0.67,,,32.6783,11.1648,34.0972,,79.0,,,0.92
1185117,Narsingdi,Narsingdi,Narsingdi,Narsingdi,Narsingdi,Narsingdi,Narsingdi,23.92298,90.71768,13.0,Asia/Dhaka,PPL,no,BD,BGD,Bangladesh,81,Dhaka Division,281080,,,,,,,,,,,,9646.7698,0.67,,,32.6783,11.1648,34.0972,,79.0,,,0.92
1193745,Nagar Naluākot,Nagar Naluakot,Nogor Noluakot,Nogor Noluakot,Nogor Noluakot,Nogor Noluakot,Nogor Noluakot,24.15608,90.7728,19.0,Asia/Dhaka,PPL,no,BD,BGD,Bangladesh,81,Dhaka Division,273000,,,,,,,,,,,,9646.7698,0.67,,,32.6783,11.1648,34.0972,,79.0,,,0.92
1185281,Bagerhat,Bagerhat,Bagerhat,Bagerhat,Bagerhat,Bagerhat,Багерхат,22.65657,89.79123,7.0,Asia/Dhaka,PPLA2,no,BD,BGD,Bangladesh,82,Khulna Division,266388,,,,,,,,,,,,9646.7698,0.67,,,32.6783,11.1648,34.0972,,79.0,,,0.92
1336142,Brāhmanbāria,Brahmanbaria,Brāhmanbāria,Brāhmanbāria,Brāhmanbāria,Brāhmanbāria,Brāhmanbāria,23.97464,91.11228,15.0,Asia/Dhaka,PPL,no,BD,BGD,Bangladesh,84,Chittagong,264326,,,,,,,,,,,,9646.7698,0.67,,,32.6783,11.1648,34.0972,,79.0,,,0.92
1336134,Cox’s Bāzār,Cox's Bazar,Cox’s Bāzār,Cox’s Bāzār,Cox’s Bāzār,Cox’s Bāzār,Кокс-Базар,21.43973,92.00955,2.0,Asia/Dhaka,PPL,no,BD,BGD,Bangladesh,84,Chittagong,253788,,,,,,,,,,,,9646.7698,0.67,,,32.6783,11.1648,34.0972,,79.0,,,0.92
1336140,Jessore,Jessore,Jessore,Jessore,Jessore,Jessore,Jessore,23.16971,89.21371,15.0,Asia/Dhaka,PPL,no,BD,BGD,Bangladesh,82,Khulna Division,243987,,,,,,,,,,,,9646.7698,0.67,,,32.6783,11.1648,34.0972,,79.0,,,0.92
1185159,Nāgarpur,Nagarpur,Nāgarpur,Nāgarpur,Nāgarpur,Nāgarpur,Nāgarpur,24.05783,89.87696,15.0,Asia/Dhaka,PPL,no,BD,BGD,Bangladesh,81,Dhaka Division,238422,,,,,,,,,,,,9646.7698,0.67,,,32.6783,11.1648,34.0972,,79.0,,,0.92
1185099,Sylhet,Sylhet,Sylhet,Sylhet,Sylhet,Sylhet,Силхет,24.89904,91.87198,26.0,Asia/Dhaka,PPLA,admin1,BD,BGD,Bangladesh,86,Sylhet Division,237000,,,,,,,,,,,,9646.7698,0.67,,,32.6783,11.1648,34.0972,,79.0,,,0.92
1185162,Mymensingh,Mymensingh,Mymensingh,Mymensingh,Mymensingh,Mymensingh,Майменсингх,24.75636,90.40646,19.0,Asia/Dhaka,PPLA,admin1,BD,BGD,Bangladesh,H,Mymensingh Division,225126,,,,,,,,,,,,9646.7698,0.67,,,32.6783,11.1648,34.0972,,79.0,,,0.92
1337233,Bogra,Bogra,Bogra,Bogra,Bogra,Bogra,Богра,24.85098,89.37108,26.0,Asia/Dhaka,PPL,no,BD,BGD,Bangladesh,83,Rajshahi Division,210000,,,,,,,,,,,,9646.7698,0.67,,,32.6783,11.1648,34.0972,,79.0,,,0.92
1203891,Dinajpur,Dinajpur,Dinajpur,Dinajpur,Dinajpur,Dinajpur,Dinajpur,25.62745,88.63779,42.0,Asia/Dhaka,PPL,no,BD,BGD,Bangladesh,87,Rangpur Division,206234,,,,,,,,,,,,9646.7698,0.67,,,32.6783,11.1648,34.0972,,79.0,,,0.92
8299875,Karnaphuli,Karnaphuli,Karnaphuli,Karnaphuli,Karnaphuli,Karnaphuli,Karnaphuli,22.69056,92.23472,46.0,Asia/Dhaka,PPL,no,BD,BGD,Bangladesh,84,Chittagong,203697,,,,,,,,,,,,9646.7698,0.67,,,32.6783,11.1648,34.0972,,79.0,,,0.92
1207337,Chāndpur,Chandpur,Chāndpur,Chāndpur,Chāndpur,Chāndpur,Chāndpur,23.22714,90.65433,13.0,Asia/Dhaka,PPLA2,no,BD,BGD,Bangladesh,84,Chittagong,203000,,,,,,,,,,,,9646.7698,0.67,,,32.6783,11.1648,34.0972,,79.0,,,0.92
1336137,Barishal,Barishal,Barishal,Barishal,Barishal,Barishal,Барисал,22.70497,90.37013,10.0,Asia/Dhaka,PPLA,admin1,BD,BGD,Bangladesh,85,Barisal Division,202242,,,,,,,,,,,,9646.7698,0.67,,,32.6783,11.1648,34.0972,,79.0,,,0.92
6545349,Saidpur,Saidpur,Saidpur,Saidpur,Saidpur,Saidpur,Saidpur,25.77769,88.89169,43.0,Asia/Dhaka,PPL,no,BD,BGD,Bangladesh,87,Rangpur Division,199422,,,,,,,,,,,,9646.7698,0.67,,,32.6783,11.1648,34.0972,,79.0,,,0.92
1192366,Pār Naogaon,Par Naogaon,Naogaon,Naogaon,Naogaon,Naogaon,Naogaon,24.80418,88.94875,20.0,Asia/Dhaka,PPL,no,BD,BGD,Bangladesh,83,Rajshahi Division,192464,,,,,,,,,,,,9646.7698,0.67,,,32.6783,11.1648,34.0972,,79.0,,,0.92
1336143,Pābna,Pabna,Pābna,Pābna,Pābna,Pābna,Пабне,24.00644,89.2372,19.0,Asia/Dhaka,PPL,no,BD,BGD,Bangladesh,83,Rajshahi Division,186781,,,,,,,,,,,,9646.7698,0.67,,,32.6783,11.1648,34.0972,,79.0,,,0.92
1336144,Tangail,Tangail,Tangail,Tangail,Tangail,Tangail,Tangail,24.24984,89.91655,17.0,Asia/Dhaka,PPL,no,BD,BGD,Bangladesh,81,Dhaka Division,180144,,,,,,,,,,,,9646.7698,0.67,,,32.6783,11.1648,34.0972,,79.0,,,0.92
1185106,Jamālpur,Jamalpur,Jamālpur,Jamālpur,Jamālpur,Jamālpur,Jamālpur,24.91965,89.94812,23.0,Asia/Dhaka,PPLA2,no,BD,BGD,Bangladesh,H,Mymensingh Division,167900,,,,,,,,,,,,9646.7698,0.67,,,32.6783,11.1648,34.0972,,79.0,,,0.92
7483743,Puthia,Puthia,Puthia,Puthia,Puthia,Puthia,Путхия,24.36537,88.83431,20.0,Asia/Dhaka,PPL,no,BD,BGD,Bangladesh,83,Rajshahi Division,159406,,,,,,,,,,,,9646.7698,0.67,,,32.6783,11.1648,34.0972,,79.0,,,0.92
1337240,Nawābganj,Nawabganj,Nawābganj,Nawābganj,Nawābganj,Nawābganj,Nawābganj,24.59025,88.27444,28.0,Asia/Dhaka,PPL,no,BD,BGD,Bangladesh,83,Rajshahi Division,142361,,,,,,,,,,,,9646.7698,0.67,,,32.6783,11.1648,34.0972,,79.0,,,0.92
1185191,Kushtia,Kushtia,Kushtia,Kushtia,Kushtia,Kushtia,Kushtia,23.9028,89.11943,17.0,Asia/Dhaka,PPL,no,BD,BGD,Bangladesh,82,Khulna Division,135724,,,,,,,,,,,,9646.7698,0.67,,,32.6783,11.1648,34.0972,,79.0,,,0.92
1195434,Maijdi,Maijdi,Maijdi,Maijdi,Maijdi,Maijdi,Maijdi,22.86667,91.1,11.0,Asia/Dhaka,PPL,no,BD,BGD,Bangladesh,84,Chittagong,132185,,,,,,,,,,,,9646.7698,0.67,,,32.6783,11.1648,34.0972,,79.0,,,0.92
1187530,Sonārgaon,Sonargaon,Sonargaon,Sonargaon,Sonargaon,Sonargaon,Сонаргаон,23.65,90.61667,9.0,Asia/Dhaka,PPL,no,BD,BGD,Bangladesh,81,Dhaka Division,130000,,,,,,,,,,,,9646.7698,0.67,,,32.6783,11.1648,34.0972,,79.0,,,0.92
1185111,Sātkhira,Satkhira,Sātkhira,Sātkhira,Sātkhira,Sātkhira,Sātkhira,22.70817,89.07185,11.0,Asia/Dhaka,PPL,no,BD,BGD,Bangladesh,82,Khulna Division,128918,,,,,,,,,,,,9646.7698,0.67,,,32.6783,11.1648,34.0972,,79.0,,,0.92
1185115,Sirajganj,Sirajganj,Sirajganj,Sirajganj,Sirajganj,Sirajganj,Сираджгандж,24.45771,89.70802,19.0,Asia/Dhaka,PPL,no,BD,BGD,Bangladesh,83,Rajshahi Division,127481,,,,,,,,,,,,9646.7698,0.67,,,32.6783,11.1648,34.0972,,79.0,,,0.92
1185920,Tungipara,Tungipara,Tungipara,Tungipara,Tungipara,Tungipara,Tungipara,22.89983,89.90326,8.0,Asia/Dhaka,PPL,no,BD,BGD,Bangladesh,81,Dhaka Division,114482,,,,,,,,,,,,9646.7698,0.67,,,32.6783,11.1648,34.0972,,79.0,,,0.92
1203344,Farīdpur,Faridpur,Farīdpur,Farīdpur,Farīdpur,Farīdpur,Farīdpur,23.60612,89.84064,15.0,Asia/Dhaka,PPL,no,BD,BGD,Bangladesh,81,Dhaka Division,112187,,,,,,,,,,,,9646.7698,0.67,,,32.6783,11.1648,34.0972,,79.0,,,0.92
1185263,Bhairab Bāzār,Bhairab Bazar,Bhairab Bāzār,Bhairab Bāzār,Bhairab Bāzār,Bhairab Bāzār,Bhairab Bāzār,24.0524,90.9764,12.0,Asia/Dhaka,PPL,no,BD,BGD,Bangladesh,81,Dhaka Division,105457,,,,,,,,,,,,9646.7698,0.67,,,32.6783,11.1648,34.0972,,79.0,,,0.92
1185121,Shāhzādpur,Shahzadpur,Shāhzādpur,Shāhzādpur,Shāhzādpur,Shāhzādpur,Shāhzādpur,24.17687,89.5988,16.0,Asia/Dhaka,PPL,no,BD,BGD,Bangladesh,83,Rajshahi Division,102420,,,,,,,,,,,,9646.7698,0.67,,,32.6783,11.1648,34.0972,,79.0,,,0.92
727011,Sofia,Sofia,Sofia,Sofía,Sofia,Sofia,София,42.69751,23.32415,562.0,Europe/Sofia,PPLC,national,BG,BGR,Bulgaria,42,Sofia-Capital,1152556,,,,,,,,,,,,41969.4516,0.795,,,73.9499,2.3511,21.1317,,,,,8.2
728193,Plovdiv,Plovdiv,Plovdiv,Plovdiv,Plovdiv,Filippopoli,Пловдив,42.15387,24.75001,163.0,Europe/Sofia,PPLA,admin1,BG,BGR,Bulgaria,51,Plovdiv,329489,,,,,,,,,,,,41969.4516,0.795,,,73.9499,2.3511,21.1317,,,,,8.2
726050,Varna,Varna,Varna,Varna,Varna,Varna,Варна,43.21912,27.91024,83.0,Europe/Sofia,PPLA,admin1,BG,BGR,Bulgaria,61,Varna,318737,,,,,,,,,,,,41969.4516,0.795,,,73.9499,2.3511,21.1317,,,,,8.2
732770,Burgas,Burgas,Burgas,Burgas,Bourgas,Burgas,Бургас,42.50651,27.46886,36.0,Europe/Sofia,PPLA,admin1,BG,BGR,Bulgaria,39,Burgas,210646,,,,,,,,,,,,41969.4516,0.795,,,73.9499,2.3511,21.1317,,,,,8.2
726848,Stara Zagora,Stara Zagora,Stara Zagora,Stara Zagora,Stara Zagora,Stara Zagora,Стара-Загора,42.43205,25.64262,205.0,Europe/Sofia,PPLA,admin1,BG,BGR,Bulgaria,59,Stara Zagora,121582,,,,,,,,,,,,41969.4516,0.795,,,73.9499,2.3511,21.1317,,,,,8.2
727523,Ruse,Ruse,Rousse,Ruse,Roussé,Ruse,Русе,43.84872,25.9534,39.0,Europe/Sofia,PPLA,admin1,BG,BGR,Bulgaria,53,Ruse,121168,,,,,,,,,,,,41969.4516,0.795,,,73.9499,2.3511,21.1317,,,,,8.2
290340,Manama,Manama,Manama,Manama,Manama,Manama,Манама,26.22787,50.58565,12.0,Asia/Bahrain,PPLC,national,BH,BHR,Bahrain,16,Manama,147074,,,,,,,,,,,,66941.243,0.888,,,100.0,0.2455,42.2904,,97.82,,,1.84
3571824,Nassau,Nassau,Nassau,Nasáu,Nassau,Nassau,Нассау,25.05823,-77.34306,5.0,America/Nassau,PPLC,national,BS,BHS,Bahamas,23,New Providence,227940,,,,,,,,,,,,41197.9343,,,,81.3249,0.5148,9.6256,,,,,2.17
3191281,Sarajevo,Sarajevo,Sarajevo,Sarajevo,Sarajevo,Sarajevo,Сараево,43.84864,18.35644,509.0,Europe/Sarajevo,PPLC,national,BA,BIH,Bosnia and Herzegovina,01,Federation of B&H,696731,,,,,,,,,,,,25043.0886,0.768,,,52.1224,4.5339,22.4261,,,,,2.35
3204541,Banja Luka,Banja Luka,Banja Luka,Bania Luka,Banja Luka,Banja Luka,Баня-Лука,44.77879,17.20629,151.0,Europe/Sarajevo,PPLA,admin1,BA,BIH,Bosnia and Herzegovina,02,Srpska,221106,,,,,,,,,,,,25043.0886,0.768,,,52.1224,4.5339,22.4261,,,,,2.35
3186573,Zenica,Zenica,Zenica,Zenica,Zenica,Zenica,Зеница,44.20169,17.90397,325.0,Europe/Sarajevo,PPLA2,no,BA,BIH,Bosnia and Herzegovina,01,Federation of B&H,164423,,,,,,,,,,,,25043.0886,0.768,,,52.1224,4.5339,22.4261,,,,,2.35
3188582,Tuzla,Tuzla,Tuzla,Tuzla,Tuzla,Tuzla,Тузла,44.53842,18.66709,225.0,Europe/Sarajevo,PPLA2,no,BA,BIH,Bosnia and Herzegovina,01,Federation of B&H,142486,,,,,,,,,,,,25043.0886,0.768,,,52.1224,4.5339,22.4261,,,,,2.35
3194828,Mostar,Mostar,Mostar,Mostar,Mostar,Mostar,Мостар,43.34333,17.80806,66.0,Europe/Sarajevo,PPLA2,no,BA,BIH,Bosnia and Herzegovina,01,Federation of B&H,104518,,,,,,,,,,,,25043.0886,0.768,,,52.1224,4.5339,22.4261,,,,,2.35
3579132,Gustavia,Gustavia,Gustavia,Gustavia,Gustavia,Gustavia,Густавия,17.89618,-62.84978,6.0,America/St_Barthelemy,PPLC,national,BL,BLM,Saint Barthélemy,00,,5988,,,,,,,,,,,,,,,,,,,,,,,
625144,Minsk,Minsk,Minsk,Minsk,Minsk,Minsk,Минск,53.90019,27.56653,222.0,Europe/Minsk,PPLC,national,BY,BLR,Belarus,04,Minsk City,1742124,,,,,,,,,,,,33010.3308,0.808,,,79.1551,6.866,30.7082,,99.87,,,9.77
627907,Homyel',Homyel',Homyel,Gómel,Homiel,Homel',Гомель,52.4345,30.9754,138.0,Europe/Minsk,PPLA,admin1,BY,BLR,Belarus,02,Homyel’ Voblasc’,501102,,,,,,,,,,,,33010.3308,0.808,,,79.1551,6.866,30.7082,,99.87,,,9.77
627904,Hrodna,Hrodna,Hrodna,Goradnia,Hrodna,Grodno,Гродно,53.6758,23.82887,142.0,Europe/Minsk,PPLA,admin1,BY,BLR,Belarus,03,Grodnenskaya,361115,,,,,,,,,,,,33010.3308,0.808,,,79.1551,6.866,30.7082,,99.87,,,9.77
620127,Vitebsk,Vitebsk,Vitebsk,Vítebsk,Vitebsk,Vicebsk,Витебск,55.1904,30.2049,150.0,Europe/Minsk,PPLA,admin1,BY,BLR,Belarus,07,Vitebsk,358395,,,,,,,,,,,,33010.3308,0.808,,,79.1551,6.866,30.7082,,99.87,,,9.77
625665,Mahilyow,Mahilyow,Mogilev,Maguilov,Moguilev,Mahilëŭ,Могилёв,53.90876,30.34044,187.0,Europe/Minsk,PPLA,admin1,BY,BLR,Belarus,06,Mogilev,353110,,,,,,,,,,,,33010.3308,0.808,,,79.1551,6.866,30.7082,,99.87,,,9.77
629634,Brest,Brest,Brest,Brest,Brest,Brėst,Брест,52.10894,23.71749,144.0,Europe/Minsk,PPLA,admin1,BY,BLR,Belarus,01,Brest,344470,,,,,,,,,,,,33010.3308,0.808,,,79.1551,6.866,30.7082,,99.87,,,9.77
630468,Bobruysk,Bobruysk,Babruysk,Babruysk,Babruysk,Babruysk,Бобруйск,53.14636,29.20552,153.0,Europe/Minsk,PPLA2,no,BY,BLR,Belarus,06,Mogilev,207351,,,,,,,,,,,,33010.3308,0.808,,,79.1551,6.866,30.7082,,99.87,,,9.77
630429,Baranovichi,Baranovichi,Baranovichi,Baranovichi,Baranovitchi,Baranovichi,Барановичи,53.13253,26.00774,195.0,Europe/Minsk,PPLA2,no,BY,BLR,Belarus,01,Brest,171361,,,,,,,,,,,,33010.3308,0.808,,,79.1551,6.866,30.7082,,99.87,,,9.77
630376,Barysaw,Barysaw,Borisov,Borisov,Borisov,Borisov,Борисов,54.2279,28.505,172.0,Europe/Minsk,PPLA2,no,BY,BLR,Belarus,05,Minsk,135696,,,,,,,,,,,,33010.3308,0.808,,,79.1551,6.866,30.7082,,99.87,,,9.77
623549,Pinsk,Pinsk,Pinsk,Pinsk,Pinsk,Pinsk,Пинск,52.12153,26.06726,148.0,Europe/Minsk,PPLA2,no,BY,BLR,Belarus,01,Brest,124295,,,,,,,,,,,,33010.3308,0.808,,,79.1551,6.866,30.7082,,99.87,,,9.77
625324,Mazyr,Mazyr,Mazyr,Mazyr,Mazyr,Mazyr,Мозырь,52.04162,29.21631,186.0,Europe/Minsk,PPLA2,no,BY,BLR,Belarus,02,Homyel’ Voblasc’,105152,,,,,,,,,,,,33010.3308,0.808,,,79.1551,6.866,30.7082,,99.87,,,9.77
626081,Lida,Lida,Lida,Lida,Lida,Lida,Лида,53.88333,25.29972,144.0,Europe/Minsk,PPLA2,no,BY,BLR,Belarus,03,Grodnenskaya,103916,,,,,,,,,,,,33010.3308,0.808,,,79.1551,6.866,30.7082,,99.87,,,9.77
624079,Orsha,Orsha,Orsha,Orsha,Orsha,Orsza,Орша,54.51362,30.40365,174.0,Europe/Minsk,PPLA2,no,BY,BLR,Belarus,07,Vitebsk,102759,,,,,,,,,,,,33010.3308,0.808,,,79.1551,6.866,30.7082,,99.87,,,9.77
3582672,Belmopan,Belmopan,Belmopan,Belmopán,Belmopan,Belmopan,Бельмопан,17.25376,-88.76401,56.0,America/Belize,PPLC,national,BZ,BLZ,Belize,02,Cayo District,13381,,,,,,,,,,,,14346.5188,0.7,,,41.7532,7.9479,14.5714,,87.88,,,1.0
3573197,Hamilton,Hamilton,Hamilton,Hamilton,Hamilton,Hamilton,Гамильтон,32.2949,-64.78303,22.0,Atlantic/Bermuda,PPLC,national,BM,BMU,Bermuda,03,Hamilton city,902,,,,,,,,,,,,124252.8357,,,,100.0,0.1925,4.6392,,,,,
3911925,La Paz,La Paz,La Paz,La Paz,La Paz,La Paz,Ла-Пас,-16.5,-68.15,3782.0,America/La_Paz,PPLG,national,BO,BOL,Bolivia,04,La Paz Department,2004652,,,,,,,,,,,,12877.6351,0.698,,,71.2361,8.8263,31.2591,,95.55,,,1.49
3904906,Santa Cruz de la Sierra,Santa Cruz de la Sierra,Santa Cruz de la Sierra,Santa Cruz de la Sierra,Santa Cruz de la Sierra,Santa Cruz de la Sierra,Санта-Крус-де-ла-Сиерра,-17.78629,-63.18117,433.0,America/La_Paz,PPLA,admin1,BO,BOL,Bolivia,08,Santa Cruz Department,1831434,,,,,,,,,,,,12877.6351,0.698,,,71.2361,8.8263,31.2591,,95.55,,,1.49
3919968,Cochabamba,Cochabamba,Cochabamba,Cochabamba,Cochabamba,Cochabamba,Кочабамба,-17.38195,-66.15995,2537.0,America/La_Paz,PPLA,admin1,BO,BOL,Bolivia,02,Cochabamba,841276,,,,,,,,,,,,12877.6351,0.698,,,71.2361,8.8263,31.2591,,95.55,,,1.49
3903987,Sucre,Sucre,Sucre,Sucre,Sucre,Sucre,Сукре,-19.03332,-65.26274,2798.0,America/La_Paz,PPLC,national,BO,BOL,Bolivia,01,Chuquisaca Department,224838,,,,,,,,,,,,12877.6351,0.698,,,71.2361,8.8263,31.2591,,95.55,,,1.49
3909234,Oruro,Oruro,Oruro,Oruro,Oruro,Oruro,Оруро,-17.97153,-67.0932,3885.0,America/La_Paz,PPLA,admin1,BO,BOL,Bolivia,05,Oruro,208684,,,,,,,,,,,,12877.6351,0.698,,,71.2361,8.8263,31.2591,,95.55,,,1.49
3903320,Tarija,Tarija,Tarija,Tarija,Tarija,Tarija,Тариха,-21.53549,-64.72956,1870.0,America/La_Paz,PPLA,admin1,BO,BOL,Bolivia,09,Tarija Department,159269,,,,,,,,,,,,12877.6351,0.698,,,71.2361,8.8263,31.2591,,95.55,,,1.49
3907584,Potosí,Potosi,Potosí,Potosí,Potosí,Potosí,Потоси,-19.58361,-65.75306,3967.0,America/La_Paz,PPLA,admin1,BO,BOL,Bolivia,07,Potosí Department,141251,,,,,,,,,,,,12877.6351,0.698,,,71.2361,8.8263,31.2591,,95.55,,,1.49
3448439,São Paulo,Sao Paulo,São Paulo,São Paulo,São Paulo,San Paolo,Сан-Паулу,-23.5475,-46.63611,769.0,America/Sao_Paulo,PPLA,admin1,BR,BRA,Brazil,27,São Paulo,12400232,,,,,,,,,,,,22338.4766,0.76,,,87.8959,5.7523,20.9407,,94.8005,,,2.52
3451190,Rio de Janeiro,Rio de Janeiro,Rio de Janeiro,Río de Janeiro,Rio de Janeiro,Rio de Janeiro,Рио-де-Жанейро,-22.90642,-43.18223,12.0,America/Sao_Paulo,PPLA,admin1,BR,BRA,Brazil,21,Rio de Janeiro,6747815,,,,,,,,,,,,22338.4766,0.76,,,87.8959,5.7523,20.9407,,94.8005,,,2.52
3470127,Belo Horizonte,Belo Horizonte,Belo Horizonte,Belo Horizonte,Belo Horizonte,Belo Horizonte,Белу-Оризонти,-19.92083,-43.93778,872.0,America/Sao_Paulo,PPLA,admin1,BR,BRA,Brazil,15,Minas Gerais,2721564,,,,,,,,,,,,22338.4766,0.76,,,87.8959,5.7523,20.9407,,94.8005,,,2.52
3450554,Salvador,Salvador,Salvador,Salvador,Salvador,Salvador,Салвадор,-12.97563,-38.49096,4.0,America/Bahia,PPLA,admin1,BR,BRA,Brazil,05,Bahia,2711840,,,,,,,,,,,,22338.4766,0.76,,,87.8959,5.7523,20.9407,,94.8005,,,2.52
3399415,Fortaleza,Fortaleza,Fortaleza,Fortaleza,Fortaleza,Fortaleza,Форталеза,-3.71722,-38.54306,18.0,America/Fortaleza,PPLA,admin1,BR,BRA,Brazil,06,Ceará,2400000,,,,,,,,,,,,22338.4766,0.76,,,87.8959,5.7523,20.9407,,94.8005,,,2.52
3663517,Manaus,Manaus,Manaus,Manaos,Manaus,Manaus,Манаус,-3.10194,-60.025,20.0,America/Manaus,PPLA,admin1,BR,BRA,Brazil,04,Amazonas,2219580,,,,,,,,,,,,22338.4766,0.76,,,87.8959,5.7523,20.9407,,94.8005,,,2.52
3469058,Brasília,Brasilia,Brasília,Brasilia,Brasilia,Brasília,Бразилия,-15.77972,-47.92972,1136.0,America/Sao_Paulo,PPLC,national,BR,BRA,Brazil,07,Federal District,2207718,,,,,,,,,,,,22338.4766,0.76,,,87.8959,5.7523,20.9407,,94.8005,,,2.52
3464975,Curitiba,Curitiba,Curitiba,Curitiba,Curitiba,Curitiba,Куритиба,-25.42778,-49.27306,924.0,America/Sao_Paulo,PPLA,admin1,BR,BRA,Brazil,18,Paraná,1948626,,,,,,,,,,,,22338.4766,0.76,,,87.8959,5.7523,20.9407,,94.8005,,,2.52
3390760,Recife,Recife,Recife,Recife,Recife,Recife,Ресифи,-8.05389,-34.88111,8.0,America/Recife,PPLA,admin1,BR,BRA,Brazil,30,Pernambuco,1653461,,,,,,,,,,,,22338.4766,0.76,,,87.8959,5.7523,20.9407,,94.8005,,,2.52
3462377,Goiânia,Goiania,Goiânia,Goiânia,Goiânia,Goiânia,Гояния,-16.67861,-49.25389,766.0,America/Sao_Paulo,PPLA,admin1,BR,BRA,Brazil,29,Goiás,1536097,,,,,,,,,,,,22338.4766,0.76,,,87.8959,5.7523,20.9407,,94.8005,,,2.52
3405870,Belém,Belem,Belém,Belém,Belém,Belém,Белен,-1.45583,-48.50444,15.0,America/Belem,PPLA,admin1,BR,BRA,Brazil,16,Pará,1499641,,,,,,,,,,,,22338.4766,0.76,,,87.8959,5.7523,20.9407,,94.8005,,,2.52
3452925,Porto Alegre,Porto Alegre,Porto Alegre,Porto Alegre,Porto Alegre,Porto Alegre,Порту-Алегри,-30.03283,-51.23019,46.0,America/Sao_Paulo,PPLA,admin1,BR,BRA,Brazil,23,Rio Grande do Sul,1488252,,,,,,,,,,,,22338.4766,0.76,,,87.8959,5.7523,20.9407,,94.8005,,,2.52
3395981,Maceió,Maceio,Maceió,Maceió,Maceió,Maceió,Масейо,-9.66583,-35.73528,11.0,America/Maceio,PPLA,admin1,BR,BRA,Brazil,02,Alagoas,1031597,,,,,,,,,,,,22338.4766,0.76,,,87.8959,5.7523,20.9407,,94.8005,,,2.52
3467865,Campinas,Campinas,Campinas,Campinas,Campinas,Campinas,Кампинас,-22.90556,-47.06083,686.0,America/Sao_Paulo,PPL,no,BR,BRA,Brazil,27,São Paulo,1031554,,,,,,,,,,,,22338.4766,0.76,,,87.8959,5.7523,20.9407,,94.8005,,,2.52
3388368,São Luís,Sao Luis,São Luís,São Luís,São Luís,São Luís,Сан-Луис,-2.52972,-44.30278,29.0,America/Fortaleza,PPLA,admin1,BR,BRA,Brazil,13,Maranhão,917237,,,,,,,,,,,,22338.4766,0.76,,,87.8959,5.7523,20.9407,,94.8005,,,2.52
3467747,Campo Grande,Campo Grande,Campo Grande,Campo Grande,Campo Grande,Campo Grande,Кампу-Гранди,-20.44278,-54.64639,592.0,America/Campo_Grande,PPLA,admin1,BR,BRA,Brazil,11,Mato Grosso do Sul,906092,,,,,,,,,,,,22338.4766,0.76,,,87.8959,5.7523,20.9407,,94.8005,,,2.52
3394023,Natal,Natal,Natal,Natal,Natal,Natal,Натал,-5.795,-35.20944,32.0,America/Fortaleza,PPLA,admin1,BR,BRA,Brazil,22,Rio Grande do Norte,896708,,,,,,,,,,,,22338.4766,0.76,,,87.8959,5.7523,20.9407,,94.8005,,,2.52
3386496,Teresina,Teresina,Teresina,Teresina,Teresina,Teresina,Терезина,-5.08917,-42.80194,87.0,America/Fortaleza,PPLA,admin1,BR,BRA,Brazil,20,Piauí,871126,,,,,,,,,,,,22338.4766,0.76,,,87.8959,5.7523,20.9407,,94.8005,,,2.52
3456160,Nova Iguaçu,Nova Iguacu,Nova Iguaçu,Nova Iguaçu,Nova Iguaçu,Nova Iguaçu,Нова-Игуасу,-22.75917,-43.45111,36.0,America/Sao_Paulo,PPLA2,no,BR,BRA,Brazil,21,Rio de Janeiro,823302,,,,,,,,,,,,22338.4766,0.76,,,87.8959,5.7523,20.9407,,94.8005,,,2.52
3397277,João Pessoa,Joao Pessoa,João Pessoa,João Pessoa,João Pessoa,João Pessoa,Жуан-Песоа,-7.115,-34.86306,45.0,America/Fortaleza,PPLA,admin1,BR,BRA,Brazil,17,Paraíba,817511,,,,,,,,,,,,22338.4766,0.76,,,87.8959,5.7523,20.9407,,94.8005,,,2.52
3448636,São José dos Campos,Sao Jose dos Campos,São José dos Campos,São José dos Campos,São José dos Campos,São José dos Campos,Сан-Жозе-дус-Кампус,-23.17944,-45.88694,596.0,America/Sao_Paulo,PPLA2,no,BR,BRA,Brazil,27,São Paulo,729737,,,,,,,,,,,,22338.4766,0.76,,,87.8959,5.7523,20.9407,,94.8005,,,2.52
3451328,Ribeirão Preto,Ribeirao Preto,Ribeirão Preto,Ribeirão Preto,Ribeirão Preto,Ribeirão Preto,Рибейран-Прету,-21.1775,-47.81028,554.0,America/Sao_Paulo,PPLA2,no,BR,BRA,Brazil,27,São Paulo,711825,,,,,,,,,,,,22338.4766,0.76,,,87.8959,5.7523,20.9407,,94.8005,,,2.52
3447399,Sorocaba,Sorocaba,Sorocaba,Sorocaba,Sorocaba,Sorocaba,Сорокаба,-23.50167,-47.45806,602.0,America/Sao_Paulo,PPLA2,no,BR,BRA,Brazil,27,São Paulo,687357,,,,,,,,,,,,22338.4766,0.76,,,87.8959,5.7523,20.9407,,94.8005,,,2.52
3471872,Aracaju,Aracaju,Aracaju,Aracaju,Aracaju,Aracaju,Аракажу,-10.91111,-37.07167,11.0,America/Maceio,PPLA,admin1,BR,BRA,Brazil,28,Sergipe,664908,,,,,,,,,,,,22338.4766,0.76,,,87.8959,5.7523,20.9407,,94.8005,,,2.52
6317344,Jaboatão dos Guararapes,Jaboatao dos Guararapes,Jaboatão dos Guararapes,Jaboatão dos Guararapes,Jaboatão dos Guararapes,Jaboatão dos Guararapes,Жабоатан-дус-Гуарарапис,-8.11278,-35.01472,48.0,America/Recife,PPLA2,no,BR,BRA,Brazil,30,Pernambuco,644037,,,,,,,,,,,,22338.4766,0.76,,,87.8959,5.7523,20.9407,,94.8005,,,2.52
3463478,Feira de Santana,Feira de Santana,Feira de Santana,Feira de Santana,Feira de Santana,Feira de Santana,Фейра-де-Сантана,-12.26667,-38.96667,223.0,America/Bahia,PPL,no,BR,BRA,Brazil,05,Bahia,619609,,,,,,,,,,,,22338.4766,0.76,,,87.8959,5.7523,20.9407,,94.8005,,,2.52
3465038,Cuiabá,Cuiaba,Cuiabá,Cuiabá,Cuiabá,Cuiabá,Куяба,-15.59611,-56.09667,193.0,America/Cuiaba,PPLA,admin1,BR,BRA,Brazil,14,Mato Grosso,618124,,,,,,,,,,,,22338.4766,0.76,,,87.8959,5.7523,20.9407,,94.8005,,,2.52
3458449,Londrina,Londrina,Londrina,Londrina,Londrina,Londrina,Лондрина,-23.31028,-51.16278,605.0,America/Sao_Paulo,PPLA2,no,BR,BRA,Brazil,18,Paraná,588125,,,,,,,,,,,,22338.4766,0.76,,,87.8959,5.7523,20.9407,,94.8005,,,2.52
3459505,Juiz de Fora,Juiz de Fora,Juiz de Fora,Juiz de Fora,Juiz de Fora,Juiz de Fora,Жуис-ди-Фора,-21.76417,-43.35028,707.0,America/Sao_Paulo,PPLA2,no,BR,BRA,Brazil,15,Minas Gerais,573285,,,,,,,,,,,,22338.4766,0.76,,,87.8959,5.7523,20.9407,,94.8005,,,2.52
3445831,Uberlândia,Uberlandia,Uberlândia,Uberlândia,Uberlândia,Uberlândia,Уберландия,-18.91861,-48.27722,867.0,America/Sao_Paulo,PPL,no,BR,BRA,Brazil,15,Minas Gerais,563536,,,,,,,,,,,,22338.4766,0.76,,,87.8959,5.7523,20.9407,,94.8005,,,2.52
3662762,Porto Velho,Porto Velho,Porto Velho,Porto Velho,Porto Velho,Porto Velho,Порту-Велью,-8.76194,-63.90389,90.0,America/Porto_Velho,PPLA,admin1,BR,BRA,Brazil,24,Rondônia,548952,,,,,,,,,,,,22338.4766,0.76,,,87.8959,5.7523,20.9407,,94.8005,,,2.52
3447779,Serra,Serra,Serra,Serra,Serra,Serra,Серра,-20.12861,-40.30778,57.0,America/Sao_Paulo,PPL,no,BR,BRA,Brazil,08,Espírito Santo,520653,,,,,,,,,,,,22338.4766,0.76,,,87.8959,5.7523,20.9407,,94.8005,,,2.52
3396016,Macapá,Macapa,Macapá,Macapá,Macapá,Macapá,Макапа,0.03889,-51.06639,17.0,America/Belem,PPLA,admin1,BR,BRA,Brazil,03,Amapá,512902,,,,,,,,,,,,22338.4766,0.76,,,87.8959,5.7523,20.9407,,94.8005,,,2.52
3467693,Campos dos Goytacazes,Campos dos Goytacazes,Campos dos Goytacazes,Campos dos Goytacazes,Campos dos Goytacazes,Campos dos Goytacazes,Кампос,-21.75227,-41.33044,13.0,America/Sao_Paulo,PPLA2,no,BR,BRA,Brazil,21,Rio de Janeiro,511168,,,,,,,,,,,,22338.4766,0.76,,,87.8959,5.7523,20.9407,,94.8005,,,2.52
6316406,Aparecida de Goiânia,Aparecida de Goiania,Aparecida de Goiânia,Aparecida de Goiânia,Aparecida de Goiânia,Aparecida de Goiânia,Апаресида-ди-Гояния,-16.82333,-49.24389,829.0,America/Sao_Paulo,PPL,no,BR,BRA,Brazil,29,Goiás,510770,,,,,,,,,,,,22338.4766,0.76,,,87.8959,5.7523,20.9407,,94.8005,,,2.52
3463237,Florianópolis,Florianopolis,Florianópolis,Florianópolis,Florianópolis,Florianópolis,Флорианополис,-27.59667,-48.54917,26.0,America/Sao_Paulo,PPLA,admin1,BR,BRA,Brazil,26,Santa Catarina,508826,,,,,,,,,,,,22338.4766,0.76,,,87.8959,5.7523,20.9407,,94.8005,,,2.52
3448639,São José do Rio Preto,Sao Jose do Rio Preto,São José do Rio Preto,São José do Rio Preto,São José do Rio Preto,São José do Rio Preto,Сан-Жозе-ду-Риу-Прету,-20.81972,-49.37944,505.0,America/Sao_Paulo,PPLA2,no,BR,BRA,Brazil,27,São Paulo,480393,,,,,,,,,,,,22338.4766,0.76,,,87.8959,5.7523,20.9407,,94.8005,,,2.52
3457381,Mauá,Maua,Mauá,Mauá,Mauá,Mauá,Мауа,-23.66778,-46.46139,773.0,America/Sao_Paulo,PPLA2,no,BR,BRA,Brazil,27,São Paulo,477552,,,,,,,,,,,,22338.4766,0.76,,,87.8959,5.7523,20.9407,,94.8005,,,2.52
3459712,Joinville,Joinville,Joinville,Joinville,Joinville,Joinville,Жоинвили,-26.30444,-48.84556,9.0,America/Sao_Paulo,PPL,no,BR,BRA,Brazil,26,Santa Catarina,461304,,,,,,,,,,,,22338.4766,0.76,,,87.8959,5.7523,20.9407,,94.8005,,,2.52
3459462,Jundiaí,Jundiai,Jundiaí,Jundiaí,Jundiaí,Jundiaí,Жундиаи,-23.18639,-46.88417,753.0,America/Sao_Paulo,PPLA2,no,BR,BRA,Brazil,27,São Paulo,443221,,,,,,,,,,,,22338.4766,0.76,,,87.8959,5.7523,20.9407,,94.8005,,,2.52
3407669,Ananindeua,Ananindeua,Ananindeua,Ananindeua,Ananindeua,Ananindeua,Ананиндеуа,-1.36556,-48.37222,19.0,America/Belem,PPL,no,BR,BRA,Brazil,16,Pará,433956,,,,,,,,,,,,22338.4766,0.76,,,87.8959,5.7523,20.9407,,94.8005,,,2.52
3449433,Santos,Santos,Santos,Santos,Santos,Santos,Сантос,-23.96083,-46.33361,12.0,America/Sao_Paulo,PPLA2,no,BR,BRA,Brazil,27,São Paulo,433656,,,,,,,,,,,,22338.4766,0.76,,,87.8959,5.7523,20.9407,,94.8005,,,2.52
3664980,Boa Vista,Boa Vista,Boa Vista,Boa Vista,Boa Vista,Boa Vista,Боа-Виста,2.81972,-60.67333,82.0,America/Boa_Vista,PPLA,admin1,BR,BRA,Brazil,25,Roraima,419652,,,,,,,,,,,,22338.4766,0.76,,,87.8959,5.7523,20.9407,,94.8005,,,2.52
3662574,Rio Branco,Rio Branco,Rio Branco,Río Branco,Rio Branco,Rio Branco,Риу-Бранку,-9.97472,-67.81,153.0,America/Rio_Branco,PPLA,admin1,BR,BRA,Brazil,01,Acre,419452,,,,,,,,,,,,22338.4766,0.76,,,87.8959,5.7523,20.9407,,94.8005,,,2.52
3456814,Montes Claros,Montes Claros,Montes Claros,Montes Claros,Montes Claros,Montes Claros,Монтис-Кларус,-16.735,-43.86167,686.0,America/Sao_Paulo,PPL,no,BR,BRA,Brazil,15,Minas Gerais,414240,,,,,,,,,,,,22338.4766,0.76,,,87.8959,5.7523,20.9407,,94.8005,,,2.52
3453643,Piracicaba,Piracicaba,Piracicaba,Piracicaba,Piracicaba,Piracicaba,Пирасикаба,-22.72528,-47.64917,530.0,America/Sao_Paulo,PPLA2,no,BR,BRA,Brazil,27,São Paulo,407252,,,,,,,,,,,,22338.4766,0.76,,,87.8959,5.7523,20.9407,,94.8005,,,2.52
3402655,Caruaru,Caruaru,Caruaru,Caruaru,Caruaru,Caruaru,Каруару,-8.28333,-35.97611,568.0,America/Recife,PPLA2,no,BR,BRA,Brazil,30,Pernambuco,402290,,,,,,,,,,,,22338.4766,0.76,,,87.8959,5.7523,20.9407,,94.8005,,,2.52
3464739,Diadema,Diadema,Diadema,Diadema,Diadema,Diadema,Диадема,-23.68611,-46.62278,784.0,America/Sao_Paulo,PPL,no,BR,BRA,Brazil,27,São Paulo,393237,,,,,,,,,,,,22338.4766,0.76,,,87.8959,5.7523,20.9407,,94.8005,,,2.52
3466998,Carapicuíba,Carapicuiba,Carapicuíba,Carapicuíba,Carapicuíba,Carapicuíba,Carapicuíba,-23.52272,-46.835,762.0,America/Sao_Paulo,PPLA2,no,BR,BRA,Brazil,27,São Paulo,386984,,,,,,,,,,,,22338.4766,0.76,,,87.8959,5.7523,20.9407,,94.8005,,,2.52
3392242,Petrolina,Petrolina,Petrolina,Petrolina,Petrolina,Petrolina,Петролина,-9.39861,-40.50083,383.0,America/Recife,PPL,no,BR,BRA,Brazil,30,Pernambuco,386791,,,,,,,,,,,,22338.4766,0.76,,,87.8959,5.7523,20.9407,,94.8005,,,2.52
3470044,Betim,Betim,Betim,Betim,Betim,Betim,Бетин,-19.96778,-44.19833,834.0,America/Sao_Paulo,PPL,no,BR,BRA,Brazil,15,Minas Gerais,384000,,,,,,,,,,,,22338.4766,0.76,,,87.8959,5.7523,20.9407,,94.8005,,,2.52
3466537,Caxias do Sul,Caxias do Sul,Caxias do Sul,Caxias do Sul,Caxias do Sul,Caxias do Sul,Кашиас-ду-Сул,-29.16806,-51.17944,787.0,America/Sao_Paulo,PPL,no,BR,BRA,Brazil,23,Rio Grande do Sul,381270,,,,,,,,,,,,22338.4766,0.76,,,87.8959,5.7523,20.9407,,94.8005,,,2.52
3470279,Bauru,Bauru,Bauru,Bauru,Bauru,Bauru,Бауру,-22.31472,-49.06056,530.0,America/Sao_Paulo,PPLA2,no,BR,BRA,Brazil,27,São Paulo,379297,,,,,,,,,,,,22338.4766,0.76,,,87.8959,5.7523,20.9407,,94.8005,,,2.52
3460644,Itaquaquecetuba,Itaquaquecetuba,Itaquaquecetuba,Itaquaquecetuba,Itaquaquecetuba,Itaquaquecetuba,Itaquaquecetuba,-23.48611,-46.34833,748.0,America/Sao_Paulo,PPL,no,BR,BRA,Brazil,27,São Paulo,369275,,,,,,,,,,,,22338.4766,0.76,,,87.8959,5.7523,20.9407,,94.8005,,,2.52
3469968,Blumenau,Blumenau,Blumenau,Blumenau,Blumenau,Blumenau,Блуменау,-26.91944,-49.06611,20.0,America/Sao_Paulo,PPLA2,no,BR,BRA,Brazil,26,Santa Catarina,361855,,,,,,,,,,,,22338.4766,0.76,,,87.8959,5.7523,20.9407,,94.8005,,,2.52
3463011,Franca,Franca,Franca,Franca,Franca,Franca,Франко,-20.53861,-47.40083,1002.0,America/Sao_Paulo,PPLA2,no,BR,BRA,Brazil,27,São Paulo,358539,,,,,,,,,,,,22338.4766,0.76,,,87.8959,5.7523,20.9407,,94.8005,,,2.52
3403642,Campina Grande,Campina Grande,Campina Grande,Campina Grande,Campina Grande,Campina Grande,Кампина-Гранде,-7.23056,-35.88111,508.0,America/Fortaleza,PPL,no,BR,BRA,Brazil,17,Paraíba,348936,,,,,,,,,,,,22338.4766,0.76,,,87.8959,5.7523,20.9407,,94.8005,,,2.52
3445839,Uberaba,Uberaba,Uberaba,Uberaba,Uberaba,Uberaba,Убераба,-19.74833,-47.93194,772.0,America/Sao_Paulo,PPL,no,BR,BRA,Brazil,15,Minas Gerais,337836,,,,,,,,,,,,22338.4766,0.76,,,87.8959,5.7523,20.9407,,94.8005,,,2.52
3451353,Ribeirão das Neves,Ribeirao das Neves,Ribeirão das Neves,Ribeirão das Neves,Ribeirão das Neves,Ribeirão das Neves,Ribeirão das Neves,-19.76694,-44.08667,804.0,America/Sao_Paulo,PPL,no,BR,BRA,Brazil,15,Minas Gerais,329794,,,,,,,,,,,,22338.4766,0.76,,,87.8959,5.7523,20.9407,,94.8005,,,2.52
3457001,Mogi das Cruzes,Mogi das Cruzes,Mogi das Cruzes,Mogi das Cruzes,Mogi das Cruzes,Mogi das Cruzes,Mogi das Cruzes,-23.52278,-46.18833,759.0,America/Sao_Paulo,PPL,no,BR,BRA,Brazil,27,São Paulo,325746,,,,,,,,,,,,22338.4766,0.76,,,87.8959,5.7523,20.9407,,94.8005,,,2.52
3454244,Pelotas,Pelotas,Pelotas,Pelotas,Pelotas,Pelotas,Пелотас,-31.76997,-52.34101,15.0,America/Sao_Paulo,PPL,no,BR,BRA,Brazil,23,Rio Grande do Sul,320674,,,,,,,,,,,,22338.4766,0.76,,,87.8959,5.7523,20.9407,,94.8005,,,2.52
3472287,Anápolis,Anapolis,Anápolis,Anápolis,Anápolis,Anápolis,Анаполис,-16.32667,-48.95278,1003.0,America/Sao_Paulo,PPL,no,BR,BRA,Brazil,29,Goiás,319587,,,,,,,,,,,,22338.4766,0.76,,,87.8959,5.7523,20.9407,,94.8005,,,2.52
3446682,Taubaté,Taubate,Taubaté,Taubaté,Taubaté,Taubaté,Таубате,-23.02639,-45.55528,589.0,America/Sao_Paulo,PPLA2,no,BR,BRA,Brazil,27,São Paulo,317915,,,,,,,,,,,,22338.4766,0.76,,,87.8959,5.7523,20.9407,,94.8005,,,2.52
3444924,Vitória,Vitoria,Vitória,Vitória,Vitória,Vitória,Витория,-20.31944,-40.33778,16.0,America/Sao_Paulo,PPLA,admin1,BR,BRA,Brazil,08,Espírito Santo,312656,,,,,,,,,,,,22338.4766,0.76,,,87.8959,5.7523,20.9407,,94.8005,,,2.52
3457671,Maringá,Maringa,Maringá,Maringá,Maringá,Maringá,Маринга,-23.42528,-51.93861,556.0,America/Sao_Paulo,PPLA2,no,BR,BRA,Brazil,18,Paraná,311724,,,,,,,,,,,,22338.4766,0.76,,,87.8959,5.7523,20.9407,,94.8005,,,2.52
3474574,Palmas,Palmas,Palmas,Palmas,Palmas,Palmas,Палмас,-10.16745,-48.32766,271.0,America/Araguaina,PPLA,admin1,BR,BRA,Brazil,31,Tocantins,306296,,,,,,,,,,,,22338.4766,0.76,,,87.8959,5.7523,20.9407,,94.8005,,,2.52
3453186,Ponta Grossa,Ponta Grossa,Ponta Grossa,Ponta Grossa,Ponta Grossa,Ponta Grossa,Понта-Гроса,-25.095,-50.16194,954.0,America/Sao_Paulo,PPL,no,BR,BRA,Brazil,18,Paraná,292177,,,,,,,,,,,,22338.4766,0.76,,,87.8959,5.7523,20.9407,,94.8005,,,2.52
3458575,Limeira,Limeira,Limeira,Limeira,Limeira,Limeira,Лимейра,-22.56472,-47.40167,582.0,America/Sao_Paulo,PPL,no,BR,BRA,Brazil,27,São Paulo,291869,,,,,,,,,,,,22338.4766,0.76,,,87.8959,5.7523,20.9407,,94.8005,,,2.52
3466489,Ceilândia,Ceilandia,Ceilândia,Ceilândia,Ceilândia,Ceilândia,Ceilândia,-15.8091,-48.13096,1159.0,America/Sao_Paulo,PPL,no,BR,BRA,Brazil,07,Federal District,287023,,,,,,,,,,,,22338.4766,0.76,,,87.8959,5.7523,20.9407,,94.8005,,,2.52
3447259,Sumaré,Sumare,Sumaré,Sumaré,Sumaré,Sumaré,Сумаре,-22.82194,-47.26694,573.0,America/Sao_Paulo,PPLA2,no,BR,BRA,Brazil,27,São Paulo,286211,,,,,,,,,,,,22338.4766,0.76,,,87.8959,5.7523,20.9407,,94.8005,,,2.52
3445156,Viamão,Viamao,Viamão,Viamão,Viamão,Viamão,Виаман,-30.08111,-51.02333,108.0,America/Sao_Paulo,PPL,no,BR,BRA,Brazil,23,Rio Grande do Sul,285269,,,,,,,,,,,,22338.4766,0.76,,,87.8959,5.7523,20.9407,,94.8005,,,2.52
3450083,Santa Maria,Santa Maria,Santa Maria,Santa Maria,Santa Maria,Santa Maria,Санта-Мария,-29.68417,-53.80694,146.0,America/Sao_Paulo,PPLA2,no,BR,BRA,Brazil,23,Rio Grande do Sul,283677,,,,,,,,,,,,22338.4766,0.76,,,87.8959,5.7523,20.9407,,94.8005,,,2.52
3444876,Volta Redonda,Volta Redonda,Volta Redonda,Volta Redonda,Volta Redonda,Volta Redonda,Волта-Редонда,-22.52306,-44.10417,400.0,America/Sao_Paulo,PPL,no,BR,BRA,Brazil,21,Rio de Janeiro,279898,,,,,,,,,,,,22338.4766,0.76,,,87.8959,5.7523,20.9407,,94.8005,,,2.52
3454031,Petrópolis,Petropolis,Petrópolis,Petrópolis,Petrópolis,Petrópolis,Петрополис,-22.505,-43.17861,819.0,America/Sao_Paulo,PPL,no,BR,BRA,Brazil,21,Rio de Janeiro,272691,,,,,,,,,,,,22338.4766,0.76,,,87.8959,5.7523,20.9407,,94.8005,,,2.52
6317872,Parauapebas,Parauapebas,Parauapebas,Parauapebas,Parauapebas,Parauapebas,Парауапебас,-6.0675,-49.90222,169.0,America/Belem,PPL,no,BR,BRA,Brazil,16,Pará,267836,,,,,,,,,,,,22338.4766,0.76,,,87.8959,5.7523,20.9407,,94.8005,,,2.52
3462089,Gravataí,Gravatai,Gravataí,Gravataí,Gravataí,Gravataí,Граватаи,-29.94218,-50.99278,41.0,America/Sao_Paulo,PPLA2,no,BR,BRA,Brazil,23,Rio Grande do Sul,265074,,,,,,,,,,,,22338.4766,0.76,,,87.8959,5.7523,20.9407,,94.8005,,,2.52
3394682,Mossoró,Mossoro,Mossoró,Mossoró,Mossoró,Mossoró,Мосоро,-5.1875,-37.34417,24.0,America/Fortaleza,PPL,no,BR,BRA,Brazil,22,Rio Grande do Norte,264577,,,,,,,,,,,,22338.4766,0.76,,,87.8959,5.7523,20.9407,,94.8005,,,2.52
3450909,Rondonópolis,Rondonopolis,Rondonópolis,Rondonópolis,Rondonópolis,Rondonópolis,Rondonópolis,-16.47083,-54.63556,230.0,America/Cuiaba,PPL,no,BR,BRA,Brazil,14,Mato Grosso,259167,,,,,,,,,,,,22338.4766,0.76,,,87.8959,5.7523,20.9407,,94.8005,,,2.52
3463030,Foz do Iguaçu,Foz do Iguacu,Foz do Iguaçu,Foz de Iguazu,Foz do Iguaçu,Foz do Iguaçu,Фос-ду-Игуасу,-25.54778,-54.58806,179.0,America/Sao_Paulo,PPLA2,no,BR,BRA,Brazil,18,Paraná,258248,,,,,,,,,,,,22338.4766,0.76,,,87.8959,5.7523,20.9407,,94.8005,,,2.52
3466779,Cascavel,Cascavel,Cascavel,Cascavel,Cascavel,Cascavel,Каскавел,-24.95583,-53.45528,786.0,America/Sao_Paulo,PPL,no,BR,BRA,Brazil,18,Paraná,257172,,,,,,,,,,,,22338.4766,0.76,,,87.8959,5.7523,20.9407,,94.8005,,,2.52
3461311,Indaiatuba,Indaiatuba,Indaiatuba,Indaiatuba,Indaiatuba,Indaiatuba,Индаятуба,-23.08842,-47.2119,630.0,America/Sao_Paulo,PPLA2,no,BR,BRA,Brazil,27,São Paulo,256223,,,,,,,,,,,,22338.4766,0.76,,,87.8959,5.7523,20.9407,,94.8005,,,2.52
3456068,Novo Hamburgo,Novo Hamburgo,Novo Hamburgo,Novo Hamburgo,Novo Hamburgo,Novo Hamburgo,Нову-Амбургу,-29.67833,-51.13056,56.0,America/Sao_Paulo,PPL,no,BR,BRA,Brazil,23,Rio Grande do Sul,253841,,,,,,,,,,,,22338.4766,0.76,,,87.8959,5.7523,20.9407,,94.8005,,,2.52
3444914,Vitória da Conquista,Vitoria da Conquista,Vitória da Conquista,Vitória da Conquista,Vitória da Conquista,Vitória da Conquista,Витория-да-Конкиста,-14.86611,-40.83944,876.0,America/Bahia,PPL,no,BR,BRA,Brazil,05,Bahia,253137,,,,,,,,,,,,22338.4766,0.76,,,87.8959,5.7523,20.9407,,94.8005,,,2.52
3462315,Governador Valadares,Governador Valadares,Governador Valadares,Governador Valadares,Governador Valadares,Governador Valadares,Говернадор-Валадарес,-18.85111,-41.94944,169.0,America/Sao_Paulo,PPL,no,BR,BRA,Brazil,15,Minas Gerais,250878,,,,,,,,,,,,22338.4766,0.76,,,87.8959,5.7523,20.9407,,94.8005,,,2.52
3465927,Colombo,Colombo,Colombo,Colombo,Colombo,Colombo,Коломбо,-25.29167,-49.22417,1007.0,America/Sao_Paulo,PPLA2,no,BR,BRA,Brazil,18,Paraná,246540,,,,,,,,,,,,22338.4766,0.76,,,87.8959,5.7523,20.9407,,94.8005,,,2.52
3388441,São José de Ribamar,Sao Jose de Ribamar,São José de Ribamar,São José de Ribamar,São José de Ribamar,São José de Ribamar,São José de Ribamar,-2.55572,-44.05992,6.0,America/Fortaleza,PPL,no,BR,BRA,Brazil,13,Maranhão,244579,,,,,,,,,,,,22338.4766,0.76,,,87.8959,5.7523,20.9407,,94.8005,,,2.52
3458142,Magé,Mage,Magé,Magé,Magé,Magé,Маже,-22.65278,-43.04056,8.0,America/Sao_Paulo,PPL,no,BR,BRA,Brazil,21,Rio de Janeiro,244092,,,,,,,,,,,,22338.4766,0.76,,,87.8959,5.7523,20.9407,,94.8005,,,2.52
3407327,Arapiraca,Arapiraca,Arapiraca,Arapiraca,Arapiraca,Arapiraca,Arapiraca,-9.7525,-36.66111,275.0,America/Maceio,PPL,no,BR,BRA,Brazil,02,Alagoas,243661,,,,,,,,,,,,22338.4766,0.76,,,87.8959,5.7523,20.9407,,94.8005,,,2.52
3457692,Marília,Marilia,Marília,Marília,Marília,Marília,Марилья,-22.21389,-49.94583,655.0,America/Sao_Paulo,PPLA2,no,BR,BRA,Brazil,27,São Paulo,240590,,,,,,,,,,,,22338.4766,0.76,,,87.8959,5.7523,20.9407,,94.8005,,,2.52
3460950,Itaboraí,Itaborai,Itaboraí,Itaboraí,Itaboraí,Itaboraí,Итабораи,-22.74444,-42.85944,47.0,America/Sao_Paulo,PPL,no,BR,BRA,Brazil,21,Rio de Janeiro,240040,,,,,,,,,,,,22338.4766,0.76,,,87.8959,5.7523,20.9407,,94.8005,,,2.52
3468615,Cabo Frio,Cabo Frio,Cabo Frio,Cabo Frío,Cabo Frio,Cabo Frio,Кабу-Фриу,-22.88717,-42.02622,13.0,America/Sao_Paulo,PPL,no,BR,BRA,Brazil,21,Rio de Janeiro,238166,,,,,,,,,,,,22338.4766,0.76,,,87.8959,5.7523,20.9407,,94.8005,,,2.52
3395473,Maracanaú,Maracanau,Maracanaú,Maracanaú,Maracanaú,Maracanaú,Maracanaú,-3.87667,-38.62556,54.0,America/Fortaleza,PPL,no,BR,BRA,Brazil,06,Ceará,234509,,,,,,,,,,,,22338.4766,0.76,,,87.8959,5.7523,20.9407,,94.8005,,,2.52
3464688,Divinópolis,Divinopolis,Divinópolis,Divinópolis,Divinópolis,Divinópolis,Дивинополис,-20.14355,-44.89065,747.0,America/Sao_Paulo,PPL,no,BR,BRA,Brazil,15,Minas Gerais,231091,,,,,,,,,,,,22338.4766,0.76,,,87.8959,5.7523,20.9407,,94.8005,,,2.52
3461144,Ipatinga,Ipatinga,Ipatinga,Ipatinga,Ipatinga,Ipatinga,Ипатинга,-19.46833,-42.53667,229.0,America/Sao_Paulo,PPL,no,BR,BRA,Brazil,15,Minas Gerais,228746,,,,,,,,,,,,22338.4766,0.76,,,87.8959,5.7523,20.9407,,94.8005,,,2.52
3447624,Sete Lagoas,Sete Lagoas,Sete Lagoas,Sete Lagoas,Sete Lagoas,Sete Lagoas,Сети-Лагоас,-19.46583,-44.24667,764.0,America/Sao_Paulo,PPL,no,BR,BRA,Brazil,15,Minas Gerais,227397,,,,,,,,,,,,22338.4766,0.76,,,87.8959,5.7523,20.9407,,94.8005,,,2.52
3451055,Rio Verde,Rio Verde,Rio Verde,Rio Verde,Rio Verde,Rio Verde,Риу-Верди,-17.79806,-50.92806,721.0,America/Sao_Paulo,PPL,no,BR,BRA,Brazil,29,Goiás,225696,,,,,,,,,,,,22338.4766,0.76,,,87.8959,5.7523,20.9407,,94.8005,,,2.52
6316328,Águas Lindas de Goiás,Aguas Lindas de Goias,Águas Lindas de Goiás,Águas Lindas de Goiás,Águas Lindas de Goiás,Águas Lindas de Goiás,Águas Lindas de Goiás,-15.76194,-48.28167,1084.0,America/Sao_Paulo,PPL,no,BR,BRA,Brazil,29,Goiás,225693,,,,,,,,,,,,22338.4766,0.76,,,87.8959,5.7523,20.9407,,94.8005,,,2.52
3452324,Presidente Prudente,Presidente Prudente,Presidente Prudente,Presidente Prudente,Presidente Prudente,Presidente Prudente,Президенти-Пруденти,-22.12556,-51.38889,462.0,America/Sao_Paulo,PPL,no,BR,BRA,Brazil,27,São Paulo,225668,,,,,,,,,,,,22338.4766,0.76,,,87.8959,5.7523,20.9407,,94.8005,,,2.52
3397147,Juazeiro do Norte,Juazeiro do Norte,Juazeiro do Norte,Juazeiro do Norte,Juazeiro do Norte,Juazeiro do Norte,Жуазейру-ду-Норти,-7.21306,-39.31528,413.0,America/Fortaleza,PPL,no,BR,BRA,Brazil,06,Ceará,225230,,,,,,,,,,,,22338.4766,0.76,,,87.8959,5.7523,20.9407,,94.8005,,,2.52
3450144,Santa Luzia,Santa Luzia,Santa Luzia,Santa Luzia,Santa Luzia,Santa Luzia,Санта-Лусия,-19.76972,-43.85139,760.0,America/Sao_Paulo,PPL,no,BR,BRA,Brazil,15,Minas Gerais,219132,,,,,,,,,,,,22338.4766,0.76,,,87.8959,5.7523,20.9407,,94.8005,,,2.52
3398269,Imperatriz,Imperatriz,Imperatriz,Imperatriz,Imperatriz,Imperatriz,Императрис,-5.52639,-47.49167,127.0,America/Fortaleza,PPL,no,BR,BRA,Brazil,13,Maranhão,218106,,,,,,,,,,,,22338.4766,0.76,,,87.8959,5.7523,20.9407,,94.8005,,,2.52
3404545,Cabo de Santo Agostinho,Cabo de Santo Agostinho,Cabo de Santo Agostinho,Cabo de Santo Agostinho,Cabo de Santo Agostinho,Cabo de Santo Agostinho,Cabo de Santo Agostinho,-8.28773,-35.02925,35.0,America/Recife,PPLA2,no,BR,BRA,Brazil,30,Pernambuco,216969,,,,,,,,,,,,22338.4766,0.76,,,87.8959,5.7523,20.9407,,94.8005,,,2.52
6318696,Sinop,Sinop,Sinop,Sinop,Sinop,Sinop,Sinop,-11.86417,-55.5025,378.0,America/Cuiaba,PPL,no,BR,BRA,Brazil,14,Mato Grosso,216029,,,,,,,,,,,,22338.4766,0.76,,,87.8959,5.7523,20.9407,,94.8005,,,2.52
3460370,Jacareí,Jacarei,Jacareí,Jacareí,Jacareí,Jacareí,Жакареи,-23.30528,-45.96583,574.0,America/Sao_Paulo,PPL,no,BR,BRA,Brazil,27,São Paulo,213110,,,,,,,,,,,,22338.4766,0.76,,,87.8959,5.7523,20.9407,,94.8005,,,2.52
3457708,Maricá,Marica,Maricá,Maricá,Maricá,Maricá,Maricá,-22.91944,-42.81861,10.0,America/Sao_Paulo,PPLA2,no,BR,BRA,Brazil,21,Rio de Janeiro,211986,,,,,,,,,,,,22338.4766,0.76,,,87.8959,5.7523,20.9407,,94.8005,,,2.52
3458329,Luziânia,Luziania,Luziânia,Luziânia,Luziânia,Luziânia,Luziânia,-16.2525,-47.95028,932.0,America/Sao_Paulo,PPL,no,BR,BRA,Brazil,29,Goiás,209129,,,,,,,,,,,,22338.4766,0.76,,,87.8959,5.7523,20.9407,,94.8005,,,2.52
3460949,Itabuna,Itabuna,Itabuna,Itabuna,Itabuna,Itabuna,Итабуна,-14.78556,-39.28028,69.0,America/Bahia,PPL,no,BR,BRA,Brazil,05,Bahia,205660,,,,,,,,,,,,22338.4766,0.76,,,87.8959,5.7523,20.9407,,94.8005,,,2.52
3449319,São Carlos,Sao Carlos,São Carlos,São Carlos,São Carlos,São Carlos,Сан-Карлос,-22.0175,-47.89083,838.0,America/Sao_Paulo,PPL,no,BR,BRA,Brazil,27,São Paulo,205035,,,,,,,,,,,,22338.4766,0.76,,,87.8959,5.7523,20.9407,,94.8005,,,2.52
6317464,Lauro de Freitas,Lauro de Freitas,Lauro de Freitas,Lauro de Freitas,Lauro de Freitas,Lauro de Freitas,Lauro de Freitas,-12.89444,-38.32722,10.0,America/Bahia,PPL,no,BR,BRA,Brazil,05,Bahia,203331,,,,,,,,,,,,22338.4766,0.76,,,87.8959,5.7523,20.9407,,94.8005,,,2.52
3387296,Sobral,Sobral,Sobral,Sobral,Sobral,Sobral,Собрал,-3.68611,-40.34972,75.0,America/Fortaleza,PPL,no,BR,BRA,Brazil,06,Ceará,203023,,,,,,,,,,,,22338.4766,0.76,,,87.8959,5.7523,20.9407,,94.8005,,,2.52
3451234,Rio Claro,Rio Claro,Rio Claro,Rio Claro,Rio Claro,Rio Claro,Rio Claro,-22.41139,-47.56139,617.0,America/Sao_Paulo,PPL,no,BR,BRA,Brazil,27,São Paulo,201418,,,,,,,,,,,,22338.4766,0.76,,,87.8959,5.7523,20.9407,,94.8005,,,2.52
3448742,São José,Sao Jose,São José,São José,São José,São José,São José,-28.21344,-49.16383,164.0,America/Sao_Paulo,PPL,no,BR,BRA,Brazil,26,Santa Catarina,200000,,,,,,,,,,,,22338.4766,0.76,,,87.8959,5.7523,20.9407,,94.8005,,,2.52
6318856,Valparaíso de Goiás,Valparaiso de Goias,Valparaíso de Goiás,Valparaíso de Goiás,Valparaíso de Goiás,Valparaíso de Goiás,Valparaíso de Goiás,-16.06583,-47.97861,1078.0,America/Sao_Paulo,PPL,no,BR,BRA,Brazil,29,Goiás,198861,,,,,,,,,,,,22338.4766,0.76,,,87.8959,5.7523,20.9407,,94.8005,,,2.52
3402591,Castanhal,Castanhal,Castanhal,Castanhal,Castanhal,Castanhal,Кастаньял,-1.29389,-47.92639,46.0,America/Belem,PPL,no,BR,BRA,Brazil,16,Pará,192256,,,,,,,,,,,,22338.4766,0.76,,,87.8959,5.7523,20.9407,,94.8005,,,2.52
3456166,Nova Friburgo,Nova Friburgo,Nova Friburgo,Nueva Friburgo,Nova Friburgo,Nova Friburgo,Нова-Фрибургу,-22.28194,-42.53111,858.0,America/Sao_Paulo,PPLA2,no,BR,BRA,Brazil,21,Rio de Janeiro,191158,,,,,,,,,,,,22338.4766,0.76,,,87.8959,5.7523,20.9407,,94.8005,,,2.52
11184422,Planaltina,Planaltina,Planaltina,Planaltina,Planaltina,Planaltina,Planaltina,-15.61791,-47.64874,987.0,America/Sao_Paulo,PPL,no,BR,BRA,Brazil,07,Federal District,189412,,,,,,,,,,,,22338.4766,0.76,,,87.8959,5.7523,20.9407,,94.8005,,,2.52
3389353,Santarém,Santarem,Santarém,Santarém,Santarém,Santarém,Сантарен,-2.44306,-54.70833,51.0,America/Santarem,PPL,no,BR,BRA,Brazil,16,Pará,189047,,,,,,,,,,,,22338.4766,0.76,,,87.8959,5.7523,20.9407,,94.8005,,,2.52
3468031,Camaçari,Camacari,Camaçari,Camaçari,Camaçari,Camaçari,Камасари,-12.6975,-38.32417,29.0,America/Bahia,PPL,no,BR,BRA,Brazil,05,Bahia,188758,,,,,,,,,,,,22338.4766,0.76,,,87.8959,5.7523,20.9407,,94.8005,,,2.52
3450404,Santa Bárbara d'Oeste,Santa Barbara d'Oeste,Santa Bárbara d'Oeste,Santa Bárbara d'Oeste,Santa Bárbara d'Oeste,Santa Bárbara d'Oeste,Santa Bárbara d'Oeste,-22.75361,-47.41361,565.0,America/Sao_Paulo,PPL,no,BR,BRA,Brazil,27,São Paulo,188000,,,,,,,,,,,,22338.4766,0.76,,,87.8959,5.7523,20.9407,,94.8005,,,2.52
3451138,Rio Grande,Rio Grande,Rio Grande,Rio Grande,Rio Grande,Rio Grande,Рио-Гранде,-32.035,-52.09861,7.0,America/Sao_Paulo,PPL,no,BR,BRA,Brazil,23,Rio Grande do Sul,187838,,,,,,,,,,,,22338.4766,0.76,,,87.8959,5.7523,20.9407,,94.8005,,,2.52
3468376,Cachoeiro de Itapemirim,Cachoeiro de Itapemirim,Cachoeiro de Itapemirim,Cachoeiro de Itapemirim,Cachoeiro de Itapemirim,Cachoeiro de Itapemirim,Кашуэйру-ди-Итапемирин,-20.84889,-41.11278,39.0,America/Sao_Paulo,PPL,no,BR,BRA,Brazil,08,Espírito Santo,187019,,,,,,,,,,,,22338.4766,0.76,,,87.8959,5.7523,20.9407,,94.8005,,,2.52
3460102,Jaraguá do Sul,Jaragua do Sul,Jaraguá do Sul,Jaraguá do Sul,Jaraguá do Sul,Jaraguá do Sul,Жарагуа-ду-Сул,-26.48611,-49.06667,27.0,America/Sao_Paulo,PPL,no,BR,BRA,Brazil,26,Santa Catarina,182660,,,,,,,,,,,,22338.4766,0.76,,,87.8959,5.7523,20.9407,,94.8005,,,2.52
3461879,Guarapuava,Guarapuava,Guarapuava,Guarapuava,Guarapuava,Guarapuava,Гуарапуава,-25.39048,-51.46541,1090.0,America/Sao_Paulo,PPL,no,BR,BRA,Brazil,18,Paraná,182093,,,,,,,,,,,,22338.4766,0.76,,,87.8959,5.7523,20.9407,,94.8005,,,2.52
3454857,Passo Fundo,Passo Fundo,Passo Fundo,Passo Fundo,Passo Fundo,Passo Fundo,Пасу-Фунду,-28.26278,-52.40667,689.0,America/Sao_Paulo,PPL,no,BR,BRA,Brazil,23,Rio Grande do Sul,179529,,,,,,,,,,,,22338.4766,0.76,,,87.8959,5.7523,20.9407,,94.8005,,,2.52
3472177,Angra dos Reis,Angra dos Reis,Angra dos Reis,Angra dos Reis,Angra dos Reis,Angra dos Reis,Ангра-дус-Рейс,-23.00667,-44.31806,8.0,America/Sao_Paulo,PPLA2,no,BR,BRA,Brazil,21,Rio de Janeiro,179120,,,,,,,,,,,,22338.4766,0.76,,,87.8959,5.7523,20.9407,,94.8005,,,2.52
3469092,Bragança Paulista,Braganca Paulista,Bragança Paulista,Bragança Paulista,Bragança Paulista,Bragança Paulista,Браганса-Паулиста,-22.9527,-46.54418,831.0,America/Sao_Paulo,PPLA2,no,BR,BRA,Brazil,27,São Paulo,176811,,,,,,,,,,,,22338.4766,0.76,,,87.8959,5.7523,20.9407,,94.8005,,,2.52
3446606,Teresópolis,Teresopolis,Teresópolis,Teresópolis,Teresópolis,Teresópolis,Терезополис,-22.4167,-42.97822,936.0,America/Sao_Paulo,PPL,no,BR,BRA,Brazil,21,Rio de Janeiro,176692,,,,,,,,,,,,22338.4766,0.76,,,87.8959,5.7523,20.9407,,94.8005,,,2.52
3461563,Ibirité,Ibirite,Ibirité,Ibirité,Ibirité,Ibirité,Ибирите,-20.02194,-44.05889,883.0,America/Sao_Paulo,PPL,no,BR,BRA,Brazil,15,Minas Gerais,170537,,,,,,,,,,,,22338.4766,0.76,,,87.8959,5.7523,20.9407,,94.8005,,,2.52
3471859,Araçatuba,Aracatuba,Araçatuba,Araçatuba,Araçatuba,Araçatuba,Арасатуба,-21.20889,-50.43278,392.0,America/Sao_Paulo,PPL,no,BR,BRA,Brazil,27,São Paulo,170024,,,,,,,,,,,,22338.4766,0.76,,,87.8959,5.7523,20.9407,,94.8005,,,2.52
3453303,Poços de Caldas,Pocos de Caldas,Poços de Caldas,Poços de Caldas,Poços de Caldas,Poços de Caldas,Посус-ди-Калдас,-21.78778,-46.56139,1222.0,America/Sao_Paulo,PPLA2,no,BR,BRA,Brazil,15,Minas Gerais,168641,,,,,,,,,,,,22338.4766,0.76,,,87.8959,5.7523,20.9407,,94.8005,,,2.52
3471766,Araraquara,Araraquara,Araraquara,Araraquara,Araraquara,Araraquara,Араракуара,-21.79444,-48.17556,677.0,America/Sao_Paulo,PPL,no,BR,BRA,Brazil,27,São Paulo,168468,,,,,,,,,,,,22338.4766,0.76,,,87.8959,5.7523,20.9407,,94.8005,,,2.52
3452640,Porto Seguro,Porto Seguro,Porto Seguro,Porto Seguro,Porto Seguro,Porto Seguro,Порту-Сегуру,-16.44972,-39.06472,4.0,America/Bahia,PPL,no,BR,BRA,Brazil,05,Bahia,168326,,,,,,,,,,,,22338.4766,0.76,,,87.8959,5.7523,20.9407,,94.8005,,,2.52
3451205,Rio das Ostras,Rio das Ostras,Rio das Ostras,Rio das Ostras,Rio das Ostras,Rio das Ostras,Rio das Ostras,-22.52694,-41.945,11.0,America/Sao_Paulo,PPL,no,BR,BRA,Brazil,21,Rio de Janeiro,168099,,,,,,,,,,,,22338.4766,0.76,,,87.8959,5.7523,20.9407,,94.8005,,,2.52
3458498,Linhares,Linhares,Linhares,Linhares,Linhares,Linhares,Линьярис,-19.39111,-40.07222,36.0,America/Sao_Paulo,PPL,no,BR,BRA,Brazil,08,Espírito Santo,166786,,,,,,,,,,,,22338.4766,0.76,,,87.8959,5.7523,20.9407,,94.8005,,,2.52
3462980,Francisco Morato,Francisco Morato,Francisco Morato,Francisco Morato,Francisco Morato,Francisco Morato,Francisco Morato,-23.28167,-46.74528,803.0,America/Sao_Paulo,PPL,no,BR,BRA,Brazil,27,São Paulo,165139,,,,,,,,,,,,22338.4766,0.76,,,87.8959,5.7523,20.9407,,94.8005,,,2.52
3458930,Lages,Lages,Lages,Lages,Lages,Lages,Лажис,-27.81611,-50.32611,917.0,America/Sao_Paulo,PPL,no,BR,BRA,Brazil,26,Santa Catarina,164676,,,,,,,,,,,,22338.4766,0.76,,,87.8959,5.7523,20.9407,,94.8005,,,2.52
3464460,Dourados,Dourados,Dourados,Dourados,Dourados,Dourados,Дорадус,-22.22111,-54.80556,445.0,America/Campo_Grande,PPL,no,BR,BRA,Brazil,11,Mato Grosso do Sul,162202,,,,,,,,,,,,22338.4766,0.76,,,87.8959,5.7523,20.9407,,94.8005,,,2.52
3465196,Criciúma,Criciuma,Criciúma,Criciúma,Criciúma,Criciúma,Крисиума,-28.6775,-49.36972,50.0,America/Sao_Paulo,PPL,no,BR,BRA,Brazil,26,Santa Catarina,161954,,,,,,,,,,,,22338.4766,0.76,,,87.8959,5.7523,20.9407,,94.8005,,,2.52
3466296,Chapecó,Chapeco,Chapecó,Chapecó,Chapecó,Chapecó,Шапеко,-27.09639,-52.61833,668.0,America/Sao_Paulo,PPL,no,BR,BRA,Brazil,26,Santa Catarina,160157,,,,,,,,,,,,22338.4766,0.76,,,87.8959,5.7523,20.9407,,94.8005,,,2.52
3470583,Barreiras,Barreiras,Barreiras,Barreiras,Barreiras,Barreiras,Баррейрас,-12.15278,-44.99,472.0,America/Bahia,PPL,no,BR,BRA,Brazil,05,Bahia,159734,,,,,,,,,,,,22338.4766,0.76,,,87.8959,5.7523,20.9407,,94.8005,,,2.52
3454783,Patos de Minas,Patos de Minas,Patos de Minas,Patos de Minas,Patos de Minas,Patos de Minas,Патус-ди-Минас,-18.57889,-46.51806,842.0,America/Sao_Paulo,PPL,no,BR,BRA,Brazil,15,Minas Gerais,159235,,,,,,,,,,,,22338.4766,0.76,,,87.8959,5.7523,20.9407,,94.8005,,,2.52
3460748,Itapecerica da Serra,Itapecerica da Serra,Itapecerica da Serra,Itapecerica da Serra,Itapecerica da Serra,Itapecerica da Serra,Итапесерика-да-Серра,-23.71694,-46.84917,901.0,America/Sao_Paulo,PPL,no,BR,BRA,Brazil,27,São Paulo,158522,,,,,,,,,,,,22338.4766,0.76,,,87.8959,5.7523,20.9407,,94.8005,,,2.52
3408424,Abaetetuba,Abaetetuba,Abaetetuba,Abaetetuba,Abaetetuba,Abaetetuba,Abaetetuba,-1.71806,-48.8825,9.0,America/Belem,PPL,no,BR,BRA,Brazil,16,Pará,158188,,,,,,,,,,,,22338.4766,0.76,,,87.8959,5.7523,20.9407,,94.8005,,,2.52
3460728,Itapetininga,Itapetininga,Itapetininga,Itapetininga,Itapetininga,Itapetininga,Итапетининга,-23.59167,-48.05306,670.0,America/Sao_Paulo,PPL,no,BR,BRA,Brazil,27,São Paulo,157790,,,,,,,,,,,,22338.4766,0.76,,,87.8959,5.7523,20.9407,,94.8005,,,2.52
3402383,Caxias,Caxias,Caxias,Caxias,Caxias,Caxias,Кашиас,-4.85889,-43.35611,83.0,America/Fortaleza,PPL,no,BR,BRA,Brazil,13,Maranhão,156973,,,,,,,,,,,,22338.4766,0.76,,,87.8959,5.7523,20.9407,,94.8005,,,2.52
3460845,Itajaí,Itajai,Itajaí,Itajaí,Itajaí,Itajaí,Итажаи,-26.90778,-48.66194,6.0,America/Sao_Paulo,PPL,no,BR,BRA,Brazil,26,Santa Catarina,155716,,,,,,,,,,,,22338.4766,0.76,,,87.8959,5.7523,20.9407,,94.8005,,,2.52
3461408,Ilhéus,Ilheus,Ilhéus,Ilhéus,Ilhéus,Ilhéus,Ильеус,-14.79909,-39.03228,-9999.0,America/Bahia,PPL,no,BR,BRA,Brazil,05,Bahia,155499,,,,,,,,,,,,22338.4766,0.76,,,87.8959,5.7523,20.9407,,94.8005,,,2.52
3457000,Mogi Guaçu,Mogi Guacu,Mogi Guaçu,Mogi Guaçu,Mogi Guaçu,Mogi Guaçu,Можи-Гуасу,-22.3677,-46.94552,612.0,America/Sao_Paulo,PPL,no,BR,BRA,Brazil,27,São Paulo,153658,,,,,,,,,,,,22338.4766,0.76,,,87.8959,5.7523,20.9407,,94.8005,,,2.52
3452525,Pouso Alegre,Pouso Alegre,Pouso Alegre,Pouso Alegre,Pouso Alegre,Pouso Alegre,Позу-Алегри,-22.23,-45.93639,838.0,America/Sao_Paulo,PPL,no,BR,BRA,Brazil,15,Minas Gerais,152217,,,,,,,,,,,,22338.4766,0.76,,,87.8959,5.7523,20.9407,,94.8005,,,2.52
3471697,Araucária,Araucaria,Araucária,Araucária,Araucária,Araucária,Араукария,-25.59306,-49.41028,886.0,America/Sao_Paulo,PPL,no,BR,BRA,Brazil,18,Paraná,151666,,,,,,,,,,,,22338.4766,0.76,,,87.8959,5.7523,20.9407,,94.8005,,,2.52
3399058,Garanhuns,Garanhuns,Garanhuns,Garanhuns,Garanhuns,Garanhuns,Гараньюнс,-8.88202,-36.50216,950.0,America/Recife,PPL,no,BR,BRA,Brazil,30,Pernambuco,151064,,,,,,,,,,,,22338.4766,0.76,,,87.8959,5.7523,20.9407,,94.8005,,,2.52
3469136,Botucatu,Botucatu,Botucatu,Botucatu,Botucatu,Botucatu,Ботукату,-22.88583,-48.445,837.0,America/Sao_Paulo,PPLA2,no,BR,BRA,Brazil,27,São Paulo,148130,,,,,,,,,,,,22338.4766,0.76,,,87.8959,5.7523,20.9407,,94.8005,,,2.52
3395503,Marabá,Maraba,Marabá,Marabá,Marabá,Marabá,Мараба,-5.38146,-49.13232,95.0,America/Belem,PPL,no,BR,BRA,Brazil,16,Pará,145860,,,,,,,,,,,,22338.4766,0.76,,,87.8959,5.7523,20.9407,,94.8005,,,2.52
3471335,Atibaia,Atibaia,Atibaia,Atibaia,Atibaia,Atibaia,Атибая,-23.11694,-46.55028,817.0,America/Sao_Paulo,PPLA2,no,BR,BRA,Brazil,27,São Paulo,144088,,,,,,,,,,,,22338.4766,0.76,,,87.8959,5.7523,20.9407,,94.8005,,,2.52
3458266,Macaé,Macae,Macaé,Macaé,Macaé,Macaé,Макаэ,-22.38484,-41.78324,8.0,America/Sao_Paulo,PPL,no,BR,BRA,Brazil,21,Rio de Janeiro,143029,,,,,,,,,,,,22338.4766,0.76,,,87.8959,5.7523,20.9407,,94.8005,,,2.52
3446038,Trindade,Trindade,Trindade,Trindade,Trindade,Trindade,Триндади,-16.64944,-49.48889,768.0,America/Sao_Paulo,PPL,no,BR,BRA,Brazil,29,Goiás,142431,,,,,,,,,,,,22338.4766,0.76,,,87.8959,5.7523,20.9407,,94.8005,,,2.52
3468879,Brusque,Brusque,Brusque,Brusque,Brusque,Brusque,Бруски,-27.09795,-48.91281,22.0,America/Sao_Paulo,PPL,no,BR,BRA,Brazil,26,Santa Catarina,141385,,,,,,,,,,,,22338.4766,0.76,,,87.8959,5.7523,20.9407,,94.8005,,,2.52
3455070,Paranaguá,Paranagua,Paranaguá,Paranaguá,Paranaguá,Paranaguá,Паранагуа,-25.51626,-48.52537,12.0,America/Sao_Paulo,PPL,no,BR,BRA,Brazil,18,Paraná,141013,,,,,,,,,,,,22338.4766,0.76,,,87.8959,5.7523,20.9407,,94.8005,,,2.52
3393001,Parnaíba,Parnaiba,Parnaíba,Parnaíba,Parnaíba,Parnaíba,Парнаиба,-2.90472,-41.77667,9.0,America/Fortaleza,PPL,no,BR,BRA,Brazil,20,Piauí,138008,,,,,,,,,,,,22338.4766,0.76,,,87.8959,5.7523,20.9407,,94.8005,,,2.52
3471715,Araruama,Araruama,Araruama,Araruama,Araruama,Araruama,Араруама,-22.87278,-42.34306,20.0,America/Sao_Paulo,PPL,no,BR,BRA,Brazil,21,Rio de Janeiro,137773,,,,,,,,,,,,22338.4766,0.76,,,87.8959,5.7523,20.9407,,94.8005,,,2.52
3460535,Itu,Itu,Itu,Itu,Itu,Itu,Иту,-23.26417,-47.29917,594.0,America/Sao_Paulo,PPL,no,BR,BRA,Brazil,27,São Paulo,137586,,,,,,,,,,,,22338.4766,0.76,,,87.8959,5.7523,20.9407,,94.8005,,,2.52
3445487,Varginha,Varginha,Varginha,Varginha,Varginha,Varginha,Варжинья,-21.55139,-45.43028,887.0,America/Sao_Paulo,PPL,no,BR,BRA,Brazil,15,Minas Gerais,136467,,,,,,,,,,,,22338.4766,0.76,,,87.8959,5.7523,20.9407,,94.8005,,,2.52
3467736,Campo Largo,Campo Largo,Campo Largo,Campo Largo,Campo Largo,Campo Largo,Кампу-Ларгу,-25.45955,-49.53014,965.0,America/Sao_Paulo,PPL,no,BR,BRA,Brazil,18,Paraná,136327,,,,,,,,,,,,22338.4766,0.76,,,87.8959,5.7523,20.9407,,94.8005,,,2.52
3471758,Araras,Araras,Araras,Araras,Araras,Araras,Арарас,-22.35694,-47.38417,634.0,America/Sao_Paulo,PPL,no,BR,BRA,Brazil,27,São Paulo,135331,,,,,,,,,,,,22338.4766,0.76,,,87.8959,5.7523,20.9407,,94.8005,,,2.52
3403697,Cametá,Cameta,Cametá,Cametá,Cametá,Cametá,Cametá,-2.24444,-49.49583,11.0,America/Belem,PPL,no,BR,BRA,Brazil,16,Pará,134184,,,,,,,,,,,,22338.4766,0.76,,,87.8959,5.7523,20.9407,,94.8005,,,2.52
3384987,Vitória de Santo Antão,Vitoria de Santo Antao,Vitória de Santo Antão,Vitória de Santo Antão,Vitória de Santo Antão,Vitória de Santo Antão,Витория-де-Санту-Антан,-8.11806,-35.29139,156.0,America/Recife,PPL,no,BR,BRA,Brazil,30,Pernambuco,134084,,,,,,,,,,,,22338.4766,0.76,,,87.8959,5.7523,20.9407,,94.8005,,,2.52
3460005,Jaú,Jau,Jaú,Jaú,Jaú,Jaú,Жау,-22.29639,-48.55778,528.0,America/Sao_Paulo,PPL,no,BR,BRA,Brazil,27,São Paulo,133497,,,,,,,,,,,,22338.4766,0.76,,,87.8959,5.7523,20.9407,,94.8005,,,2.52
3450269,Santa Cruz do Sul,Santa Cruz do Sul,Santa Cruz do Sul,Santa Cruz do Sul,Santa Cruz do Sul,Santa Cruz do Sul,Санта-Крус-ду-Сул,-29.7175,-52.42583,69.0,America/Sao_Paulo,PPL,no,BR,BRA,Brazil,23,Rio Grande do Sul,133230,,,,,,,,,,,,22338.4766,0.76,,,87.8959,5.7523,20.9407,,94.8005,,,2.52
3448031,Sapucaia do Sul,Sapucaia do Sul,Sapucaia do Sul,Sapucaia do Sul,Sapucaia do Sul,Sapucaia do Sul,Сапукая,-29.81782,-51.14551,59.0,America/Sao_Paulo,PPL,no,BR,BRA,Brazil,23,Rio Grande do Sul,132107,,,,,,,,,,,,22338.4766,0.76,,,87.8959,5.7523,20.9407,,94.8005,,,2.52
3397909,Itapipoca,Itapipoca,Itapipoca,Itapipoca,Itapipoca,Itapipoca,Итапипока,-3.49444,-39.57861,103.0,America/Fortaleza,PPL,no,BR,BRA,Brazil,06,Ceará,131123,,,,,,,,,,,,22338.4766,0.76,,,87.8959,5.7523,20.9407,,94.8005,,,2.52
3471910,Apucarana,Apucarana,Apucarana,Apucarana,Apucarana,Apucarana,Apucarana,-23.55083,-51.46083,871.0,America/Sao_Paulo,PPL,no,BR,BRA,Brazil,18,Paraná,130134,,,,,,,,,,,,22338.4766,0.76,,,87.8959,5.7523,20.9407,,94.8005,,,2.52
3459943,Jequié,Jequie,Jequié,Jequié,Jequié,Jequié,Жекие,-13.85875,-40.08512,223.0,America/Bahia,PPL,no,BR,BRA,Brazil,05,Bahia,127475,,,,,,,,,,,,22338.4766,0.76,,,87.8959,5.7523,20.9407,,94.8005,,,2.52
3447651,Sertãozinho,Sertaozinho,Sertãozinho,Sertãozinho,Sertãozinho,Sertãozinho,Sertãozinho,-21.13778,-47.99028,547.0,America/Sao_Paulo,PPL,no,BR,BRA,Brazil,27,São Paulo,126887,,,,,,,,,,,,22338.4766,0.76,,,87.8959,5.7523,20.9407,,94.8005,,,2.52
3407882,Altamira,Altamira,Altamira,Altamira,Altamira,Altamira,Альтамира,-3.20333,-52.20639,101.0,America/Santarem,PPL,no,BR,BRA,Brazil,16,Pará,126279,,,,,,,,,,,,22338.4766,0.76,,,87.8959,5.7523,20.9407,,94.8005,,,2.52
3470858,Barbacena,Barbacena,Barbacena,Barbacena,Barbacena,Barbacena,Barbacena,-21.22583,-43.77361,1171.0,America/Sao_Paulo,PPL,no,BR,BRA,Brazil,15,Minas Gerais,125317,,,,,,,,,,,,22338.4766,0.76,,,87.8959,5.7523,20.9407,,94.8005,,,2.52
3461888,Guarapari,Guarapari,Guarapari,Guarapari,Guarapari,Guarapari,Гуарапари,-20.67182,-40.50196,5.0,America/Sao_Paulo,PPL,no,BR,BRA,Brazil,08,Espírito Santo,124656,,,,,,,,,,,,22338.4766,0.76,,,87.8959,5.7523,20.9407,,94.8005,,,2.52
3925033,Ji Paraná,Ji Parana,Ji Paraná,Ji Paraná,Ji Paraná,Ji Paraná,Ji Paraná,-10.88528,-61.95167,157.0,America/Porto_Velho,PPL,no,BR,BRA,Brazil,24,Rondônia,124333,,,,,,,,,,,,22338.4766,0.76,,,87.8959,5.7523,20.9407,,94.8005,,,2.52
3460899,Itaguaí,Itaguai,Itaguaí,Itaguaí,Itaguaí,Itaguaí,Итагуаи,-22.85222,-43.77528,31.0,America/Sao_Paulo,PPL,no,BR,BRA,Brazil,21,Rio de Janeiro,123980,,,,,,,,,,,,22338.4766,0.76,,,87.8959,5.7523,20.9407,,94.8005,,,2.52
3448519,São Mateus,Sao Mateus,São Mateus,São Mateus,São Mateus,São Mateus,Сан-Матеус,-18.72011,-39.85891,38.0,America/Sao_Paulo,PPL,no,BR,BRA,Brazil,08,Espírito Santo,123752,,,,,,,,,,,,22338.4766,0.76,,,87.8959,5.7523,20.9407,,94.8005,,,2.52
3445679,Uruguaiana,Uruguaiana,Uruguaiana,Uruguaiana,Uruguaiana,Uruguaiana,Уругуаяна,-29.75472,-57.08833,79.0,America/Sao_Paulo,PPL,no,BR,BRA,Brazil,23,Rio Grande do Sul,123480,,,,,,,,,,,,22338.4766,0.76,,,87.8959,5.7523,20.9407,,94.8005,,,2.52
3467081,Caraguatatuba,Caraguatatuba,Caraguatatuba,Caraguatatuba,Caraguatatuba,Caraguatatuba,Карагуататуба,-23.62028,-45.41306,2.0,America/Sao_Paulo,PPLA2,no,BR,BRA,Brazil,27,São Paulo,123389,,,,,,,,,,,,22338.4766,0.76,,,87.8959,5.7523,20.9407,,94.8005,,,2.52
3397967,Itaituba,Itaituba,Itaituba,Itaituba,Itaituba,Itaituba,Itaituba,-4.27611,-55.98361,13.0,America/Santarem,PPL,no,BR,BRA,Brazil,16,Pará,123314,,,,,,,,,,,,22338.4766,0.76,,,87.8959,5.7523,20.9407,,94.8005,,,2.52
3470073,Bento Gonçalves,Bento Goncalves,Bento Gonçalves,Bento Gonçalves,Bento Gonçalves,Bento Gonçalves,Bento Gonçalves,-29.17139,-51.51917,673.0,America/Sao_Paulo,PPL,no,BR,BRA,Brazil,23,Rio Grande do Sul,123151,,,,,,,,,,,,22338.4766,0.76,,,87.8959,5.7523,20.9407,,94.8005,,,2.52
3405006,Bragança,Braganca,Bragança,Bragança,Bragança,Bragança,Bragança,-1.05361,-46.76556,16.0,America/Belem,PPL,no,BR,BRA,Brazil,16,Pará,123082,,,,,,,,,,,,22338.4766,0.76,,,87.8959,5.7523,20.9407,,94.8005,,,2.52
3446692,Tatuí,Tatui,Tatuí,Tatuí,Tatuí,Tatuí,Татуи,-23.35556,-47.85694,642.0,America/Sao_Paulo,PPLA2,no,BR,BRA,Brazil,27,São Paulo,122967,,,,,,,,,,,,22338.4766,0.76,,,87.8959,5.7523,20.9407,,94.8005,,,2.52
3472766,Alagoinhas,Alagoinhas,Alagoinhas,Alagoinhas,Alagoinhas,Alagoinhas,Алагоиньяс,-12.13556,-38.41917,158.0,America/Bahia,PPL,no,BR,BRA,Brazil,05,Bahia,122688,,,,,,,,,,,,22338.4766,0.76,,,87.8959,5.7523,20.9407,,94.8005,,,2.52
3460598,Itatiba,Itatiba,Itatiba,Itatiba,Itatiba,Itatiba,Itatiba,-23.00583,-46.83889,782.0,America/Sao_Paulo,PPLA2,no,BR,BRA,Brazil,27,São Paulo,122581,,,,,,,,,,,,22338.4766,0.76,,,87.8959,5.7523,20.9407,,94.8005,,,2.52
3470451,Barretos,Barretos,Barretos,Barretos,Barretos,Barretos,Барретус,-20.55722,-48.56778,538.0,America/Sao_Paulo,PPL,no,BR,BRA,Brazil,27,São Paulo,122485,,,,,,,,,,,,22338.4766,0.76,,,87.8959,5.7523,20.9407,,94.8005,,,2.52
3398352,Igarassu,Igarassu,Igarassu,Igarassu,Igarassu,Igarassu,Игарасу,-7.83417,-34.90639,22.0,America/Recife,PPL,no,BR,BRA,Brazil,30,Pernambuco,122312,,,,,,,,,,,,22338.4766,0.76,,,87.8959,5.7523,20.9407,,94.8005,,,2.52
6318714,Sorriso,Sorriso,Sorriso,Sorriso,Sorriso,Sorriso,Sorriso,-12.54528,-55.71139,363.0,America/Cuiaba,PPL,no,BR,BRA,Brazil,14,Mato Grosso,120985,,,,,,,,,,,,22338.4766,0.76,,,87.8959,5.7523,20.9407,,94.8005,,,2.52
3446370,Toledo,Toledo,Toledo,Toledo,Toledo,Toledo,Толедо,-24.71361,-53.74306,562.0,America/Sao_Paulo,PPL,no,BR,BRA,Brazil,18,Paraná,119313,,,,,,,,,,,,22338.4766,0.76,,,87.8959,5.7523,20.9407,,94.8005,,,2.52
3471798,Arapongas,Arapongas,Arapongas,Arapongas,Arapongas,Arapongas,Арапонгас,-23.41944,-51.42444,805.0,America/Sao_Paulo,PPL,no,BR,BRA,Brazil,18,Paraná,119138,,,,,,,,,,,,22338.4766,0.76,,,87.8959,5.7523,20.9407,,94.8005,,,2.52
3453535,Piraquara,Piraquara,Piraquara,Piraquara,Piraquara,Piraquara,Piraquara,-25.44227,-49.06795,910.0,America/Sao_Paulo,PPL,no,BR,BRA,Brazil,18,Paraná,118730,,,,,,,,,,,,22338.4766,0.76,,,87.8959,5.7523,20.9407,,94.8005,,,2.52
3447854,Senador Canedo,Senador Canedo,Senador Canedo,Senador Canedo,Senador Canedo,Senador Canedo,Senador Canedo,-16.70806,-49.09306,800.0,America/Sao_Paulo,PPL,no,BR,BRA,Brazil,29,Goiás,118451,,,,,,,,,,,,22338.4766,0.76,,,87.8959,5.7523,20.9407,,94.8005,,,2.52
3461859,Guaratinguetá,Guaratingueta,Guaratinguetá,Guaratinguetá,Guaratinguetá,Guaratinguetá,Гуаратингета,-22.81639,-45.1925,545.0,America/Sao_Paulo,PPL,no,BR,BRA,Brazil,27,São Paulo,118044,,,,,,,,,,,,22338.4766,0.76,,,87.8959,5.7523,20.9407,,94.8005,,,2.52
3471830,Araguari,Araguari,Araguari,Araguari,Araguari,Araguari,Арагуари,-18.64722,-48.18722,925.0,America/Sao_Paulo,PPL,no,BR,BRA,Brazil,15,Minas Gerais,117808,,,,,,,,,,,,22338.4766,0.76,,,87.8959,5.7523,20.9407,,94.8005,,,2.52
3445782,Umuarama,Umuarama,Umuarama,Umuarama,Umuarama,Umuarama,Umuarama,-23.76639,-53.325,443.0,America/Sao_Paulo,PPL,no,BR,BRA,Brazil,18,Paraná,117095,,,,,,,,,,,,22338.4766,0.76,,,87.8959,5.7523,20.9407,,94.8005,,,2.52
3463140,Formosa,Formosa,Formosa,Formosa,Formosa,Formosa,Formosa,-15.53722,-47.33444,915.0,America/Sao_Paulo,PPL,no,BR,BRA,Brazil,29,Goiás,115901,,,,,,,,,,,,22338.4766,0.76,,,87.8959,5.7523,20.9407,,94.8005,,,2.52
3466692,Catanduva,Catanduva,Catanduva,Catanduva,Catanduva,Catanduva,Катандува,-21.13778,-48.97278,517.0,America/Sao_Paulo,PPL,no,BR,BRA,Brazil,27,São Paulo,115791,,,,,,,,,,,,22338.4766,0.76,,,87.8959,5.7523,20.9407,,94.8005,,,2.52
3466696,Catalão,Catalao,Catalão,Catalão,Catalão,Catalão,Catalão,-18.16583,-47.94639,843.0,America/Sao_Paulo,PPL,no,BR,BRA,Brazil,29,Goiás,114427,,,,,,,,,,,,22338.4766,0.76,,,87.8959,5.7523,20.9407,,94.8005,,,2.52
3402000,Codó,Codo,Codó,Codó,Codó,Codó,Codó,-4.45528,-43.88556,44.0,America/Fortaleza,PPL,no,BR,BRA,Brazil,13,Maranhão,114275,,,,,,,,,,,,22338.4766,0.76,,,87.8959,5.7523,20.9407,,94.8005,,,2.52
3463690,Eunápolis,Eunapolis,Eunápolis,Eunápolis,Eunápolis,Eunápolis,Eunápolis,-16.3775,-39.58028,173.0,America/Bahia,PPL,no,BR,BRA,Brazil,05,Bahia,113710,,,,,,,,,,,,22338.4766,0.76,,,87.8959,5.7523,20.9407,,94.8005,,,2.52
3460960,Itabira,Itabira,Itabira,Itabira,Itabira,Itabira,Итабира,-19.61917,-43.22694,794.0,America/Sao_Paulo,PPL,no,BR,BRA,Brazil,15,Minas Gerais,113343,,,,,,,,,,,,22338.4766,0.76,,,87.8959,5.7523,20.9407,,94.8005,,,2.52
3392734,Paulo Afonso,Paulo Afonso,Paulo Afonso,Paulo Afonso,Paulo Afonso,Paulo Afonso,Паулу-Афонсу,-9.40611,-38.21472,245.0,America/Bahia,PPL,no,BR,BRA,Brazil,05,Bahia,112870,,,,,,,,,,,,22338.4766,0.76,,,87.8959,5.7523,20.9407,,94.8005,,,2.52
6318738,Tangará da Serra,Tangara da Serra,Tangará da Serra,Tangará da Serra,Tangará da Serra,Tangará da Serra,Tangará da Serra,-14.61944,-57.48583,392.0,America/Cuiaba,PPL,no,BR,BRA,Brazil,14,Mato Grosso,112547,,,,,,,,,,,,22338.4766,0.76,,,87.8959,5.7523,20.9407,,94.8005,,,2.52
3397893,Itacoatiara,Itacoatiara,Itacoatiara,Itacoatiara,Itacoatiara,Itacoatiara,Itacoatiara,-3.14306,-58.44417,19.0,America/Manaus,PPL,no,BR,BRA,Brazil,04,Amazonas,112520,,,,,,,,,,,,22338.4766,0.76,,,87.8959,5.7523,20.9407,,94.8005,,,2.52
3454847,Passos,Passos,Passos,Passos,Passos,Passos,Пассос,-20.71889,-46.60972,751.0,America/Sao_Paulo,PPL,no,BR,BRA,Brazil,15,Minas Gerais,111939,,,,,,,,,,,,22338.4766,0.76,,,87.8959,5.7523,20.9407,,94.8005,,,2.52
3471691,Araxá,Araxa,Araxá,Araxá,Araxá,Araxá,Араша,-19.59333,-46.94056,1002.0,America/Sao_Paulo,PPL,no,BR,BRA,Brazil,15,Minas Gerais,111691,,,,,,,,,,,,22338.4766,0.76,,,87.8959,5.7523,20.9407,,94.8005,,,2.52
