[{"name":"Dumai","lat":1.66711,"lon":101.44316,"population":331832,"iso_a3":"IDN","country":"Indonesia","is_capital":false,"name_en":"Dumai","name_es":"Dumai","name_fr":"Dumai","name_it":"Dumai","name_ru":"Думай","elevation":7.0,"timezone":"Asia/Jakarta","admin1_name":"Riau"},{"name":"Balai Pungut","lat":1.05949,"lon":101.29054,"population":56452,"iso_a3":"IDN","country":"Indonesia","is_capital":false,"name_en":"Balai Pungut","name_es":"Balai Pungut","name_fr":"Balai Pungut","name_it":"Balai Pungut","name_ru":"Balai Pungut","elevation":16.0,"timezone":"Asia/Jakarta","admin1_name":"Riau"},{"name":"Tanjung Balai","lat":1.00005,"lon":103.42186,"population":48953,"iso_a3":"IDN","country":"Indonesia","is_capital":false,"name_en":"Tanjung Balai","name_es":"Tanjung Balai","name_fr":"Tanjung Balai","name_it":"Tanjung Balai","name_ru":"Tanjung Balai","elevation":9.0,"timezone":"Asia/Jakarta","admin1_name":"Riau Islands"},{"name":"Kampung Kangkar Teberau","lat":1.532,"lon":103.7549,"population":412373,"iso_a3":"MYS","country":"Malaysia","is_capital":false,"name_en":"Kampung Kangkar Teberau","name_es":"Kampung Kangkar Teberau","name_fr":"Kampung Kangkar Teberau","name_it":"Kampung Kangkar Teberau","name_ru":"Kampung Kangkar Teberau","elevation":10.0,"timezone":"Asia/Kuala_Lumpur","admin1_name":"Johor"},{"name":"Seremban","lat":2.7297,"lon":101.9381,"population":372917,"iso_a3":"MYS","country":"Malaysia","is_capital":false,"name_en":"Seremban","name_es":"Seremban","name_fr":"Seremban","name_it":"Seremban","name_ru":"Серембан","elevation":59.0,"timezone":"Asia/Kuala_Lumpur","admin1_name":"Negeri Sembilan"},{"name":"Kluang","lat":2.03046,"lon":103.31689,"population":323762,"iso_a3":"MYS","country":"Malaysia","is_capital":false,"name_en":"Kluang","name_es":"Kluang","name_fr":"Kluang","name_it":"Kluang","name_ru":"Kluang","elevation":51.0,"timezone":"Asia/Kuala_Lumpur","admin1_name":"Johor"},{"name":"Muar","lat":2.0442,"lon":102.5689,"population":314776,"iso_a3":"MYS","country":"Malaysia","is_capital":false,"name_en":"Muar town","name_es":"Muar town","name_fr":"Muar town","name_it":"Muar town","name_ru":"Муар","elevation":6.0,"timezone":"Asia/Kuala_Lumpur","admin1_name":"Johor"},{"name":"Bandar Seri Alam","lat":1.50434,"lon":103.87525,"population":220000,"iso_a3":"MYS","country":"Malaysia","is_capital":false,"name_en":"Seri Alam City","name_es":"Seri Alam City","name_fr":"Seri Alam City","name_it":"Seri Alam City","name_ru":"Seri Alam City","elevation":23.0,"timezone":"Asia/Kuala_Lumpur","admin1_name":"Johor"},{"name":"Sepang","lat":2.6931,"lon":101.7498,"population":212050,"iso_a3":"MYS","country":"Malaysia","is_capital":false,"name_en":"Sepang","name_es":"Sepang","name_fr":"Sepang","name_it":"Sepang","name_ru":"Сепанг","elevation":12.0,"timezone":"Asia/Kuala_Lumpur","admin1_name":"Selangor"},{"name":"Batu Pahat","lat":1.8548,"lon":102.9325,"population":156236,"iso_a3":"MYS","country":"Malaysia","is_capital":false,"name_en":"Batu Pahat","name_es":"Batu Pahat","name_fr":"Batu Pahat","name_it":"Batu Pahat","name_ru":"Batu Pahat","elevation":7.0,"timezone":"Asia/Kuala_Lumpur","admin1_name":"Johor"},{"name":"Port Dickson","lat":2.52462,"lon":101.79651,"population":119300,"iso_a3":"MYS","country":"Malaysia","is_capital":false,"name_en":"Port Dickson","name_es":"Port Dickson","name_fr":"Port Dickson","name_it":"Port Dickson","name_ru":"Port Dickson","elevation":-9999.0,"timezone":"Asia/Kuala_Lumpur","admin1_name":"Negeri Sembilan"},{"name":"Perling","lat":1.48061,"lon":103.68381,"population":101263,"iso_a3":"MYS","country":"Malaysia","is_capital":false,"name_en":"Perling","name_es":"Perling","name_fr":"Perling","name_it":"Perling","name_ru":"Perling","elevation":7.0,"timezone":"Asia/Kuala_Lumpur","admin1_name":"Johor"},{"name":"Pagoh","lat":2.1495,"lon":102.7704,"population":95202,"iso_a3":"MYS","country":"Malaysia","is_capital":false,"name_en":"Pagoh","name_es":"Pagoh","name_fr":"Pagoh","name_it":"Pagoh","name_ru":"Pagoh","elevation":8.0,"timezone":"Asia/Kuala_Lumpur","admin1_name":"Johor"},{"name":"Parit Sulung","lat":1.976,"lon":102.8835,"population":82399,"iso_a3":"MYS","country":"Malaysia","is_capital":false,"name_en":"Parit Sulung","name_es":"Parit Sulung","name_fr":"Parit Sulung","name_it":"Parit Sulung","name_ru":"Parit Sulung","elevation":8.0,"timezone":"Asia/Kuala_Lumpur","admin1_name":"Johor"},{"name":"Ulu Tiram","lat":1.6,"lon":103.81667,"population":75350,"iso_a3":"MYS","country":"Malaysia","is_capital":false,"name_en":"Ulu Tiram","name_es":"Ulu Tiram","name_fr":"Ulu Tiram","name_it":"Ulu Tiram","name_ru":"Ulu Tiram","elevation":28.0,"timezone":"Asia/Kuala_Lumpur","admin1_name":"Johor"},{"name":"Taman Senai","lat":1.6006,"lon":103.6419,"population":73176,"iso_a3":"MYS","country":"Malaysia","is_capital":false,"name_en":"Taman Senai","name_es":"Taman Senai","name_fr":"Taman Senai","name_it":"Taman Senai","name_ru":"Сенаи","elevation":26.0,"timezone":"Asia/Kuala_Lumpur","admin1_name":"Johor"},{"name":"Segamat","lat":2.5148,"lon":102.8158,"population":69816,"iso_a3":"MYS","country":"Malaysia","is_capital":false,"name_en":"Segamat","name_es":"Segamat","name_fr":"Segamat","name_it":"Segamat","name_ru":"Segamat","elevation":35.0,"timezone":"Asia/Kuala_Lumpur","admin1_name":"Johor"},{"name":"Taman Senawang Indah","lat":2.691,"lon":101.989,"population":64497,"iso_a3":"MYS","country":"Malaysia","is_capital":false,"name_en":"Senawang","name_es":"Senawang","name_fr":"Senawang","name_it":"Senawang","name_ru":"Senawang","elevation":72.0,"timezone":"Asia/Kuala_Lumpur","admin1_name":"Negeri Sembilan"},{"name":"Gelang Patah","lat":1.4484,"lon":103.5873,"population":64375,"iso_a3":"MYS","country":"Malaysia","is_capital":false,"name_en":"Gelang Patah","name_es":"Gelang Patah","name_fr":"Gelang Patah","name_it":"Gelang Patah","name_ru":"Gelang Patah","elevation":11.0,"timezone":"Asia/Kuala_Lumpur","admin1_name":"Johor"},{"name":"Kulai","lat":1.6561,"lon":103.6032,"population":63762,"iso_a3":"MYS","country":"Malaysia","is_capital":false,"name_en":"Kulai","name_es":"Kulai","name_fr":"Kulai","name_it":"Kulai","name_ru":"Kulai","elevation":33.0,"timezone":"Asia/Kuala_Lumpur","admin1_name":"Johor"},{"name":"Seremban 2","lat":2.68982,"lon":101.90766,"population":62000,"iso_a3":"MYS","country":"Malaysia","is_capital":false,"name_en":"Seremban 2","name_es":"Seremban 2","name_fr":"Seremban 2","name_it":"Seremban 2","name_ru":"Seremban 2","elevation":67.0,"timezone":"Asia/Kuala_Lumpur","admin1_name":"Negeri Sembilan"},{"name":"Simpang Renggam","lat":1.825,"lon":103.3107,"population":59033,"iso_a3":"MYS","country":"Malaysia","is_capital":false,"name_en":"Simpang Renggam","name_es":"Simpang Renggam","name_fr":"Simpang Renggam","name_it":"Simpang Renggam","name_ru":"Simpang Renggam","elevation":30.0,"timezone":"Asia/Kuala_Lumpur","admin1_name":"Johor"},{"name":"Kampung Bukit Baharu","lat":2.2152,"lon":102.2851,"population":55656,"iso_a3":"MYS","country":"Malaysia","is_capital":false,"name_en":"Kampung Bukit Baharu","name_es":"Kampung Bukit Baharu","name_fr":"Kampung Bukit Baharu","name_it":"Kampung Bukit Baharu","name_ru":"Kampung Bukit Baharu","elevation":9.0,"timezone":"Asia/Kuala_Lumpur","admin1_name":"Melaka"},{"name":"Kota Tinggi","lat":1.7381,"lon":103.8999,"population":52743,"iso_a3":"MYS","country":"Malaysia","is_capital":false,"name_en":"Kota Tinggi","name_es":"Kota Tinggi","name_fr":"Kota Tinggi","name_it":"Kota Tinggi","name_ru":"Kota Tinggi","elevation":17.0,"timezone":"Asia/Kuala_Lumpur","admin1_name":"Johor"},{"name":"Durian Tunggal","lat":2.3125,"lon":102.2805,"population":42185,"iso_a3":"MYS","country":"Malaysia","is_capital":false,"name_en":"Durian Tunggal","name_es":"Durian Tunggal","name_fr":"Durian Tunggal","name_it":"Durian Tunggal","name_ru":"Durian Tunggal","elevation":12.0,"timezone":"Asia/Kuala_Lumpur","admin1_name":"Melaka"},{"name":"Rompin","lat":2.7083,"lon":102.5047,"population":41931,"iso_a3":"MYS","country":"Malaysia","is_capital":false,"name_en":"Rompin","name_es":"Rompin","name_fr":"Rompin","name_it":"Rompin","name_ru":"Rompin","elevation":52.0,"timezone":"Asia/Kuala_Lumpur","admin1_name":"Negeri Sembilan"},{"name":"Pontian Besar","lat":1.5059,"lon":103.3816,"population":40613,"iso_a3":"MYS","country":"Malaysia","is_capital":false,"name_en":"Pontian Besar","name_es":"Pontian Besar","name_fr":"Pontian Besar","name_it":"Pontian Besar","name_ru":"Pontian Besar","elevation":9.0,"timezone":"Asia/Kuala_Lumpur","admin1_name":"Johor"},{"name":"Bukit Gambir","lat":2.211,"lon":102.6546,"population":40000,"iso_a3":"MYS","country":"Malaysia","is_capital":false,"name_en":"Bukit Gambir","name_es":"Bukit Gambir","name_fr":"Bukit Gambir","name_it":"Bukit Gambir","name_ru":"Bukit Gambir","elevation":12.0,"timezone":"Asia/Kuala_Lumpur","admin1_name":"Johor"},{"name":"Klebang Besar","lat":2.2186,"lon":102.1995,"population":38643,"iso_a3":"MYS","country":"Malaysia","is_capital":false,"name_en":"Klebang Besar","name_es":"Klebang Besar","name_fr":"Klebang Besar","name_it":"Klebang Besar","name_ru":"Klebang Besar","elevation":5.0,"timezone":"Asia/Kuala_Lumpur","admin1_name":"Melaka"},{"name":"Kampung Baharu Nilai","lat":2.8033,"lon":101.7972,"population":38612,"iso_a3":"MYS","country":"Malaysia","is_capital":false,"name_en":"Kampung Baharu Nilai","name_es":"Kampung Baharu Nilai","name_fr":"Kampung Baharu Nilai","name_it":"Kampung Baharu Nilai","name_ru":"Kampung Baharu Nilai","elevation":32.0,"timezone":"Asia/Kuala_Lumpur","admin1_name":"Negeri Sembilan"},{"name":"Kampung Ayer Keroh","lat":2.2654,"lon":102.2801,"population":37716,"iso_a3":"MYS","country":"Malaysia","is_capital":false,"name_en":"Kampung Ayer Keroh","name_es":"Kampung Ayer Keroh","name_fr":"Kampung Ayer Keroh","name_it":"Kampung Ayer Keroh","name_ru":"Kampung Ayer Keroh","elevation":22.0,"timezone":"Asia/Kuala_Lumpur","admin1_name":"Melaka"},{"name":"Tangkak","lat":2.2673,"lon":102.5453,"population":35109,"iso_a3":"MYS","country":"Malaysia","is_capital":false,"name_en":"Tangkak","name_es":"Tangkak","name_fr":"Tangkak","name_it":"Tangkak","name_ru":"Tangkak","elevation":20.0,"timezone":"Asia/Kuala_Lumpur","admin1_name":"Johor"},{"name":"Gerisek","lat":2.2097,"lon":102.7095,"population":33217,"iso_a3":"MYS","country":"Malaysia","is_capital":false,"name_en":"Gerisek","name_es":"Gerisek","name_fr":"Gerisek","name_it":"Gerisek","name_ru":"Gerisek","elevation":14.0,"timezone":"Asia/Kuala_Lumpur","admin1_name":"Johor"},{"name":"Kawasan Penempatan Ulu Sungai Benut","lat":1.7541,"lon":103.2798,"population":32226,"iso_a3":"MYS","country":"Malaysia","is_capital":false,"name_en":"Kawasan Penempatan Ulu Sungai Benut","name_es":"Kawasan Penempatan Ulu Sungai Benut","name_fr":"Kawasan Penempatan Ulu Sungai Benut","name_it":"Kawasan Penempatan Ulu Sungai Benut","name_ru":"Kawasan Penempatan Ulu Sungai Benut","elevation":13.0,"timezone":"Asia/Kuala_Lumpur","admin1_name":"Johor"},{"name":"Taman Pelangi","lat":2.428,"lon":102.6801,"population":32000,"iso_a3":"MYS","country":"Malaysia","is_capital":false,"name_en":"Taman Pelangi","name_es":"Taman Pelangi","name_fr":"Taman Pelangi","name_it":"Taman Pelangi","name_ru":"Taman Pelangi","elevation":39.0,"timezone":"Asia/Kuala_Lumpur","admin1_name":"Johor"},{"name":"Bahau","lat":2.8079,"lon":102.4049,"population":31273,"iso_a3":"MYS","country":"Malaysia","is_capital":false,"name_en":"Bahau","name_es":"Bahau","name_fr":"Bahau","name_it":"Bahau","name_ru":"Bahau","elevation":63.0,"timezone":"Asia/Kuala_Lumpur","admin1_name":"Negeri Sembilan"},{"name":"Bakri","lat":2.0441,"lon":102.6527,"population":30280,"iso_a3":"MYS","country":"Malaysia","is_capital":false,"name_en":"Bakri","name_es":"Bakri","name_fr":"Bakri","name_it":"Bakri","name_ru":"Бакри","elevation":9.0,"timezone":"Asia/Kuala_Lumpur","admin1_name":"Johor"},{"name":"Taman Universiti","lat":1.5331,"lon":103.6155,"population":30000,"iso_a3":"MYS","country":"Malaysia","is_capital":false,"name_en":"Taman Universiti","name_es":"Taman Universiti","name_fr":"Taman Universiti","name_it":"Taman Universiti","name_ru":"Taman Universiti","elevation":37.0,"timezone":"Asia/Kuala_Lumpur","admin1_name":"Johor"},{"name":"Ulu Bedok","lat":1.33333,"lon":103.93333,"population":276990,"iso_a3":"SGP","country":"Singapore","is_capital":false,"name_en":"Ulu Bedok","name_es":"Ulu Bedok","name_fr":"Ulu Bedok","name_it":"Ulu Bedok","name_ru":"Ulu Bedok","elevation":20.0,"timezone":"Asia/Singapore"},{"name":"Jurong Town","lat":1.33417,"lon":103.72278,"population":262730,"iso_a3":"SGP","country":"Singapore","is_capital":false,"name_en":"Jurong Town","name_es":"Jurong Town","name_fr":"Jurong Town","name_it":"Jurong Town","name_ru":"Jurong Town","elevation":20.0,"timezone":"Asia/Singapore"},{"name":"Woodlands","lat":1.43801,"lon":103.78877,"population":255180,"iso_a3":"SGP","country":"Singapore","is_capital":false,"name_en":"Woodlands","name_es":"Woodlands","name_fr":"Woodlands","name_it":"Woodlands","name_ru":"Woodlands","elevation":27.0,"timezone":"Asia/Singapore"},{"name":"Sengkang New Town","lat":1.39167,"lon":103.89444,"population":244600,"iso_a3":"SGP","country":"Singapore","is_capital":false,"name_en":"Sengkang","name_es":"Sengkang","name_fr":"Sengkang","name_it":"Sengkang","name_ru":"Sengkang","elevation":21.0,"timezone":"Asia/Singapore"},{"name":"Choa Chu Kang New Town","lat":1.3825,"lon":103.74972,"population":190890,"iso_a3":"SGP","country":"Singapore","is_capital":false,"name_en":"Choa Chu Kang New Town","name_es":"Choa Chu Kang New Town","name_fr":"Choa Chu Kang New Town","name_it":"Choa Chu Kang New Town","name_ru":"Choa Chu Kang New Town","elevation":28.0,"timezone":"Asia/Singapore"},{"name":"Ang Mo Kio New Town","lat":1.38028,"lon":103.83972,"population":159340,"iso_a3":"SGP","country":"Singapore","is_capital":false,"name_en":"Ang Mo Kio New Town","name_es":"Ang Mo Kio New Town","name_fr":"Ang Mo Kio New Town","name_it":"Ang Mo Kio New Town","name_ru":"Ang Mo Kio New Town","elevation":27.0,"timezone":"Asia/Singapore"},{"name":"Queenstown Estate","lat":1.29417,"lon":103.8025,"population":95930,"iso_a3":"SGP","country":"Singapore","is_capital":false,"name_en":"Queenstown Estate","name_es":"Queenstown Estate","name_fr":"Queenstown Estate","name_it":"Queenstown Estate","name_ru":"Queenstown Estate","elevation":22.0,"timezone":"Asia/Singapore"}]