[{"name":"Bengkulu","lat":-3.80044,"lon":102.26554,"population":373591,"iso_a3":"IDN","country":"Indonesia","is_capital":false,"name_en":"Bengkulu","name_es":"Bengkulu","name_fr":"Bengkulu","name_it":"Bengkulu","name_ru":"Бенгкулу","elevation":19.0,"timezone":"Asia/Jakarta","admin1_name":"Bengkulu"},{"name":"Lubuklinggau","lat":-3.2945,"lon":102.8614,"population":234166,"iso_a3":"IDN","country":"Indonesia","is_capital":false,"name_en":"Lubuklinggau","name_es":"Lubuklinggau","name_fr":"Lubuklinggau","name_it":"Lubuklinggau","name_ru":"Lubuklinggau","elevation":140.0,"timezone":"Asia/Jakarta","admin1_name":"South Sumatra"},{"name":"Pagar Alam","lat":-4.02506,"lon":103.24694,"population":70386,"iso_a3":"IDN","country":"Indonesia","is_capital":false,"name_en":"Pagar Alam","name_es":"Pagar Alam","name_fr":"Pagar Alam","name_it":"Pagar Alam","name_ru":"Pagar Alam","elevation":720.0,"timezone":"Asia/Jakarta","admin1_name":"South Sumatra"},{"name":"Lahat","lat":-3.78514,"lon":103.54279,"population":65906,"iso_a3":"IDN","country":"Indonesia","is_capital":false,"name_en":"Lahat","name_es":"Lahat","name_fr":"Lahat","name_it":"Lahat","name_ru":"Lahat","elevation":115.0,"timezone":"Asia/Jakarta","admin1_name":"South Sumatra"},{"name":"Tanjungagung","lat":-3.93728,"lon":103.80465,"population":53117,"iso_a3":"IDN","country":"Indonesia","is_capital":false,"name_en":"Tanjungagung","name_es":"Tanjungagung","name_fr":"Tanjungagung","name_it":"Tanjungagung","name_ru":"Tanjungagung","elevation":129.0,"timezone":"Asia/Jakarta","admin1_name":"South Sumatra"},{"name":"Curup","lat":-3.4703,"lon":102.5207,"population":46245,"iso_a3":"IDN","country":"Indonesia","is_capital":false,"name_en":"Curup","name_es":"Curup","name_fr":"Curup","name_it":"Curup","name_ru":"Curup","elevation":630.0,"timezone":"Asia/Jakarta","admin1_name":"Bengkulu"}]