[{"name":"Linxia Chengguanzhen","lat":35.60028,"lon":103.20639,"population":274466,"iso_a3":"CHN","country":"China","is_capital":false,"name_en":"Linxia","name_es":"Linxia","name_fr":"Linxia","name_it":"Linxia","name_ru":"Линься","elevation":1893.0,"timezone":"Asia/Shanghai","admin1_name":"Gansu"},{"name":"Nianbo","lat":36.48,"lon":102.41639,"population":260184,"iso_a3":"CHN","country":"China","is_capital":false,"name_en":"Haidong","name_es":"Haidong","name_fr":"Haidong","name_it":"Haidong","name_ru":"Haidong","elevation":1991.0,"timezone":"Asia/Shanghai","admin1_name":"Qinghai"},{"name":"Tongren","lat":35.51483,"lon":102.016,"population":103700,"iso_a3":"CHN","country":"China","is_capital":false,"name_en":"Tongren","name_es":"Tongren","name_fr":"Tongren","name_it":"Tongren","name_ru":"Tongren","elevation":2506.0,"timezone":"Asia/Shanghai","admin1_name":"Qinghai"},{"name":"Lushar","lat":36.48416,"lon":101.56328,"population":67153,"iso_a3":"CHN","country":"China","is_capital":false,"name_en":"Lushar","name_es":"Lushar","name_fr":"Lushar","name_it":"Lushar","name_ru":"Lushar","elevation":2738.0,"timezone":"Asia/Shanghai","admin1_name":"Qinghai"},{"name":"Hezuo","lat":34.98556,"lon":102.90944,"population":59148,"iso_a3":"CHN","country":"China","is_capital":false,"name_en":"Hezuo","name_es":"Hezuo","name_fr":"Hezuo","name_it":"Hezuo","name_ru":"Hezuo","elevation":2898.0,"timezone":"Asia/Shanghai","admin1_name":"Gansu"}]