[{"name":"Kabin Buri","lat":13.95114,"lon":101.71769,"population":140056,"iso_a3":"THA","country":"Thailand","is_capital":false,"name_en":"Kabin Buri","name_es":"Kabin Buri","name_fr":"Kabin Buri","name_it":"Kabin Buri","name_ru":"Kabin Buri","elevation":21.0,"timezone":"Asia/Bangkok","admin1_name":"Prachin Buri"},{"name":"Nakhon Ratchasima","lat":14.97066,"lon":102.10196,"population":126391,"iso_a3":"THA","country":"Thailand","is_capital":false,"name_en":"Nakhon Ratchasima","name_es":"Nakhon Ratchasima","name_fr":"Nakhon Ratchasima","name_it":"Nakhon Ratchasima","name_ru":"Накхонратчасима","elevation":187.0,"timezone":"Asia/Bangkok","admin1_name":"Nakhon Ratchasima"},{"name":"Khon Kaen","lat":16.44671,"lon":102.833,"population":114459,"iso_a3":"THA","country":"Thailand","is_capital":false,"name_en":"Khon Kaen","name_es":"Khon Kaen","name_fr":"Khon Kaen","name_it":"Khon Kaen","name_ru":"Кхонкэн","elevation":167.0,"timezone":"Asia/Bangkok","admin1_name":"Khon Kaen"},{"name":"Si Maha Phot","lat":13.96597,"lon":101.51303,"population":100563,"iso_a3":"THA","country":"Thailand","is_capital":false,"name_en":"Si Maha Phot","name_es":"Si Maha Phot","name_fr":"Si Maha Phot","name_it":"Si Maha Phot","name_ru":"Si Maha Phot","elevation":11.0,"timezone":"Asia/Bangkok","admin1_name":"Prachin Buri"},{"name":"Prachantakham","lat":14.06442,"lon":101.51503,"population":59696,"iso_a3":"THA","country":"Thailand","is_capital":false,"name_en":"Prachantakham","name_es":"Prachantakham","name_fr":"Prachantakham","name_it":"Prachantakham","name_ru":"Prachantakham","elevation":10.0,"timezone":"Asia/Bangkok","admin1_name":"Prachin Buri"},{"name":"Chaiyaphum","lat":15.81047,"lon":102.02881,"population":58350,"iso_a3":"THA","country":"Thailand","is_capital":false,"name_en":"Chaiyaphum","name_es":"Chaiyaphum","name_fr":"Chaiyaphum","name_it":"Chaiyaphum","name_ru":"Чайяпхум","elevation":188.0,"timezone":"Asia/Bangkok","admin1_name":"Chaiyaphum"},{"name":"Na Di","lat":14.11517,"lon":101.78189,"population":57466,"iso_a3":"THA","country":"Thailand","is_capital":false,"name_en":"Nadi","name_es":"Nadi","name_fr":"Nadi","name_it":"Nadi","name_ru":"Nadi","elevation":29.0,"timezone":"Asia/Bangkok","admin1_name":"Prachin Buri"},{"name":"Kalasin","lat":16.43281,"lon":103.50658,"population":55102,"iso_a3":"THA","country":"Thailand","is_capital":false,"name_en":"Kalasin","name_es":"Kalasin","name_fr":"Kalasin","name_it":"Kalasin","name_ru":"Каласин","elevation":152.0,"timezone":"Asia/Bangkok","admin1_name":"Kalasin"},{"name":"Maha Sarakham","lat":16.18483,"lon":103.30067,"population":51584,"iso_a3":"THA","country":"Thailand","is_capital":false,"name_en":"Maha Sarakham","name_es":"Maha Sarakham","name_fr":"Maha Sarakham","name_it":"Maha Sarakham","name_ru":"Maha Sarakham","elevation":155.0,"timezone":"Asia/Bangkok","admin1_name":"Maha Sarakham"},{"name":"Pak Chong","lat":14.70802,"lon":101.41614,"population":48999,"iso_a3":"THA","country":"Thailand","is_capital":false,"name_en":"Pak Chong","name_es":"Pak Chong","name_fr":"Pak Chong","name_it":"Pak Chong","name_ru":"Pak Chong","elevation":307.0,"timezone":"Asia/Bangkok","admin1_name":"Nakhon Ratchasima"},{"name":"Surin","lat":14.88181,"lon":103.49364,"population":46673,"iso_a3":"THA","country":"Thailand","is_capital":false,"name_en":"Surin","name_es":"Surin","name_fr":"Surin","name_it":"Surin","name_ru":"Сурин","elevation":150.0,"timezone":"Asia/Bangkok","admin1_name":"Surin"},{"name":"Chum Phae","lat":16.5443,"lon":102.09924,"population":46335,"iso_a3":"THA","country":"Thailand","is_capital":false,"name_en":"Chum Phae","name_es":"Chum Phae","name_fr":"Chum Phae","name_it":"Chum Phae","name_ru":"Chum Phae","elevation":227.0,"timezone":"Asia/Bangkok","admin1_name":"Khon Kaen"},{"name":"Roi Et","lat":16.0567,"lon":103.65309,"population":39328,"iso_a3":"THA","country":"Thailand","is_capital":false,"name_en":"Roi Et","name_es":"Roi Et","name_fr":"Roi Et","name_it":"Roi Et","name_ru":"Рои Эт","elevation":148.0,"timezone":"Asia/Bangkok","admin1_name":"Roi Et"},{"name":"Ban Phai","lat":16.05997,"lon":102.73097,"population":35583,"iso_a3":"THA","country":"Thailand","is_capital":false,"name_en":"Ban Phai","name_es":"Ban Phai","name_fr":"Ban Phai","name_it":"Ban Phai","name_ru":"Ban Phai","elevation":174.0,"timezone":"Asia/Bangkok","admin1_name":"Khon Kaen"},{"name":"Prachin Buri","lat":14.04992,"lon":101.36864,"population":32600,"iso_a3":"THA","country":"Thailand","is_capital":false,"name_en":"Prachin Buri","name_es":"Prachin Buri","name_fr":"Prachin Buri","name_it":"Prachin Buri","name_ru":"Prachin Buri","elevation":10.0,"timezone":"Asia/Bangkok","admin1_name":"Prachin Buri"}]