[{"name":"Kaiyuan","lat":23.69767,"lon":103.30372,"population":198423,"iso_a3":"CHN","country":"China","is_capital":false,"name_en":"Kaiyuan","name_es":"Kaiyuan","name_fr":"Kaiyuan","name_it":"Kaiyuan","name_ru":"Кайюань","elevation":1259.0,"timezone":"Asia/Shanghai","admin1_name":"Yunnan"},{"name":"Gejiu","lat":23.36085,"lon":103.15372,"population":136135,"iso_a3":"CHN","country":"China","is_capital":false,"name_en":"Gejiu","name_es":"Gejiu","name_fr":"Gejiu","name_it":"Gejiu","name_ru":"Gejiu","elevation":1708.0,"timezone":"Asia/Shanghai","admin1_name":"Yunnan"},{"name":"Yuxi","lat":24.355,"lon":102.54222,"population":103829,"iso_a3":"CHN","country":"China","is_capital":false,"name_en":"Yuxi","name_es":"Yuxi","name_fr":"Yuxi","name_it":"Yuxi","name_ru":"Юйси","elevation":1638.0,"timezone":"Asia/Shanghai","admin1_name":"Yunnan"},{"name":"Zhongshu","lat":24.51667,"lon":103.76667,"population":91750,"iso_a3":"CHN","country":"China","is_capital":false,"name_en":"Zhongshu","name_es":"Zhongshu","name_fr":"Zhongshu","name_it":"Zhongshu","name_ru":"Чжуншу","elevation":1701.0,"timezone":"Asia/Shanghai","admin1_name":"Yunnan"},{"name":"Miyang","lat":24.40417,"lon":103.44278,"population":72485,"iso_a3":"CHN","country":"China","is_capital":false,"name_en":"Miyang","name_es":"Miyang","name_fr":"Miyang","name_it":"Miyang","name_ru":"Miyang","elevation":1433.0,"timezone":"Asia/Shanghai","admin1_name":"Yunnan"},{"name":"Hekou","lat":22.53851,"lon":104.01109,"population":44998,"iso_a3":"CHN","country":"China","is_capital":false,"name_en":"Hekou","name_es":"Hekou","name_fr":"Hekou","name_it":"Hekou","name_ru":"Hekou","elevation":143.0,"timezone":"Asia/Shanghai","admin1_name":"Yunnan"},{"name":"Lào Cai","lat":22.48556,"lon":103.97066,"population":130671,"iso_a3":"VNM","country":"Vietnam","is_capital":false,"name_en":"Lào Cai","name_es":"Laos","name_fr":"Lào Cai","name_it":"Lào Cai","name_ru":"Лаокай","elevation":86.0,"timezone":"Asia/Bangkok","admin1_name":"Lao Cai"},{"name":"Lai Châu","lat":22.39644,"lon":103.45824,"population":42973,"iso_a3":"VNM","country":"Vietnam","is_capital":false,"name_en":"Lai Châu","name_es":"Lai Châu","name_fr":"Lai Châu","name_it":"Lai Châu","name_ru":"Lai Châu","elevation":919.0,"timezone":"Asia/Bangkok","admin1_name":"Lai Châu Province"}]