[{"name":"Metro","lat":-5.11306,"lon":105.30667,"population":178381,"iso_a3":"IDN","country":"Indonesia","is_capital":false,"name_en":"Metro","name_es":"Metro","name_fr":"Metro","name_it":"Metro","name_ru":"Метро","elevation":62.0,"timezone":"Asia/Jakarta","admin1_name":"Lampung"},{"name":"Baturaja","lat":-4.12891,"lon":104.16695,"population":134759,"iso_a3":"IDN","country":"Indonesia","is_capital":false,"name_en":"Baturaja","name_es":"Baturaja","name_fr":"Baturaja","name_it":"Baturaja","name_ru":"Baturaja","elevation":69.0,"timezone":"Asia/Jakarta","admin1_name":"South Sumatra"},{"name":"Prabumulih","lat":-3.43447,"lon":104.23056,"population":103470,"iso_a3":"IDN","country":"Indonesia","is_capital":false,"name_en":"Prabumulih","name_es":"Prabumulih","name_fr":"Prabumulih","name_it":"Prabumulih","name_ru":"Prabumulih","elevation":51.0,"timezone":"Asia/Jakarta","admin1_name":"South Sumatra"},{"name":"Terbanggi Besar","lat":-4.87898,"lon":105.21818,"population":52566,"iso_a3":"IDN","country":"Indonesia","is_capital":false,"name_en":"Terbanggi Besar","name_es":"Terbanggi Besar","name_fr":"Terbanggi Besar","name_it":"Terbanggi Besar","name_ru":"Terbanggi Besar","elevation":29.0,"timezone":"Asia/Jakarta","admin1_name":"Lampung"},{"name":"Indralaya","lat":-3.25249,"lon":104.67555,"population":42498,"iso_a3":"IDN","country":"Indonesia","is_capital":false,"name_en":"Indralaya","name_es":"Indralaya","name_fr":"Indralaya","name_it":"Indralaya","name_ru":"Indralaya","elevation":8.0,"timezone":"Asia/Jakarta","admin1_name":"South Sumatra"},{"name":"Kotabumi","lat":-4.82505,"lon":104.8817,"population":42366,"iso_a3":"IDN","country":"Indonesia","is_capital":false,"name_en":"Kotabumi","name_es":"Kotabumi","name_fr":"Kotabumi","name_it":"Kotabumi","name_ru":"Kotabumi","elevation":37.0,"timezone":"Asia/Jakarta","admin1_name":"Lampung"}]