[{"name":"Anlong Veaeng","lat":14.23223,"lon":104.08107,"population":56927,"iso_a3":"KHM","country":"Cambodia","is_capital":false,"name_en":"Anlong Veaeng","name_es":"Anlong Veaeng","name_fr":"Anlong Veaeng","name_it":"Anlong Veaeng","name_ru":"Anlong Veaeng","elevation":54.0,"timezone":"Asia/Phnom_Penh","admin1_name":"Ŏtâr Méanchey"},{"name":"Savannakhet","lat":16.5703,"lon":104.7622,"population":125760,"iso_a3":"LAO","country":"Laos","is_capital":false,"name_en":"Savannakhet","name_es":"Savannakhet","name_fr":"Savannakhet","name_it":"Savannakhet","name_ru":"Саваннакхет","elevation":154.0,"timezone":"Asia/Vientiane","admin1_name":"Savannakhet Province"},{"name":"Pakse","lat":15.12022,"lon":105.79898,"population":88332,"iso_a3":"LAO","country":"Laos","is_capital":false,"name_en":"Pakse","name_es":"Pakse","name_fr":"Paksé","name_it":"Pakse","name_ru":"Паксе","elevation":105.0,"timezone":"Asia/Vientiane","admin1_name":"Champasak Province"},{"name":"Sekong","lat":15.34582,"lon":106.72368,"population":35000,"iso_a3":"LAO","country":"Laos","is_capital":false,"name_en":"Sekong","name_es":"Sekong","name_fr":"Sekong","name_it":"Sekong","name_ru":"Sekong","elevation":148.0,"timezone":"Asia/Vientiane","admin1_name":"Xékong"},{"name":"Ubon Ratchathani","lat":15.23844,"lon":104.84866,"population":122533,"iso_a3":"THA","country":"Thailand","is_capital":false,"name_en":"Ubon Ratchathani","name_es":"Ubon Ratchathani","name_fr":"Ubon Ratchathani","name_it":"Ubon Ratchathani","name_ru":"Убонратчатхани","elevation":125.0,"timezone":"Asia/Bangkok","admin1_name":"Ubon Ratchathani"},{"name":"Si Sa Ket","lat":15.11481,"lon":104.32938,"population":44751,"iso_a3":"THA","country":"Thailand","is_capital":false,"name_en":"Si Sa Ket","name_es":"Si Sa Ket","name_fr":"Si Saket","name_it":"Si Sa Ket","name_ru":"Си Са Кет","elevation":134.0,"timezone":"Asia/Bangkok","admin1_name":"Si Sa Ket"},{"name":"Warin Chamrap","lat":15.19319,"lon":104.8628,"population":43102,"iso_a3":"THA","country":"Thailand","is_capital":false,"name_en":"Warin Chamrap","name_es":"Warin Chamrap","name_fr":"Warin Chamrap","name_it":"Warin Chamrap","name_ru":"Warin Chamrap","elevation":136.0,"timezone":"Asia/Bangkok","admin1_name":"Ubon Ratchathani"},{"name":"Mukdahan","lat":16.54531,"lon":104.72351,"population":40480,"iso_a3":"THA","country":"Thailand","is_capital":false,"name_en":"Mukdahan","name_es":"Mukdahan","name_fr":"Mukdahan","name_it":"Mukdahan","name_ru":"Мукдахан","elevation":145.0,"timezone":"Asia/Bangkok","admin1_name":"Mukdahan"},{"name":"Kantharalak","lat":14.64056,"lon":104.64992,"population":36621,"iso_a3":"THA","country":"Thailand","is_capital":false,"name_en":"Kantharalak","name_es":"Kantharalak","name_fr":"Kantharalak","name_it":"Kantharalak","name_ru":"Кантхаралак","elevation":160.0,"timezone":"Asia/Bangkok","admin1_name":"Si Sa Ket"},{"name":"Det Udom","lat":14.90598,"lon":105.07836,"population":35669,"iso_a3":"THA","country":"Thailand","is_capital":false,"name_en":"Det Udom","name_es":"Det Udom","name_fr":"Det Udom","name_it":"Det Udom","name_ru":"Det Udom","elevation":137.0,"timezone":"Asia/Bangkok","admin1_name":"Ubon Ratchathani"},{"name":"Amnat Charoen","lat":15.85851,"lon":104.62883,"population":34769,"iso_a3":"THA","country":"Thailand","is_capital":false,"name_en":"Amnat Charoen","name_es":"Amnat Charoen","name_fr":"Amnat Charoen","name_it":"Amnat Charoen","name_ru":"Амнат Чароен","elevation":161.0,"timezone":"Asia/Bangkok","admin1_name":"Amnat Charoen"}]