[{"name":"Chenggu","lat":33.14917,"lon":107.32583,"population":116375,"iso_a3":"CHN","country":"China","is_capital":false,"name_en":"Chenggu","name_es":"Chenggu","name_fr":"Chenggu","name_it":"Chenggu","name_ru":"Chenggu","elevation":485.0,"timezone":"Asia/Shanghai","admin1_name":"Shaanxi"},{"name":"Xixiang","lat":32.98703,"lon":107.764,"population":99867,"iso_a3":"CHN","country":"China","is_capital":false,"name_en":"Xixiang","name_es":"Xixiang","name_fr":"Xixiang","name_it":"Xixiang","name_ru":"Xixiang","elevation":440.0,"timezone":"Asia/Shanghai","admin1_name":"Shaanxi"},{"name":"Xunyang","lat":32.82389,"lon":109.36528,"population":67929,"iso_a3":"CHN","country":"China","is_capital":false,"name_en":"Xunyang","name_es":"Xunyang","name_fr":"Xunyang","name_it":"Xunyang","name_ru":"Xunyang","elevation":453.0,"timezone":"Asia/Shanghai","admin1_name":"Shaanxi"},{"name":"Hanyin Chengguanzhen","lat":32.89139,"lon":108.50472,"population":66926,"iso_a3":"CHN","country":"China","is_capital":false,"name_en":"Hanyin Chengguanzhen","name_es":"Hanyin Chengguanzhen","name_fr":"Hanyin Chengguanzhen","name_it":"Hanyin Chengguanzhen","name_ru":"Hanyin Chengguanzhen","elevation":361.0,"timezone":"Asia/Shanghai","admin1_name":"Shaanxi"},{"name":"Yangzhou","lat":33.22192,"lon":107.54267,"population":64349,"iso_a3":"CHN","country":"China","is_capital":false,"name_en":"Yangzhou","name_es":"Yangzhou","name_fr":"Yangzhou","name_it":"Yangzhou","name_ru":"Янчжоу","elevation":474.0,"timezone":"Asia/Shanghai","admin1_name":"Shaanxi"},{"name":"Shiquan","lat":33.04083,"lon":108.23639,"population":53422,"iso_a3":"CHN","country":"China","is_capital":false,"name_en":"Shiquan","name_es":"Shiquan","name_fr":"Shiquan","name_it":"Shiquan","name_ru":"Shiquan","elevation":362.0,"timezone":"Asia/Shanghai","admin1_name":"Shaanxi"},{"name":"Pingli","lat":32.38472,"lon":109.34556,"population":45493,"iso_a3":"CHN","country":"China","is_capital":false,"name_en":"Pingli","name_es":"Pingli","name_fr":"Pingli","name_it":"Pingli","name_ru":"Pingli","elevation":488.0,"timezone":"Asia/Shanghai","admin1_name":"Shaanxi"},{"name":"Ziyang Chengguanzhen","lat":32.51917,"lon":108.53232,"population":35496,"iso_a3":"CHN","country":"China","is_capital":false,"name_en":"Ziyang Chengguanzhen","name_es":"Ziyang Chengguanzhen","name_fr":"Ziyang Chengguanzhen","name_it":"Ziyang Chengguanzhen","name_ru":"Ziyang Chengguanzhen","elevation":324.0,"timezone":"Asia/Shanghai","admin1_name":"Shaanxi"},{"name":"Langao Chengguanzhen","lat":32.30028,"lon":108.89306,"population":35348,"iso_a3":"CHN","country":"China","is_capital":false,"name_en":"Langao Chengguanzhen","name_es":"Langao Chengguanzhen","name_fr":"Langao Chengguanzhen","name_it":"Langao Chengguanzhen","name_ru":"Langao Chengguanzhen","elevation":823.0,"timezone":"Asia/Shanghai","admin1_name":"Shaanxi"}]