[{"name":"Hechi","lat":24.69285,"lon":108.08376,"population":330131,"iso_a3":"CHN","country":"China","is_capital":false,"name_en":"Hechi","name_es":"Hechi","name_fr":"Hechi","name_it":"Hechi","name_ru":"Hechi","elevation":222.0,"timezone":"Asia/Shanghai","admin1_name":"Guangxi"},{"name":"Kaili","lat":26.58583,"lon":107.97972,"population":275745,"iso_a3":"CHN","country":"China","is_capital":false,"name_en":"Kaili","name_es":"Kaili","name_fr":"Kaili","name_it":"Kaili","name_ru":"Kaili","elevation":701.0,"timezone":"Asia/Shanghai","admin1_name":"Guizhou"},{"name":"Duyun","lat":26.26667,"lon":107.51667,"population":198516,"iso_a3":"CHN","country":"China","is_capital":false,"name_en":"Duyun","name_es":"Duyun","name_fr":"Duyun","name_it":"Duyun","name_ru":"Дуюн","elevation":815.0,"timezone":"Asia/Shanghai","admin1_name":"Guizhou"},{"name":"Liping","lat":26.23111,"lon":109.13139,"population":82710,"iso_a3":"CHN","country":"China","is_capital":false,"name_en":"Liping","name_es":"Liping","name_fr":"Liping","name_it":"Liping","name_ru":"Liping","elevation":563.0,"timezone":"Asia/Shanghai","admin1_name":"Guizhou"},{"name":"Dushan","lat":25.83333,"lon":107.53333,"population":80045,"iso_a3":"CHN","country":"China","is_capital":false,"name_en":"Dushan","name_es":"Dushan","name_fr":"Dushan","name_it":"Dushan","name_ru":"Dushan","elevation":992.0,"timezone":"Asia/Shanghai","admin1_name":"Guizhou"},{"name":"Xiaoweizhai","lat":26.19028,"lon":107.5125,"population":58913,"iso_a3":"CHN","country":"China","is_capital":false,"name_en":"Xiaoweizhai","name_es":"Xiaoweizhai","name_fr":"Xiaoweizhai","name_it":"Xiaoweizhai","name_ru":"Xiaoweizhai","elevation":757.0,"timezone":"Asia/Shanghai","admin1_name":"Guizhou"}]