[{"name":"Vũng Tàu","lat":10.34599,"lon":107.08426,"population":464860,"iso_a3":"VNM","country":"Vietnam","is_capital":false,"name_en":"Vũng Tàu","name_es":"Vung Tau","name_fr":"Cap-Saint-Jacques","name_it":"Vung Tau","name_ru":"Вунгтау","elevation":10.0,"timezone":"Asia/Ho_Chi_Minh","admin1_name":"Ho Chi Minh City (HCMC)"},{"name":"Phú Mỹ","lat":10.63333,"lon":107.06667,"population":287055,"iso_a3":"VNM","country":"Vietnam","is_capital":false,"name_en":"Phú Mỹ","name_es":"Phú Mỹ","name_fr":"Phú Mỹ","name_it":"Phú Mỹ","name_ru":"Phú Mỹ","elevation":12.0,"timezone":"Asia/Ho_Chi_Minh","admin1_name":"Ho Chi Minh City (HCMC)"},{"name":"Thành Phố Bà Rịa","lat":10.49626,"lon":107.1685,"population":235192,"iso_a3":"VNM","country":"Vietnam","is_capital":false,"name_en":"Thành Phố Bà Rịa","name_es":"Thành Phố Bà Rịa","name_fr":"Thành Phố Bà Rịa","name_it":"Thành Phố Bà Rịa","name_ru":"Thành Phố Bà Rịa","elevation":8.0,"timezone":"Asia/Ho_Chi_Minh","admin1_name":"Ho Chi Minh City (HCMC)"},{"name":"Phan Thiết","lat":10.92889,"lon":108.10208,"population":228536,"iso_a3":"VNM","country":"Vietnam","is_capital":false,"name_en":"Phan Thiết","name_es":"Phan Thiết","name_fr":"Phan Thiết","name_it":"Phan Thiết","name_ru":"Фантьет","elevation":10.0,"timezone":"Asia/Ho_Chi_Minh","admin1_name":"Lam Dong"},{"name":"Long Khánh","lat":10.92655,"lon":107.24783,"population":171276,"iso_a3":"VNM","country":"Vietnam","is_capital":false,"name_en":"Long Khánh","name_es":"Long Khánh","name_fr":"Long Khánh","name_it":"Long Khánh","name_ru":"Long Khánh","elevation":175.0,"timezone":"Asia/Ho_Chi_Minh","admin1_name":"Dong Nai"},{"name":"La Gi","lat":10.65993,"lon":107.77206,"population":160652,"iso_a3":"VNM","country":"Vietnam","is_capital":false,"name_en":"La Gi","name_es":"La Gi","name_fr":"La Gi","name_it":"La Gi","name_ru":"La Gi","elevation":8.0,"timezone":"Asia/Ho_Chi_Minh","admin1_name":"Lam Dong"},{"name":"Trảng Bom","lat":10.95358,"lon":107.00589,"population":57560,"iso_a3":"VNM","country":"Vietnam","is_capital":false,"name_en":"Trảng Bom","name_es":"Trảng Bom","name_fr":"Trảng Bom","name_it":"Trảng Bom","name_ru":"Trảng Bom","elevation":61.0,"timezone":"Asia/Ho_Chi_Minh","admin1_name":"Dong Nai"},{"name":"Cần Giờ","lat":10.41115,"lon":106.95474,"population":55137,"iso_a3":"VNM","country":"Vietnam","is_capital":false,"name_en":"Can Gio","name_es":"Can Gio","name_fr":"Can Gio","name_it":"Can Gio","name_ru":"Can Gio","elevation":5.0,"timezone":"Asia/Ho_Chi_Minh","admin1_name":"Ho Chi Minh City (HCMC)"},{"name":"Thị Trấn Phước Bửu","lat":10.53472,"lon":107.40202,"population":51895,"iso_a3":"VNM","country":"Vietnam","is_capital":false,"name_en":"Thị Trấn Phước Bửu","name_es":"Thị Trấn Phước Bửu","name_fr":"Thị Trấn Phước Bửu","name_it":"Thị Trấn Phước Bửu","name_ru":"Thị Trấn Phước Bửu","elevation":19.0,"timezone":"Asia/Ho_Chi_Minh","admin1_name":"Ho Chi Minh City (HCMC)"},{"name":"Mui Ne","lat":10.93314,"lon":108.28327,"population":50166,"iso_a3":"VNM","country":"Vietnam","is_capital":false,"name_en":"Mui Ne","name_es":"Mui Ne","name_fr":"Mui Ne","name_it":"Mui Ne","name_ru":"Муи-Не","elevation":6.0,"timezone":"Asia/Ho_Chi_Minh","admin1_name":"Lam Dong"},{"name":"Thị Trấn Ngải Giao","lat":10.6471,"lon":107.24577,"population":49065,"iso_a3":"VNM","country":"Vietnam","is_capital":false,"name_en":"Thị Trấn Ngải Giao","name_es":"Thị Trấn Ngải Giao","name_fr":"Thị Trấn Ngải Giao","name_it":"Thị Trấn Ngải Giao","name_ru":"Thị Trấn Ngải Giao","elevation":119.0,"timezone":"Asia/Ho_Chi_Minh","admin1_name":"Ho Chi Minh City (HCMC)"},{"name":"Xã Long Hải","lat":10.38706,"lon":107.23884,"population":35167,"iso_a3":"VNM","country":"Vietnam","is_capital":false,"name_en":"Xã Long Hải","name_es":"Xã Long Hải","name_fr":"Xã Long Hải","name_it":"Xã Long Hải","name_ru":"Xã Long Hải","elevation":17.0,"timezone":"Asia/Ho_Chi_Minh","admin1_name":"Ho Chi Minh City (HCMC)"}]