[{"name":"Zhengding","lat":38.14501,"lon":114.56556,"population":193524,"iso_a3":"CHN","country":"China","is_capital":false,"name_en":"Zhengding","name_es":"Zhengding","name_fr":"Zhengding","name_it":"Zhengding","name_ru":"Zhengding","elevation":64.0,"timezone":"Asia/Shanghai","admin1_name":"Hebei"},{"name":"Dingzhou","lat":38.51473,"lon":114.9868,"population":152934,"iso_a3":"CHN","country":"China","is_capital":false,"name_en":"Dingzhou","name_es":"Dingzhou","name_fr":"Dingzhou","name_it":"Dingzhou","name_ru":"Dingzhou","elevation":54.0,"timezone":"Asia/Shanghai","admin1_name":"Hebei"},{"name":"Xinji","lat":37.92595,"lon":115.21907,"population":145911,"iso_a3":"CHN","country":"China","is_capital":false,"name_en":"Xinji","name_es":"Xinji","name_fr":"Xinji","name_it":"Xinji","name_ru":"Xinji","elevation":33.0,"timezone":"Asia/Shanghai","admin1_name":"Hebei"},{"name":"Shahecheng","lat":36.93833,"lon":114.50583,"population":125132,"iso_a3":"CHN","country":"China","is_capital":false,"name_en":"Shahecheng","name_es":"Shahecheng","name_fr":"Shahecheng","name_it":"Shahecheng","name_ru":"Shahecheng","elevation":73.0,"timezone":"Asia/Shanghai","admin1_name":"Hebei"},{"name":"Xinle","lat":38.34898,"lon":114.68531,"population":99347,"iso_a3":"CHN","country":"China","is_capital":false,"name_en":"Xinle","name_es":"Xinle","name_fr":"Xinle","name_it":"Xinle","name_ru":"Xinle","elevation":60.0,"timezone":"Asia/Shanghai","admin1_name":"Hebei"},{"name":"Yuanping","lat":38.71528,"lon":112.7575,"population":82883,"iso_a3":"CHN","country":"China","is_capital":false,"name_en":"Yuanping","name_es":"Yuanping","name_fr":"Yuanping","name_it":"Yuanping","name_ru":"Yuanping","elevation":797.0,"timezone":"Asia/Shanghai","admin1_name":"Shanxi"},{"name":"Huaiyang","lat":37.76145,"lon":114.51703,"population":81861,"iso_a3":"CHN","country":"China","is_capital":false,"name_en":"Huaiyang","name_es":"Huaiyang","name_fr":"Huaiyang","name_it":"Huaiyang","name_ru":"Huaiyang","elevation":70.0,"timezone":"Asia/Shanghai","admin1_name":"Hebei"},{"name":"Tianchang","lat":37.99806,"lon":114.01556,"population":61292,"iso_a3":"CHN","country":"China","is_capital":false,"name_en":"Tianchang","name_es":"Tianchang","name_fr":"Tianchang","name_it":"Tianchang","name_ru":"Tianchang","elevation":281.0,"timezone":"Asia/Shanghai","admin1_name":"Hebei"}]