[{"name":"Sengkurong","lat":4.88333,"lon":114.83333,"population":40972,"iso_a3":"BRN","country":"Brunei","is_capital":false,"name_en":"Sengkurong","name_es":"Sengkurong","name_fr":"Sengkurong","name_it":"Sengkurong","name_ru":"Sengkurong","elevation":14.0,"timezone":"Asia/Brunei","admin1_name":"Brunei-Muara District"},{"name":"Mentiri","lat":4.97058,"lon":115.02078,"population":39324,"iso_a3":"BRN","country":"Brunei","is_capital":false,"name_en":"Mentiri","name_es":"Mentiri","name_fr":"Mentiri","name_it":"Mentiri","name_ru":"Mentiri","elevation":8.0,"annual_mean_temp":26.8,"annual_precipitation":2338.5,"sunshine_hours_yr":3576.0,"timezone":"Asia/Brunei","admin1_name":"Brunei-Muara District"},{"name":"Kuala Belait","lat":4.58361,"lon":114.2312,"population":31178,"iso_a3":"BRN","country":"Brunei","is_capital":false,"name_en":"Kuala Belait","name_es":"Kuala Belait","name_fr":"Kuala Belait","name_it":"Kuala Belait","name_ru":"Куала-Белайт","elevation":5.0,"timezone":"Asia/Brunei","admin1_name":"Belait"},{"name":"Seria","lat":4.60637,"lon":114.32476,"population":30097,"iso_a3":"BRN","country":"Brunei","is_capital":false,"name_en":"Seria","name_es":"Seria","name_fr":"Seria","name_it":"Seria","name_ru":"Серия","elevation":6.0,"annual_mean_temp":26.7,"annual_precipitation":2501.4,"sunshine_hours_yr":3543.0,"timezone":"Asia/Brunei","admin1_name":"Belait"},{"name":"Miri","lat":4.39928,"lon":113.99163,"population":300543,"iso_a3":"MYS","country":"Malaysia","is_capital":false,"name_en":"Miri","name_es":"Miri","name_fr":"Miri","name_it":"Miri","name_ru":"Мири","elevation":8.0,"timezone":"Asia/Kuching","admin1_name":"Sarawak"},{"name":"Bintulu","lat":3.16667,"lon":113.03333,"population":151617,"iso_a3":"MYS","country":"Malaysia","is_capital":false,"name_en":"Bintulu","name_es":"Bintulu","name_fr":"Bintulu","name_it":"Bintulu","name_ru":"Бинтулу","elevation":8.0,"timezone":"Asia/Kuching","admin1_name":"Sarawak"},{"name":"Labuan","lat":5.28028,"lon":115.2475,"population":95120,"iso_a3":"MYS","country":"Malaysia","is_capital":false,"name_en":"Labuan","name_es":"Labuan","name_fr":"Labuan","name_it":"Labuan","name_ru":"Виктория","elevation":7.0,"timezone":"Asia/Kuala_Lumpur","admin1_name":"Labuan"},{"name":"Marudi","lat":4.18333,"lon":114.31667,"population":90100,"iso_a3":"MYS","country":"Malaysia","is_capital":false,"name_en":"Marudi","name_es":"Marudi","name_fr":"Marudi","name_it":"Marudi","name_ru":"Marudi","elevation":15.0,"timezone":"Asia/Kuching","admin1_name":"Sarawak"},{"name":"Niah","lat":3.86203,"lon":113.71521,"population":48875,"iso_a3":"MYS","country":"Malaysia","is_capital":false,"name_en":"Niah","name_es":"Niah","name_fr":"Niah","name_it":"Niah","name_ru":"Niah","elevation":16.0,"timezone":"Asia/Kuching","admin1_name":"Sarawak"},{"name":"Limbang","lat":4.75477,"lon":115.01011,"population":38093,"iso_a3":"MYS","country":"Malaysia","is_capital":false,"name_en":"Limbang","name_es":"Limbang","name_fr":"Limbang","name_it":"Limbang","name_ru":"Лимбанг","elevation":5.0,"timezone":"Asia/Kuching","admin1_name":"Sarawak"},{"name":"Tatau","lat":2.88333,"lon":112.85,"population":31920,"iso_a3":"MYS","country":"Malaysia","is_capital":false,"name_en":"Tatau","name_es":"Tatau","name_fr":"Tatau","name_it":"Tatau","name_ru":"Tatau","elevation":22.0,"timezone":"Asia/Kuching","admin1_name":"Sarawak"}]