[{"name":"Shanwei","lat":22.78199,"lon":115.3475,"population":491766,"iso_a3":"CHN","country":"China","is_capital":false,"name_en":"Shanwei","name_es":"Shanwei","name_fr":"Shanwei","name_it":"Shanwei","name_ru":"Шаньвэй","elevation":9.0,"timezone":"Asia/Shanghai","admin1_name":"Guangdong"},{"name":"Xingning","lat":24.1483,"lon":115.72272,"population":274499,"iso_a3":"CHN","country":"China","is_capital":false,"name_en":"Xingning","name_es":"Xingning","name_fr":"Xingning","name_it":"Xingning","name_ru":"Xingning","elevation":122.0,"timezone":"Asia/Shanghai","admin1_name":"Guangdong"},{"name":"Donghai","lat":22.94593,"lon":115.64204,"population":264709,"iso_a3":"CHN","country":"China","is_capital":false,"name_en":"Donghai","name_es":"Donghai","name_fr":"Donghai","name_it":"Donghai","name_ru":"Donghai","elevation":14.0,"timezone":"Asia/Shanghai","admin1_name":"Guangdong"},{"name":"Huanggang","lat":23.67704,"lon":116.99961,"population":225956,"iso_a3":"CHN","country":"China","is_capital":false,"name_en":"Huanggang","name_es":"Huanggang","name_fr":"Huanggang","name_it":"Huanggang","name_ru":"Хуанган","elevation":13.0,"timezone":"Asia/Shanghai","admin1_name":"Guangdong"},{"name":"Anbu","lat":23.44895,"lon":116.68092,"population":162964,"iso_a3":"CHN","country":"China","is_capital":false,"name_en":"Anbu","name_es":"Anbu","name_fr":"Anbu","name_it":"Anbu","name_ru":"Anbu","elevation":15.0,"timezone":"Asia/Shanghai","admin1_name":"Guangdong"},{"name":"Chenghua","lat":23.46132,"lon":116.77007,"population":152453,"iso_a3":"CHN","country":"China","is_capital":false,"name_en":"Chenghua","name_es":"Chenghua","name_fr":"Chenghua","name_it":"Chenghua","name_ru":"Chenghua","elevation":13.0,"timezone":"Asia/Shanghai","admin1_name":"Guangdong"},{"name":"Hepo","lat":23.43077,"lon":115.82991,"population":131238,"iso_a3":"CHN","country":"China","is_capital":false,"name_en":"Hepo","name_es":"Hepo","name_fr":"Hepo","name_it":"Hepo","name_ru":"Хэпо","elevation":41.0,"timezone":"Asia/Shanghai","admin1_name":"Guangdong"},{"name":"Huicheng","lat":23.03845,"lon":116.28988,"population":125919,"iso_a3":"CHN","country":"China","is_capital":false,"name_en":"Huicheng","name_es":"Huicheng","name_fr":"Huicheng","name_it":"Huicheng","name_ru":"Huicheng","elevation":10.0,"timezone":"Asia/Shanghai","admin1_name":"Guangdong"},{"name":"Hengbei","lat":23.87968,"lon":115.72546,"population":78575,"iso_a3":"CHN","country":"China","is_capital":false,"name_en":"Hengbei","name_es":"Hengbei","name_fr":"Hengbei","name_it":"Hengbei","name_ru":"Hengbei","elevation":116.0,"timezone":"Asia/Shanghai","admin1_name":"Guangdong"},{"name":"Shima","lat":24.44647,"lon":117.81216,"population":68375,"iso_a3":"CHN","country":"China","is_capital":false,"name_en":"Shima","name_es":"Shima","name_fr":"Shima","name_it":"Shima","name_ru":"Шима","elevation":11.0,"timezone":"Asia/Shanghai","admin1_name":"Fujian"}]