[{"name":"Yunlong","lat":34.25281,"lon":117.25167,"population":345393,"iso_a3":"CHN","country":"China","is_capital":false,"name_en":"Yunlong","name_es":"Yunlong","name_fr":"Yunlong","name_it":"Yunlong","name_ru":"Yunlong","elevation":30.0,"timezone":"Asia/Shanghai","admin1_name":"Jiangsu"},{"name":"Tongshan","lat":34.18045,"lon":117.15707,"population":329661,"iso_a3":"CHN","country":"China","is_capital":false,"name_en":"Tongshan","name_es":"Tongshan","name_fr":"Xuzhou","name_it":"Tongshan","name_ru":"Сюйчжоу","elevation":37.0,"timezone":"Asia/Shanghai","admin1_name":"Jiangsu"},{"name":"Suicheng","lat":33.8963,"lon":117.93307,"population":256665,"iso_a3":"CHN","country":"China","is_capital":false,"name_en":"Suicheng","name_es":"Suicheng","name_fr":"Suicheng","name_it":"Suicheng","name_ru":"Suicheng","elevation":22.0,"timezone":"Asia/Shanghai","admin1_name":"Jiangsu"},{"name":"Jieshou","lat":33.26338,"lon":115.36108,"population":141993,"iso_a3":"CHN","country":"China","is_capital":false,"name_en":"Jieshou","name_es":"Jieshou","name_fr":"Jieshou","name_it":"Jieshou","name_ru":"Jieshou","elevation":42.0,"timezone":"Asia/Shanghai","admin1_name":"Anhui"},{"name":"Nianzhuang","lat":34.29722,"lon":117.77222,"population":80617,"iso_a3":"CHN","country":"China","is_capital":false,"name_en":"Nianzhuang","name_es":"Nianzhuang","name_fr":"Nianzhuang","name_it":"Nianzhuang","name_ru":"Nianzhuang","elevation":28.0,"timezone":"Asia/Shanghai","admin1_name":"Jiangsu"},{"name":"Wuyang","lat":31.9925,"lon":116.24722,"population":79070,"iso_a3":"CHN","country":"China","is_capital":false,"name_en":"Wuyang","name_es":"Wuyang","name_fr":"Wuyang","name_it":"Wuyang","name_ru":"Wuyang","elevation":33.0,"timezone":"Asia/Shanghai","admin1_name":"Anhui"},{"name":"Jishui","lat":33.73333,"lon":115.4,"population":77540,"iso_a3":"CHN","country":"China","is_capital":false,"name_en":"Jishui","name_es":"Jishui","name_fr":"Jishui","name_it":"Jishui","name_ru":"Jishui","elevation":41.0,"timezone":"Asia/Shanghai","admin1_name":"Henan"},{"name":"Damiao","lat":34.26411,"lon":117.36379,"population":77179,"iso_a3":"CHN","country":"China","is_capital":false,"name_en":"Damiao","name_es":"Damiao","name_fr":"Damiao","name_it":"Damiao","name_ru":"Damiao","elevation":36.0,"timezone":"Asia/Shanghai","admin1_name":"Jiangsu"},{"name":"Zhaodun","lat":34.3027,"lon":117.85699,"population":76691,"iso_a3":"CHN","country":"China","is_capital":false,"name_en":"Zhaodun","name_es":"Zhaodun","name_fr":"Zhaodun","name_it":"Zhaodun","name_ru":"Zhaodun","elevation":24.0,"timezone":"Asia/Shanghai","admin1_name":"Jiangsu"},{"name":"Qiuji","lat":33.8,"lon":118.0,"population":76343,"iso_a3":"CHN","country":"China","is_capital":false,"name_en":"Qiuji","name_es":"Qiuji","name_fr":"Qiuji","name_it":"Qiuji","name_ru":"Qiuji","elevation":22.0,"timezone":"Asia/Shanghai","admin1_name":"Jiangsu"},{"name":"Suixi","lat":33.89067,"lon":116.77473,"population":74172,"iso_a3":"CHN","country":"China","is_capital":false,"name_en":"Suixi","name_es":"Suixi","name_fr":"Suixi","name_it":"Suixi","name_ru":"Suixi","elevation":34.0,"timezone":"Asia/Shanghai","admin1_name":"Anhui"},{"name":"Mengcheng Chengguanzhen","lat":33.26611,"lon":116.56605,"population":69916,"iso_a3":"CHN","country":"China","is_capital":false,"name_en":"Mengcheng Chengguanzhen","name_es":"Mengcheng Chengguanzhen","name_fr":"Mengcheng Chengguanzhen","name_it":"Mengcheng Chengguanzhen","name_ru":"Mengcheng Chengguanzhen","elevation":29.0,"timezone":"Asia/Shanghai","admin1_name":"Anhui"},{"name":"Mingguang","lat":32.78017,"lon":117.96378,"population":68351,"iso_a3":"CHN","country":"China","is_capital":false,"name_en":"Mingguang","name_es":"Mingguang","name_fr":"Mingguang","name_it":"Mingguang","name_ru":"Mingguang","elevation":16.0,"timezone":"Asia/Shanghai","admin1_name":"Anhui"},{"name":"Yaoji","lat":34.06667,"lon":117.81667,"population":65897,"iso_a3":"CHN","country":"China","is_capital":false,"name_en":"Yaoji","name_es":"Yaoji","name_fr":"Yaoji","name_it":"Yaoji","name_ru":"Yaoji","elevation":25.0,"timezone":"Asia/Shanghai","admin1_name":"Jiangsu"},{"name":"Bayiji","lat":34.26667,"lon":117.68333,"population":65830,"iso_a3":"CHN","country":"China","is_capital":false,"name_en":"Bayiji","name_es":"Bayiji","name_fr":"Bayiji","name_it":"Bayiji","name_ru":"Bayiji","elevation":27.0,"timezone":"Asia/Shanghai","admin1_name":"Jiangsu"},{"name":"Huaiyuan Chengguanzhen","lat":32.95893,"lon":117.16566,"population":65530,"iso_a3":"CHN","country":"China","is_capital":false,"name_en":"Huaiyuan Chengguanzhen","name_es":"Huaiyuan Chengguanzhen","name_fr":"Huaiyuan Chengguanzhen","name_it":"Huaiyuan Chengguanzhen","name_ru":"Huaiyuan Chengguanzhen","elevation":19.0,"timezone":"Asia/Shanghai","admin1_name":"Anhui"},{"name":"Zhangji","lat":34.1375,"lon":117.37556,"population":61929,"iso_a3":"CHN","country":"China","is_capital":false,"name_en":"Zhangji","name_es":"Zhangji","name_fr":"Zhangji","name_it":"Zhangji","name_ru":"Zhangji","elevation":34.0,"timezone":"Asia/Shanghai","admin1_name":"Jiangsu"},{"name":"Huoqiu Chengguanzhen","lat":32.35473,"lon":116.2939,"population":61904,"iso_a3":"CHN","country":"China","is_capital":false,"name_en":"Huoqiu Chengguanzhen","name_es":"Huoqiu Chengguanzhen","name_fr":"Huoqiu Chengguanzhen","name_it":"Huoqiu Chengguanzhen","name_ru":"Huoqiu Chengguanzhen","elevation":30.0,"timezone":"Asia/Shanghai","admin1_name":"Anhui"},{"name":"Yingshang Chengguanzhen","lat":32.62945,"lon":116.27013,"population":61771,"iso_a3":"CHN","country":"China","is_capital":false,"name_en":"Yingshang Chengguanzhen","name_es":"Yingshang Chengguanzhen","name_fr":"Yingshang Chengguanzhen","name_it":"Yingshang Chengguanzhen","name_ru":"Yingshang Chengguanzhen","elevation":26.0,"timezone":"Asia/Shanghai","admin1_name":"Anhui"},{"name":"Datong","lat":32.62082,"lon":117.06319,"population":61085,"iso_a3":"CHN","country":"China","is_capital":false,"name_en":"Datong","name_es":"Datong","name_fr":"Datong","name_it":"Datong","name_ru":"Датун","elevation":39.0,"timezone":"Asia/Shanghai","admin1_name":"Anhui"},{"name":"Xuzhuang","lat":34.29614,"lon":117.45798,"population":56099,"iso_a3":"CHN","country":"China","is_capital":false,"name_en":"Xuzhuang","name_es":"Xuzhuang","name_fr":"Xuzhuang","name_it":"Xuzhuang","name_ru":"Xuzhuang","elevation":30.0,"timezone":"Asia/Shanghai","admin1_name":"Jiangsu"},{"name":"Lanshan","lat":33.93611,"lon":117.725,"population":55442,"iso_a3":"CHN","country":"China","is_capital":false,"name_en":"Lanshan","name_es":"Lanshan","name_fr":"Lanshan","name_it":"Lanshan","name_ru":"Lanshan","elevation":26.0,"timezone":"Asia/Shanghai","admin1_name":"Jiangsu"},{"name":"Wangji","lat":33.98333,"lon":117.75,"population":54578,"iso_a3":"CHN","country":"China","is_capital":false,"name_en":"Wangji","name_es":"Wangji","name_fr":"Wangji","name_it":"Wangji","name_ru":"Wangji","elevation":28.0,"timezone":"Asia/Shanghai","admin1_name":"Jiangsu"},{"name":"Lingcheng","lat":33.81639,"lon":118.11361,"population":53841,"iso_a3":"CHN","country":"China","is_capital":false,"name_en":"Lingcheng","name_es":"Lingcheng","name_fr":"Lingcheng","name_it":"Lingcheng","name_ru":"Lingcheng","elevation":20.0,"timezone":"Asia/Shanghai","admin1_name":"Jiangsu"},{"name":"Tangzhang","lat":34.14779,"lon":117.25395,"population":52985,"iso_a3":"CHN","country":"China","is_capital":false,"name_en":"Tangzhang","name_es":"Tangzhang","name_fr":"Tangzhang","name_it":"Tangzhang","name_ru":"Tangzhang","elevation":38.0,"timezone":"Asia/Shanghai","admin1_name":"Jiangsu"},{"name":"Taoyuan","lat":33.85278,"lon":117.77028,"population":52861,"iso_a3":"CHN","country":"China","is_capital":false,"name_en":"Taoyuan","name_es":"Taoyuan","name_fr":"Taoyuan","name_it":"Taoyuan","name_ru":"Taoyuan","elevation":29.0,"timezone":"Asia/Shanghai","admin1_name":"Jiangsu"},{"name":"Liangji","lat":33.96389,"lon":117.96944,"population":52048,"iso_a3":"CHN","country":"China","is_capital":false,"name_en":"Liangji","name_es":"Liangji","name_fr":"Liangji","name_it":"Liangji","name_ru":"Liangji","elevation":28.0,"timezone":"Asia/Shanghai","admin1_name":"Jiangsu"},{"name":"Guanshan","lat":33.79833,"lon":117.86639,"population":51086,"iso_a3":"CHN","country":"China","is_capital":false,"name_en":"Guanshan","name_es":"Guanshan","name_fr":"Guanshan","name_it":"Guanshan","name_ru":"Guanshan","elevation":21.0,"timezone":"Asia/Shanghai","admin1_name":"Jiangsu"},{"name":"Shanji","lat":34.20472,"lon":117.59556,"population":50617,"iso_a3":"CHN","country":"China","is_capital":false,"name_en":"Shanji","name_es":"Shanji","name_fr":"Shanji","name_it":"Shanji","name_ru":"Shanji","elevation":29.0,"timezone":"Asia/Shanghai","admin1_name":"Jiangsu"},{"name":"Gupi","lat":34.11389,"lon":117.88278,"population":48748,"iso_a3":"CHN","country":"China","is_capital":false,"name_en":"Gupi","name_es":"Gupi","name_fr":"Gupi","name_it":"Gupi","name_ru":"Gupi","elevation":26.0,"timezone":"Asia/Shanghai","admin1_name":"Jiangsu"},{"name":"Qing’an","lat":33.96944,"lon":117.88056,"population":48234,"iso_a3":"CHN","country":"China","is_capital":false,"name_en":"Qing’an","name_es":"Qing’an","name_fr":"Qing’an","name_it":"Qing’an","name_ru":"Qing’an","elevation":22.0,"timezone":"Asia/Shanghai","admin1_name":"Jiangsu"},{"name":"Weiji","lat":34.03333,"lon":117.95,"population":48069,"iso_a3":"CHN","country":"China","is_capital":false,"name_en":"Weiji","name_es":"Weiji","name_fr":"Weiji","name_it":"Weiji","name_ru":"Weiji","elevation":24.0,"timezone":"Asia/Shanghai","admin1_name":"Jiangsu"},{"name":"Hanwang","lat":34.19444,"lon":117.08333,"population":47205,"iso_a3":"CHN","country":"China","is_capital":false,"name_en":"Hanwang","name_es":"Hanwang","name_fr":"Hanwang","name_it":"Hanwang","name_ru":"Hanwang","elevation":43.0,"timezone":"Asia/Shanghai","admin1_name":"Jiangsu"},{"name":"Shuanggou","lat":34.03528,"lon":117.57806,"population":45697,"iso_a3":"CHN","country":"China","is_capital":false,"name_en":"Shuanggou","name_es":"Shuanggou","name_fr":"Shuanggou","name_it":"Shuanggou","name_ru":"Shuanggou","elevation":29.0,"timezone":"Asia/Shanghai","admin1_name":"Jiangsu"},{"name":"Gaozuo","lat":33.90306,"lon":118.03972,"population":43419,"iso_a3":"CHN","country":"China","is_capital":false,"name_en":"Gaozuo","name_es":"Gaozuo","name_fr":"Gaozuo","name_it":"Gaozuo","name_ru":"Gaozuo","elevation":20.0,"timezone":"Asia/Shanghai","admin1_name":"Jiangsu"},{"name":"Tushan","lat":34.22083,"lon":117.83694,"population":42853,"iso_a3":"CHN","country":"China","is_capital":false,"name_en":"Tushan","name_es":"Tushan","name_fr":"Tushan","name_it":"Tushan","name_ru":"Tushan","elevation":27.0,"timezone":"Asia/Shanghai","admin1_name":"Jiangsu"},{"name":"Liji","lat":33.76667,"lon":117.78333,"population":39691,"iso_a3":"CHN","country":"China","is_capital":false,"name_en":"Liji","name_es":"Liji","name_fr":"Liji","name_it":"Liji","name_ru":"Liji","elevation":25.0,"timezone":"Asia/Shanghai","admin1_name":"Jiangsu"},{"name":"Balu","lat":34.18868,"lon":117.91265,"population":38894,"iso_a3":"CHN","country":"China","is_capital":false,"name_en":"Balu","name_es":"Balu","name_fr":"Balu","name_it":"Balu","name_ru":"Balu","elevation":23.0,"timezone":"Asia/Shanghai","admin1_name":"Jiangsu"},{"name":"Zhancheng","lat":34.17501,"lon":117.76291,"population":38164,"iso_a3":"CHN","country":"China","is_capital":false,"name_en":"Zhancheng","name_es":"Zhancheng","name_fr":"Zhancheng","name_it":"Zhancheng","name_ru":"Zhancheng","elevation":27.0,"timezone":"Asia/Shanghai","admin1_name":"Jiangsu"},{"name":"Yizhuang","lat":34.15651,"lon":117.59367,"population":34968,"iso_a3":"CHN","country":"China","is_capital":false,"name_en":"Yizhuang","name_es":"Yizhuang","name_fr":"Yizhuang","name_it":"Yizhuang","name_ru":"Yizhuang","elevation":26.0,"timezone":"Asia/Shanghai","admin1_name":"Jiangsu"}]