[{"name":"Pizhou","lat":34.31139,"lon":117.95028,"population":343421,"iso_a3":"CHN","country":"China","is_capital":false,"name_en":"Pizhou","name_es":"Pizhou","name_fr":"Pizhou","name_it":"Pizhou","name_ru":"Pizhou","elevation":25.0,"timezone":"Asia/Shanghai","admin1_name":"Jiangsu"},{"name":"Zoucheng","lat":35.40056,"lon":116.96556,"population":277400,"iso_a3":"CHN","country":"China","is_capital":false,"name_en":"Zoucheng","name_es":"Zoucheng","name_fr":"Zoucheng","name_it":"Zoucheng","name_ru":"Цзоучэн","elevation":76.0,"timezone":"Asia/Shanghai","admin1_name":"Shandong"},{"name":"Yanzhou","lat":35.55278,"lon":116.82861,"population":254788,"iso_a3":"CHN","country":"China","is_capital":false,"name_en":"Yanzhou","name_es":"Yanzhou","name_fr":"Yanzhou","name_it":"Yanzhou","name_ru":"Yanzhou","elevation":54.0,"timezone":"Asia/Shanghai","admin1_name":"Shandong"},{"name":"Xintai","lat":35.90056,"lon":117.75194,"population":222459,"iso_a3":"CHN","country":"China","is_capital":false,"name_en":"Xintai","name_es":"Xintai","name_fr":"Xintai","name_it":"Xintai","name_ru":"Xintai","elevation":197.0,"timezone":"Asia/Shanghai","admin1_name":"Shandong"},{"name":"Peicheng","lat":34.73611,"lon":116.92472,"population":195363,"iso_a3":"CHN","country":"China","is_capital":false,"name_en":"Peicheng","name_es":"Peicheng","name_fr":"Peicheng","name_it":"Peicheng","name_ru":"Peicheng","elevation":40.0,"timezone":"Asia/Shanghai","admin1_name":"Jiangsu"},{"name":"Fengcheng","lat":34.70388,"lon":116.58717,"population":161850,"iso_a3":"CHN","country":"China","is_capital":false,"name_en":"Fengcheng","name_es":"Fengcheng","name_fr":"Fengcheng","name_it":"Fengcheng","name_ru":"Fengcheng","elevation":40.0,"timezone":"Asia/Shanghai","admin1_name":"Jiangsu"},{"name":"Boshan","lat":36.48333,"lon":117.83333,"population":153596,"iso_a3":"CHN","country":"China","is_capital":false,"name_en":"Boshan","name_es":"Boshan","name_fr":"Boshan","name_it":"Boshan","name_ru":"Boshan","elevation":368.0,"timezone":"Asia/Shanghai","admin1_name":"Shandong"},{"name":"Jiawang","lat":34.43278,"lon":117.44194,"population":133861,"iso_a3":"CHN","country":"China","is_capital":false,"name_en":"Jiawang","name_es":"Jiawang","name_fr":"Jiawang","name_it":"Jiawang","name_ru":"Jiawang","elevation":31.0,"timezone":"Asia/Shanghai","admin1_name":"Jiangsu"},{"name":"Xiazhen","lat":34.80222,"lon":117.11167,"population":125667,"iso_a3":"CHN","country":"China","is_capital":false,"name_en":"Xiazhen","name_es":"Xiazhen","name_fr":"Xiazhen","name_it":"Xiazhen","name_ru":"Xiazhen","elevation":39.0,"timezone":"Asia/Shanghai","admin1_name":"Shandong"},{"name":"Datun","lat":34.80923,"lon":116.90174,"population":110258,"iso_a3":"CHN","country":"China","is_capital":false,"name_en":"Datun","name_es":"Datun","name_fr":"Datun","name_it":"Datun","name_ru":"Датун","elevation":58.0,"timezone":"Asia/Shanghai","admin1_name":"Jiangsu"},{"name":"Chengtangcun","lat":35.08357,"lon":117.19071,"population":105456,"iso_a3":"CHN","country":"China","is_capital":false,"name_en":"Tengzhou","name_es":"Tengzhou","name_fr":"Tengzhou","name_it":"Tengzhou","name_ru":"Тэнчжоу","elevation":73.0,"timezone":"Asia/Shanghai","admin1_name":"Shandong"},{"name":"Guanhu","lat":34.42528,"lon":117.99528,"population":97705,"iso_a3":"CHN","country":"China","is_capital":false,"name_en":"Guanhu","name_es":"Guanhu","name_fr":"Guanhu","name_it":"Guanhu","name_ru":"Guanhu","elevation":27.0,"timezone":"Asia/Shanghai","admin1_name":"Jiangsu"},{"name":"Sishui","lat":35.64889,"lon":117.27583,"population":90175,"iso_a3":"CHN","country":"China","is_capital":false,"name_en":"Sishui","name_es":"Sishui","name_fr":"Sishui","name_it":"Sishui","name_ru":"Sishui","elevation":112.0,"timezone":"Asia/Shanghai","admin1_name":"Shandong"},{"name":"Tiefu","lat":34.53333,"lon":118.03333,"population":87689,"iso_a3":"CHN","country":"China","is_capital":false,"name_en":"Tiefu","name_es":"Tiefu","name_fr":"Tiefu","name_it":"Tiefu","name_ru":"Tiefu","elevation":29.0,"timezone":"Asia/Shanghai","admin1_name":"Jiangsu"},{"name":"Qufu","lat":35.59667,"lon":116.99111,"population":85144,"iso_a3":"CHN","country":"China","is_capital":false,"name_en":"Qufu","name_es":"Qufu","name_fr":"Qufu","name_it":"Qufu","name_ru":"Цюйфу","elevation":69.0,"timezone":"Asia/Shanghai","admin1_name":"Shandong"},{"name":"Ningyang","lat":35.76417,"lon":116.79139,"population":82994,"iso_a3":"CHN","country":"China","is_capital":false,"name_en":"Ningyang","name_es":"Ningyang","name_fr":"Ningyang","name_it":"Ningyang","name_ru":"Ningyang","elevation":65.0,"timezone":"Asia/Shanghai","admin1_name":"Shandong"},{"name":"Changqing","lat":36.5575,"lon":116.72722,"population":82598,"iso_a3":"CHN","country":"China","is_capital":false,"name_en":"Changqing","name_es":"Changqing","name_fr":"Changqing","name_it":"Changqing","name_ru":"Чанцин","elevation":39.0,"timezone":"Asia/Shanghai","admin1_name":"Shandong"},{"name":"Anguo","lat":34.83056,"lon":116.81944,"population":82181,"iso_a3":"CHN","country":"China","is_capital":false,"name_en":"Anguo","name_es":"Anguo","name_fr":"Anguo","name_it":"Anguo","name_ru":"Anguo","elevation":38.0,"timezone":"Asia/Shanghai","admin1_name":"Jiangsu"},{"name":"Feicheng","lat":35.26056,"lon":117.9675,"population":80929,"iso_a3":"CHN","country":"China","is_capital":false,"name_en":"Feicheng","name_es":"Feicheng","name_fr":"Feicheng","name_it":"Feicheng","name_ru":"Feicheng","elevation":114.0,"timezone":"Asia/Shanghai","admin1_name":"Shandong"},{"name":"Shanting","lat":35.07528,"lon":117.45778,"population":80843,"iso_a3":"CHN","country":"China","is_capital":false,"name_en":"Shanting","name_es":"Shanting","name_fr":"Shanting","name_it":"Shanting","name_ru":"Shanting","elevation":146.0,"timezone":"Asia/Shanghai","admin1_name":"Shandong"},{"name":"Songlou","lat":34.57231,"lon":116.60239,"population":79763,"iso_a3":"CHN","country":"China","is_capital":false,"name_en":"Songlou","name_es":"Songlou","name_fr":"Songlou","name_it":"Songlou","name_ru":"Songlou","elevation":40.0,"timezone":"Asia/Shanghai","admin1_name":"Jiangsu"},{"name":"Yanta","lat":36.24111,"lon":115.66722,"population":79196,"iso_a3":"CHN","country":"China","is_capital":false,"name_en":"Yanta","name_es":"Yanta","name_fr":"Yanta","name_it":"Yanta","name_ru":"Yanta","elevation":41.0,"timezone":"Asia/Shanghai","admin1_name":"Shandong"},{"name":"Pingyi","lat":35.50056,"lon":117.63083,"population":78254,"iso_a3":"CHN","country":"China","is_capital":false,"name_en":"Pingyi","name_es":"Pingyi","name_fr":"Pingyi","name_it":"Pingyi","name_ru":"Pingyi","elevation":154.0,"timezone":"Asia/Shanghai","admin1_name":"Shandong"},{"name":"Huankou","lat":34.87,"lon":116.66972,"population":77758,"iso_a3":"CHN","country":"China","is_capital":false,"name_en":"Huankou","name_es":"Huankou","name_fr":"Huankou","name_it":"Huankou","name_ru":"Huankou","elevation":38.0,"timezone":"Asia/Shanghai","admin1_name":"Jiangsu"},{"name":"Feicheng","lat":36.24861,"lon":116.76583,"population":77606,"iso_a3":"CHN","country":"China","is_capital":false,"name_en":"Feicheng","name_es":"Feicheng","name_fr":"Feicheng","name_it":"Feicheng","name_ru":"Feicheng","elevation":115.0,"timezone":"Asia/Shanghai","admin1_name":"Shandong"},{"name":"Shouxian","lat":34.84648,"lon":116.45884,"population":76030,"iso_a3":"CHN","country":"China","is_capital":false,"name_en":"Shouxian","name_es":"Shouxian","name_fr":"Shouxian","name_it":"Shouxian","name_ru":"Shouxian","elevation":35.0,"timezone":"Asia/Shanghai","admin1_name":"Jiangsu"},{"name":"Yanggu","lat":36.11056,"lon":115.77528,"population":74725,"iso_a3":"CHN","country":"China","is_capital":false,"name_en":"Yanggu","name_es":"Yanggu","name_fr":"Yanggu","name_it":"Yanggu","name_ru":"Янг","elevation":42.0,"timezone":"Asia/Shanghai","admin1_name":"Shandong"},{"name":"Shancheng","lat":34.79528,"lon":116.08167,"population":74459,"iso_a3":"CHN","country":"China","is_capital":false,"name_en":"Shancheng","name_es":"Shancheng","name_fr":"Shancheng","name_it":"Shancheng","name_ru":"Shancheng","elevation":45.0,"timezone":"Asia/Shanghai","admin1_name":"Shandong"},{"name":"Zhangzhai","lat":34.61667,"lon":116.95,"population":74433,"iso_a3":"CHN","country":"China","is_capital":false,"name_en":"Zhangzhai","name_es":"Zhangzhai","name_fr":"Zhangzhai","name_it":"Zhangzhai","name_ru":"Zhangzhai","elevation":34.0,"timezone":"Asia/Shanghai","admin1_name":"Jiangsu"},{"name":"Zhangzhuang","lat":34.51944,"lon":117.00556,"population":74114,"iso_a3":"CHN","country":"China","is_capital":false,"name_en":"Zhangzhuang","name_es":"Zhangzhuang","name_fr":"Zhangzhuang","name_it":"Zhangzhuang","name_ru":"Zhangzhuang","elevation":37.0,"timezone":"Asia/Shanghai","admin1_name":"Jiangsu"},{"name":"Dongdu","lat":35.85,"lon":117.7,"population":72957,"iso_a3":"CHN","country":"China","is_capital":false,"name_en":"Dongdu","name_es":"Dongdu","name_fr":"Dongdu","name_it":"Dongdu","name_ru":"Dongdu","elevation":200.0,"timezone":"Asia/Shanghai","admin1_name":"Shandong"},{"name":"Zhoucheng","lat":35.91222,"lon":116.31167,"population":72070,"iso_a3":"CHN","country":"China","is_capital":false,"name_en":"Zhoucheng","name_es":"Zhoucheng","name_fr":"Zhoucheng","name_it":"Zhoucheng","name_ru":"Zhoucheng","elevation":41.0,"timezone":"Asia/Shanghai","admin1_name":"Shandong"},{"name":"Huashan","lat":34.63,"lon":116.73583,"population":71281,"iso_a3":"CHN","country":"China","is_capital":false,"name_en":"Huashan","name_es":"Huashan","name_fr":"Huashan","name_it":"Huashan","name_ru":"Huashan","elevation":41.0,"timezone":"Asia/Shanghai","admin1_name":"Jiangsu"},{"name":"Tangzhai","lat":34.43278,"lon":116.59111,"population":67936,"iso_a3":"CHN","country":"China","is_capital":false,"name_en":"Tangzhai","name_es":"Tangzhai","name_fr":"Tangzhai","name_it":"Tangzhai","name_ru":"Tangzhai","elevation":46.0,"timezone":"Asia/Shanghai","admin1_name":"Anhui"},{"name":"Mengyin","lat":35.70694,"lon":117.92639,"population":65889,"iso_a3":"CHN","country":"China","is_capital":false,"name_en":"Mengyin","name_es":"Mengyin","name_fr":"Mengyin","name_it":"Mengyin","name_ru":"Mengyin","elevation":182.0,"timezone":"Asia/Shanghai","admin1_name":"Shandong"},{"name":"Bianzhuang","lat":34.84861,"lon":118.04472,"population":65381,"iso_a3":"CHN","country":"China","is_capital":false,"name_en":"Bianzhuang","name_es":"Bianzhuang","name_fr":"Bianzhuang","name_it":"Bianzhuang","name_ru":"Bianzhuang","elevation":45.0,"timezone":"Asia/Shanghai","admin1_name":"Shandong"},{"name":"Suyangshan","lat":34.39278,"lon":117.75556,"population":65333,"iso_a3":"CHN","country":"China","is_capital":false,"name_en":"Suyangshan","name_es":"Suyangshan","name_fr":"Suyangshan","name_it":"Suyangshan","name_ru":"Suyangshan","elevation":27.0,"timezone":"Asia/Shanghai","admin1_name":"Jiangsu"},{"name":"Liuxin","lat":34.36861,"lon":117.115,"population":65258,"iso_a3":"CHN","country":"China","is_capital":false,"name_en":"Liuxin","name_es":"Liuxin","name_fr":"Liuxin","name_it":"Liuxin","name_ru":"Liuxin","elevation":38.0,"timezone":"Asia/Shanghai","admin1_name":"Jiangsu"},{"name":"Caoqiao","lat":34.3405,"lon":118.11038,"population":65243,"iso_a3":"CHN","country":"China","is_capital":false,"name_en":"Caoqiao","name_es":"Caoqiao","name_fr":"Caoqiao","name_it":"Caoqiao","name_ru":"Caoqiao","elevation":32.0,"timezone":"Asia/Shanghai","admin1_name":"Jiangsu"},{"name":"Picheng","lat":34.46667,"lon":117.96667,"population":64585,"iso_a3":"CHN","country":"China","is_capital":false,"name_en":"Picheng","name_es":"Picheng","name_fr":"Picheng","name_it":"Picheng","name_ru":"Picheng","elevation":29.0,"timezone":"Asia/Shanghai","admin1_name":"Jiangsu"},{"name":"Lulou","lat":34.71667,"lon":116.76667,"population":63704,"iso_a3":"CHN","country":"China","is_capital":false,"name_en":"Lulou","name_es":"Lulou","name_fr":"Lulou","name_it":"Lulou","name_ru":"Lulou","elevation":40.0,"timezone":"Asia/Shanghai","admin1_name":"Jiangsu"},{"name":"Shizhai","lat":34.80556,"lon":116.63889,"population":62956,"iso_a3":"CHN","country":"China","is_capital":false,"name_en":"Shizhai","name_es":"Shizhai","name_fr":"Shizhai","name_it":"Shizhai","name_ru":"Shizhai","elevation":37.0,"timezone":"Asia/Shanghai","admin1_name":"Jiangsu"},{"name":"Fanlou","lat":34.48091,"lon":116.85248,"population":62859,"iso_a3":"CHN","country":"China","is_capital":false,"name_en":"Fanlou","name_es":"Fanlou","name_fr":"Fanlou","name_it":"Fanlou","name_ru":"Fanlou","elevation":38.0,"timezone":"Asia/Shanghai","admin1_name":"Jiangsu"},{"name":"Yucheng","lat":34.92889,"lon":116.46528,"population":62365,"iso_a3":"CHN","country":"China","is_capital":false,"name_en":"Yucheng","name_es":"Yucheng","name_fr":"Yucheng","name_it":"Yucheng","name_ru":"Юйчэн","elevation":37.0,"timezone":"Asia/Shanghai","admin1_name":"Shandong"},{"name":"Pingyin","lat":36.28306,"lon":116.44528,"population":62050,"iso_a3":"CHN","country":"China","is_capital":false,"name_en":"Pingyin","name_es":"Pingyin","name_fr":"Pingyin","name_it":"Pingyin","name_ru":"Pingyin","elevation":43.0,"timezone":"Asia/Shanghai","admin1_name":"Shandong"},{"name":"Taozhuang","lat":34.85,"lon":117.33333,"population":60137,"iso_a3":"CHN","country":"China","is_capital":false,"name_en":"Taozhuang","name_es":"Taozhuang","name_fr":"Taozhuang","name_it":"Taozhuang","name_ru":"Taozhuang","elevation":53.0,"timezone":"Asia/Shanghai","admin1_name":"Shandong"},{"name":"Wenshang","lat":35.7275,"lon":116.49611,"population":59455,"iso_a3":"CHN","country":"China","is_capital":false,"name_en":"Wenshang","name_es":"Wenshang","name_fr":"Wenshang","name_it":"Wenshang","name_ru":"Wenshang","elevation":44.0,"timezone":"Asia/Shanghai","admin1_name":"Shandong"},{"name":"Tashan","lat":34.33611,"lon":117.56667,"population":59162,"iso_a3":"CHN","country":"China","is_capital":false,"name_en":"Tashan","name_es":"Tashan","name_fr":"Tashan","name_it":"Tashan","name_ru":"Tashan","elevation":28.0,"timezone":"Asia/Shanghai","admin1_name":"Jiangsu"},{"name":"Longgu","lat":34.90333,"lon":116.80667,"population":59086,"iso_a3":"CHN","country":"China","is_capital":false,"name_en":"Longgu","name_es":"Longgu","name_fr":"Longgu","name_it":"Longgu","name_ru":"Longgu","elevation":37.0,"timezone":"Asia/Shanghai","admin1_name":"Jiangsu"},{"name":"Dingtao","lat":35.07436,"lon":115.56582,"population":58206,"iso_a3":"CHN","country":"China","is_capital":false,"name_en":"Dingtao","name_es":"Dingtao","name_fr":"Dingtao","name_it":"Dingtao","name_ru":"Dingtao","elevation":53.0,"timezone":"Asia/Shanghai","admin1_name":"Shandong"},{"name":"Juye","lat":35.38737,"lon":116.07168,"population":58107,"iso_a3":"CHN","country":"China","is_capital":false,"name_en":"Juye","name_es":"Juye","name_fr":"Juye","name_it":"Juye","name_ru":"Juye","elevation":36.0,"timezone":"Asia/Shanghai","admin1_name":"Shandong"},{"name":"Maocun","lat":34.37667,"lon":117.25056,"population":57649,"iso_a3":"CHN","country":"China","is_capital":false,"name_en":"Maocun","name_es":"Maocun","name_fr":"Maocun","name_it":"Maocun","name_ru":"Maocun","elevation":57.0,"timezone":"Asia/Shanghai","admin1_name":"Jiangsu"},{"name":"Zhuzhai","lat":34.76111,"lon":116.81389,"population":56908,"iso_a3":"CHN","country":"China","is_capital":false,"name_en":"Zhuzhai","name_es":"Zhuzhai","name_fr":"Zhuzhai","name_it":"Zhuzhai","name_ru":"Zhuzhai","elevation":40.0,"timezone":"Asia/Shanghai","admin1_name":"Jiangsu"},{"name":"Liuji","lat":34.35833,"lon":117.05278,"population":54785,"iso_a3":"CHN","country":"China","is_capital":false,"name_en":"Liuji","name_es":"Liuji","name_fr":"Liuji","name_it":"Liuji","name_ru":"Liuji","elevation":36.0,"timezone":"Asia/Shanghai","admin1_name":"Jiangsu"},{"name":"Liangzhai","lat":34.5,"lon":116.75,"population":54742,"iso_a3":"CHN","country":"China","is_capital":false,"name_en":"Liangzhai","name_es":"Liangzhai","name_fr":"Liangzhai","name_it":"Liangzhai","name_ru":"Liangzhai","elevation":44.0,"timezone":"Asia/Shanghai","admin1_name":"Jiangsu"},{"name":"Yangtun","lat":34.88333,"lon":116.88333,"population":53417,"iso_a3":"CHN","country":"China","is_capital":false,"name_en":"Yangtun","name_es":"Yangtun","name_fr":"Yangtun","name_it":"Yangtun","name_ru":"Yangtun","elevation":36.0,"timezone":"Asia/Shanghai","admin1_name":"Jiangsu"},{"name":"Zhaozhuang","lat":34.73889,"lon":116.45556,"population":53193,"iso_a3":"CHN","country":"China","is_capital":false,"name_en":"Zhaozhuang","name_es":"Zhaozhuang","name_fr":"Zhaozhuang","name_it":"Zhaozhuang","name_ru":"Zhaozhuang","elevation":41.0,"timezone":"Asia/Shanghai","admin1_name":"Jiangsu"},{"name":"Zizhuang","lat":34.36152,"lon":117.48816,"population":52063,"iso_a3":"CHN","country":"China","is_capital":false,"name_en":"Zizhuang","name_es":"Zizhuang","name_fr":"Zizhuang","name_it":"Zizhuang","name_ru":"Zizhuang","elevation":34.0,"timezone":"Asia/Shanghai","admin1_name":"Jiangsu"},{"name":"Weimiao","lat":34.58333,"lon":117.06667,"population":51820,"iso_a3":"CHN","country":"China","is_capital":false,"name_en":"Weimiao","name_es":"Weimiao","name_fr":"Weimiao","name_it":"Weimiao","name_ru":"Weimiao","elevation":35.0,"timezone":"Asia/Shanghai","admin1_name":"Jiangsu"},{"name":"Qishan","lat":34.63333,"lon":116.8,"population":51750,"iso_a3":"CHN","country":"China","is_capital":false,"name_en":"Qishan","name_es":"Qishan","name_fr":"Qishan","name_it":"Qishan","name_ru":"Qishan","elevation":39.0,"timezone":"Asia/Shanghai","admin1_name":"Jiangsu"},{"name":"Liuquan","lat":34.43417,"lon":117.29833,"population":51657,"iso_a3":"CHN","country":"China","is_capital":false,"name_en":"Liuquan","name_es":"Liuquan","name_fr":"Liuquan","name_it":"Liuquan","name_ru":"Liuquan","elevation":56.0,"timezone":"Asia/Shanghai","admin1_name":"Jiangsu"},{"name":"Gangshang","lat":34.52147,"lon":118.11835,"population":51114,"iso_a3":"CHN","country":"China","is_capital":false,"name_en":"Gangshang","name_es":"Gangshang","name_fr":"Gangshang","name_it":"Gangshang","name_ru":"Gangshang","elevation":44.0,"timezone":"Asia/Shanghai","admin1_name":"Jiangsu"},{"name":"Changdian","lat":34.77586,"lon":116.58339,"population":49772,"iso_a3":"CHN","country":"China","is_capital":false,"name_en":"Changdian","name_es":"Changdian","name_fr":"Changdian","name_it":"Changdian","name_ru":"Changdian","elevation":35.0,"timezone":"Asia/Shanghai","admin1_name":"Jiangsu"},{"name":"Xinglou","lat":34.56667,"lon":117.82778,"population":49653,"iso_a3":"CHN","country":"China","is_capital":false,"name_en":"Xinglou","name_es":"Xinglou","name_fr":"Xinglou","name_it":"Xinglou","name_ru":"Xinglou","elevation":27.0,"timezone":"Asia/Shanghai","admin1_name":"Jiangsu"},{"name":"Chenlou","lat":34.38889,"lon":118.05,"population":48327,"iso_a3":"CHN","country":"China","is_capital":false,"name_en":"Chenlou","name_es":"Chenlou","name_fr":"Chenlou","name_it":"Chenlou","name_ru":"Chenlou","elevation":28.0,"timezone":"Asia/Shanghai","admin1_name":"Jiangsu"},{"name":"Shunhe","lat":34.84184,"lon":116.55722,"population":47330,"iso_a3":"CHN","country":"China","is_capital":false,"name_en":"Shunhe","name_es":"Shunhe","name_fr":"Shunhe","name_it":"Shunhe","name_ru":"Shunhe","elevation":28.0,"timezone":"Asia/Shanghai","admin1_name":"Jiangsu"},{"name":"Hekou","lat":34.57778,"lon":116.81389,"population":47281,"iso_a3":"CHN","country":"China","is_capital":false,"name_en":"Hekou","name_es":"Hekou","name_fr":"Hekou","name_it":"Hekou","name_ru":"Hekou","elevation":41.0,"timezone":"Asia/Shanghai","admin1_name":"Jiangsu"},{"name":"Biantang","lat":34.42325,"lon":117.64541,"population":46260,"iso_a3":"CHN","country":"China","is_capital":false,"name_en":"Biantang","name_es":"Biantang","name_fr":"Biantang","name_it":"Biantang","name_ru":"Biantang","elevation":32.0,"timezone":"Asia/Shanghai","admin1_name":"Jiangsu"},{"name":"Chefushan","lat":34.47525,"lon":117.75119,"population":45844,"iso_a3":"CHN","country":"China","is_capital":false,"name_en":"Chefushan","name_es":"Chefushan","name_fr":"Chefushan","name_it":"Chefushan","name_ru":"Chefushan","elevation":46.0,"timezone":"Asia/Shanghai","admin1_name":"Jiangsu"},{"name":"Zouzhuang","lat":34.6,"lon":118.05,"population":45461,"iso_a3":"CHN","country":"China","is_capital":false,"name_en":"Zouzhuang","name_es":"Zouzhuang","name_fr":"Zouzhuang","name_it":"Zouzhuang","name_ru":"Zouzhuang","elevation":33.0,"timezone":"Asia/Shanghai","admin1_name":"Jiangsu"},{"name":"Hegou","lat":34.40833,"lon":118.12222,"population":44747,"iso_a3":"CHN","country":"China","is_capital":false,"name_en":"Hegou","name_es":"Hegou","name_fr":"Hegou","name_it":"Hegou","name_ru":"Hegou","elevation":28.0,"timezone":"Asia/Shanghai","admin1_name":"Jiangsu"},{"name":"Qingshanquan","lat":34.41639,"lon":117.36306,"population":44314,"iso_a3":"CHN","country":"China","is_capital":false,"name_en":"Qingshanquan","name_es":"Qingshanquan","name_fr":"Qingshanquan","name_it":"Qingshanquan","name_ru":"Qingshanquan","elevation":36.0,"timezone":"Asia/Shanghai","admin1_name":"Jiangsu"},{"name":"Huangji","lat":34.43333,"lon":116.98333,"population":43038,"iso_a3":"CHN","country":"China","is_capital":false,"name_en":"Huangji","name_es":"Huangji","name_fr":"Huangji","name_it":"Huangji","name_ru":"Huangji","elevation":39.0,"timezone":"Asia/Shanghai","admin1_name":"Jiangsu"},{"name":"Zhengji","lat":34.43722,"lon":117.03889,"population":43021,"iso_a3":"CHN","country":"China","is_capital":false,"name_en":"Zhengji","name_es":"Zhengji","name_fr":"Zhengji","name_it":"Zhengji","name_ru":"Zhengji","elevation":39.0,"timezone":"Asia/Shanghai","admin1_name":"Jiangsu"},{"name":"Daizhuang","lat":34.51389,"lon":117.85278,"population":42410,"iso_a3":"CHN","country":"China","is_capital":false,"name_en":"Daizhuang","name_es":"Daizhuang","name_fr":"Daizhuang","name_it":"Daizhuang","name_ru":"Daizhuang","elevation":29.0,"timezone":"Asia/Shanghai","admin1_name":"Jiangsu"},{"name":"Sihu","lat":34.62625,"lon":117.97139,"population":40430,"iso_a3":"CHN","country":"China","is_capital":false,"name_en":"Sihu","name_es":"Sihu","name_fr":"Sihu","name_it":"Sihu","name_ru":"Sihu","elevation":37.0,"timezone":"Asia/Shanghai","admin1_name":"Jiangsu"},{"name":"Mapo","lat":34.51667,"lon":117.06667,"population":35358,"iso_a3":"CHN","country":"China","is_capital":false,"name_en":"Mapo","name_es":"Mapo","name_fr":"Mapo","name_it":"Mapo","name_ru":"Mapo","elevation":38.0,"timezone":"Asia/Shanghai","admin1_name":"Jiangsu"},{"name":"Heqiao","lat":34.45278,"lon":116.9,"population":35118,"iso_a3":"CHN","country":"China","is_capital":false,"name_en":"Heqiao","name_es":"Heqiao","name_fr":"Heqiao","name_it":"Heqiao","name_ru":"Heqiao","elevation":39.0,"timezone":"Asia/Shanghai","admin1_name":"Jiangsu"},{"name":"Huzhai","lat":34.66944,"lon":117.00833,"population":32231,"iso_a3":"CHN","country":"China","is_capital":false,"name_en":"Huzhai","name_es":"Huzhai","name_fr":"Huzhai","name_it":"Huzhai","name_ru":"Huzhai","elevation":37.0,"timezone":"Asia/Shanghai","admin1_name":"Jiangsu"},{"name":"Jiangzhuang","lat":34.49167,"lon":117.39722,"population":31991,"iso_a3":"CHN","country":"China","is_capital":false,"name_en":"Jiangzhuang","name_es":"Jiangzhuang","name_fr":"Jiangzhuang","name_it":"Jiangzhuang","name_ru":"Jiangzhuang","elevation":49.0,"timezone":"Asia/Shanghai","admin1_name":"Jiangsu"}]