[{"name":"Jizhou","lat":37.55054,"lon":115.56871,"population":362013,"iso_a3":"CHN","country":"China","is_capital":false,"name_en":"Jizhou","name_es":"Jizhou","name_fr":"Jizhou","name_it":"Jizhou","name_ru":"Jizhou","elevation":22.0,"timezone":"Asia/Shanghai","admin1_name":"Hebei"},{"name":"Zhoucun","lat":36.81667,"lon":117.81667,"population":122402,"iso_a3":"CHN","country":"China","is_capital":false,"name_en":"Zhoucun","name_es":"Zhoucun","name_fr":"Zhoucun","name_it":"Zhoucun","name_ru":"Zhoucun","elevation":53.0,"timezone":"Asia/Shanghai","admin1_name":"Shandong"},{"name":"Mingshui","lat":36.71667,"lon":117.5,"population":114858,"iso_a3":"CHN","country":"China","is_capital":false,"name_en":"Mingshui","name_es":"Mingshui","name_fr":"Mingshui","name_it":"Mingshui","name_ru":"Mingshui","elevation":73.0,"timezone":"Asia/Shanghai","admin1_name":"Shandong"},{"name":"Qingnian","lat":36.84092,"lon":115.71087,"population":110046,"iso_a3":"CHN","country":"China","is_capital":false,"name_en":"Linqing","name_es":"Linqing","name_fr":"Linqing","name_it":"Linqing","name_ru":"Linqing","elevation":38.0,"timezone":"Asia/Shanghai","admin1_name":"Shandong"},{"name":"Renqiu","lat":38.70941,"lon":116.10086,"population":98569,"iso_a3":"CHN","country":"China","is_capital":false,"name_en":"Renqiu","name_es":"Renqiu","name_fr":"Renqiu","name_it":"Renqiu","name_ru":"Renqiu","elevation":17.0,"timezone":"Asia/Shanghai","admin1_name":"Hebei"},{"name":"Nangong","lat":37.35464,"lon":115.38881,"population":82386,"iso_a3":"CHN","country":"China","is_capital":false,"name_en":"Nangong","name_es":"Nangong","name_fr":"Nangong","name_it":"Nangong","name_ru":"Nangong","elevation":32.0,"timezone":"Asia/Shanghai","admin1_name":"Hebei"},{"name":"Botou","lat":38.07366,"lon":116.56667,"population":63045,"iso_a3":"CHN","country":"China","is_capital":false,"name_en":"Botou","name_es":"Botou","name_fr":"Botou","name_it":"Botou","name_ru":"Бота","elevation":21.0,"timezone":"Asia/Shanghai","admin1_name":"Hebei"},{"name":"Suozhen","lat":36.95389,"lon":118.10472,"population":58766,"iso_a3":"CHN","country":"China","is_capital":false,"name_en":"Suozhen","name_es":"Suozhen","name_fr":"Suozhen","name_it":"Suozhen","name_ru":"Suozhen","elevation":20.0,"timezone":"Asia/Shanghai","admin1_name":"Shandong"},{"name":"Beiwangli","lat":38.62083,"lon":115.39639,"population":44112,"iso_a3":"CHN","country":"China","is_capital":false,"name_en":"Beiwangli","name_es":"Beiwangli","name_fr":"Beiwangli","name_it":"Beiwangli","name_ru":"Beiwangli","elevation":29.0,"timezone":"Asia/Shanghai","admin1_name":"Hebei"}]