[{"name":"Fengshan","lat":22.62659,"lon":120.36126,"population":356463,"iso_a3":"TWN","country":"Taiwan","is_capital":false,"name_en":"Fongshan District","name_es":"Fongshan District","name_fr":"Fongshan District","name_it":"Fongshan District","name_ru":"Fongshan District","elevation":19.0,"timezone":"Asia/Taipei","admin1_name":"Takao"},{"name":"Chiayi City","lat":23.47917,"lon":120.44889,"population":263188,"iso_a3":"TWN","country":"Taiwan","is_capital":false,"name_en":"Chiayi City","name_es":"Chiayi City","name_fr":"Chiayi City","name_it":"Chiayi City","name_ru":"Chiayi City","elevation":45.0,"timezone":"Asia/Taipei","admin1_name":"Taiwan"},{"name":"Yongkang","lat":23.02444,"lon":120.25556,"population":233730,"iso_a3":"TWN","country":"Taiwan","is_capital":false,"name_en":"Yongkang District","name_es":"Yongkang District","name_fr":"Yongkang District","name_it":"Yongkang District","name_ru":"Yongkang District","elevation":19.0,"timezone":"Asia/Taipei","admin1_name":"Taiwan"},{"name":"Chang-hua","lat":24.07327,"lon":120.56276,"population":226564,"iso_a3":"TWN","country":"Taiwan","is_capital":false,"name_en":"Chang-hua","name_es":"Chang-hua","name_fr":"Chang-hua","name_it":"Chang-hua","name_ru":"Chang-hua","elevation":60.0,"timezone":"Asia/Taipei","admin1_name":"Taiwan"},{"name":"Yuanlin","lat":23.95671,"lon":120.57608,"population":124725,"iso_a3":"TWN","country":"Taiwan","is_capital":false,"name_en":"Yuanlin","name_es":"Yuanlin","name_fr":"Yuanlin","name_it":"Yuanlin","name_ru":"Yuanlin","elevation":42.0,"timezone":"Asia/Taipei","admin1_name":"Taiwan"},{"name":"Douliu","lat":23.70944,"lon":120.54333,"population":107924,"iso_a3":"TWN","country":"Taiwan","is_capital":false,"name_en":"Douliu","name_es":"Douliu","name_fr":"Douliu","name_it":"Douliu","name_ru":"Доулю","elevation":57.0,"timezone":"Asia/Taipei","admin1_name":"Taiwan"},{"name":"Nantou","lat":23.91566,"lon":120.66387,"population":105682,"iso_a3":"TWN","country":"Taiwan","is_capital":false,"name_en":"Nantou City","name_es":"Nantou City","name_fr":"Nantou City","name_it":"Nantou City","name_ru":"Наньтоу","elevation":196.0,"timezone":"Asia/Taipei","admin1_name":"Taiwan"},{"name":"Caotun","lat":23.97699,"lon":120.68766,"population":96838,"iso_a3":"TWN","country":"Taiwan","is_capital":false,"name_en":"Caotun","name_es":"Caotun","name_fr":"Caotun","name_it":"Caotun","name_ru":"Caotun","elevation":107.0,"timezone":"Asia/Taipei","admin1_name":"Taiwan"},{"name":"Xinying","lat":23.30694,"lon":120.31056,"population":74972,"iso_a3":"TWN","country":"Taiwan","is_capital":false,"name_en":"Xinying District","name_es":"Xinying District","name_fr":"Xinying District","name_it":"Xinying District","name_ru":"Xinying District","elevation":19.0,"timezone":"Asia/Taipei","admin1_name":"Taiwan"},{"name":"Wufeng","lat":24.0637,"lon":120.698,"population":65567,"iso_a3":"TWN","country":"Taiwan","is_capital":false,"name_en":"Wufeng District","name_es":"Wufeng","name_fr":"Wufeng","name_it":"distretto di Wufeng","name_ru":"Уфэн","elevation":60.0,"timezone":"Asia/Taipei","admin1_name":"Taiwan"},{"name":"Magong","lat":23.5654,"lon":119.58627,"population":63745,"iso_a3":"TWN","country":"Taiwan","is_capital":false,"name_en":"Magong","name_es":"Magong","name_fr":"Magong","name_it":"Magong","name_ru":"Магун","elevation":14.0,"timezone":"Asia/Taipei","admin1_name":"Taiwan"},{"name":"Xihu","lat":23.95683,"lon":120.47918,"population":54033,"iso_a3":"TWN","country":"Taiwan","is_capital":false,"name_en":"Xihu","name_es":"Xihu","name_fr":"Xihu","name_it":"Xihu","name_ru":"Xihu","elevation":23.0,"timezone":"Asia/Taipei","admin1_name":"Taiwan"},{"name":"Chaozhou","lat":22.54987,"lon":120.54067,"population":53338,"iso_a3":"TWN","country":"Taiwan","is_capital":false,"name_en":"Chaozhou","name_es":"Chaozhou","name_fr":"Chaozhou","name_it":"Chaozhou","name_ru":"Chaozhou","elevation":16.0,"timezone":"Asia/Taipei","admin1_name":"Taiwan"},{"name":"Donggang","lat":22.46515,"lon":120.44927,"population":47746,"iso_a3":"TWN","country":"Taiwan","is_capital":false,"name_en":"Donggang","name_es":"Donggang","name_fr":"Donggang","name_it":"Donggang","name_ru":"Donggang","elevation":8.0,"timezone":"Asia/Taipei","admin1_name":"Taiwan"},{"name":"Zhushan","lat":23.75551,"lon":120.68203,"population":44083,"iso_a3":"TWN","country":"Taiwan","is_capital":false,"name_en":"Zhushan","name_es":"Zhushan","name_fr":"Zhushan","name_it":"Zhushan","name_ru":"Zhushan","elevation":164.0,"timezone":"Asia/Taipei","admin1_name":"Taiwan"},{"name":"Erlin","lat":23.90054,"lon":120.3689,"population":43652,"iso_a3":"TWN","country":"Taiwan","is_capital":false,"name_en":"Erlin","name_es":"Erlin","name_fr":"Erlin","name_it":"Erlin","name_ru":"Erlin","elevation":19.0,"timezone":"Asia/Taipei","admin1_name":"Taiwan"},{"name":"Buzi","lat":24.21013,"lon":120.5725,"population":40467,"iso_a3":"TWN","country":"Taiwan","is_capital":false,"name_en":"Buzi","name_es":"Buzi","name_fr":"Buzi","name_it":"Buzi","name_ru":"Buzi","elevation":63.0,"timezone":"Asia/Taipei","admin1_name":"Taiwan"},{"name":"Taibao","lat":23.45944,"lon":120.33222,"population":38696,"iso_a3":"TWN","country":"Taiwan","is_capital":false,"name_en":"Taibao","name_es":"Taibao","name_fr":"Taibao","name_it":"Taibao","name_ru":"Тайбао","elevation":11.0,"timezone":"Asia/Taipei","admin1_name":"Taiwan"},{"name":"Jincheng","lat":24.43415,"lon":118.31712,"population":37507,"iso_a3":"TWN","country":"Taiwan","is_capital":false,"name_en":"Jincheng","name_es":"Jincheng","name_fr":"Jincheng","name_it":"Jincheng","name_ru":"Jincheng","elevation":21.0,"timezone":"Asia/Taipei","admin1_name":"Fukien"},{"name":"Xiluo","lat":23.79891,"lon":120.46337,"population":37181,"iso_a3":"TWN","country":"Taiwan","is_capital":false,"name_en":"Xiluo","name_es":"Xiluo","name_fr":"Xiluo","name_it":"Xiluo","name_ru":"Xiluo","elevation":34.0,"timezone":"Asia/Taipei","admin1_name":"Taiwan"},{"name":"Shetou","lat":23.89804,"lon":120.58831,"population":36565,"iso_a3":"TWN","country":"Taiwan","is_capital":false,"name_en":"Shetou","name_es":"Shetou","name_fr":"Shetou","name_it":"Shetou","name_ru":"Shetou","elevation":42.0,"timezone":"Asia/Taipei","admin1_name":"Taiwan"},{"name":"Beigang","lat":23.5701,"lon":120.30162,"population":33300,"iso_a3":"TWN","country":"Taiwan","is_capital":false,"name_en":"Beigang","name_es":"Beigang","name_fr":"Beigang","name_it":"Beigang","name_ru":"Beigang","elevation":15.0,"timezone":"Asia/Taipei","admin1_name":"Taiwan"},{"name":"Beidou","lat":23.87292,"lon":120.52426,"population":33289,"iso_a3":"TWN","country":"Taiwan","is_capital":false,"name_en":"Beidou","name_es":"Beidou","name_fr":"Beidou","name_it":"Beidou","name_ru":"Beidou","elevation":39.0,"timezone":"Asia/Taipei","admin1_name":"Taiwan"},{"name":"Jinhu","lat":24.43944,"lon":118.42111,"population":30826,"iso_a3":"TWN","country":"Taiwan","is_capital":false,"name_en":"Jinhu","name_es":"Jinhu","name_fr":"Jinhu","name_it":"Jinhu","name_ru":"Jinhu","elevation":22.0,"timezone":"Asia/Taipei","admin1_name":"Fukien"}]