[{"name":"Nanping","lat":26.645,"lon":118.17361,"population":467875,"iso_a3":"CHN","country":"China","is_capital":false,"name_en":"Nanping","name_es":"Nanping","name_fr":"Nanping","name_it":"Nanping","name_ru":"Наньпин","elevation":102.0,"timezone":"Asia/Shanghai","admin1_name":"Fujian"},{"name":"Ningde","lat":26.66167,"lon":119.52278,"population":429260,"iso_a3":"CHN","country":"China","is_capital":false,"name_en":"Ningde","name_es":"Ningde","name_fr":"Ningde","name_it":"Ningde","name_ru":"Ningde","elevation":20.0,"timezone":"Asia/Shanghai","admin1_name":"Fujian"},{"name":"Ximeicun","lat":24.98773,"lon":118.3858,"population":94326,"iso_a3":"CHN","country":"China","is_capital":false,"name_en":"Ximeicun","name_es":"Ximeicun","name_fr":"Ximeicun","name_it":"Ximeicun","name_ru":"Ximeicun","elevation":28.0,"timezone":"Asia/Shanghai","admin1_name":"Fujian"},{"name":"Fuqing","lat":25.7294,"lon":119.37469,"population":67397,"iso_a3":"CHN","country":"China","is_capital":false,"name_en":"Fuqing","name_es":"Fuqing","name_fr":"Fuqing","name_it":"Fuqing","name_ru":"Фуцинь","elevation":17.0,"timezone":"Asia/Shanghai","admin1_name":"Fujian"},{"name":"Luoyang","lat":24.95938,"lon":118.683,"population":66188,"iso_a3":"CHN","country":"China","is_capital":false,"name_en":"Luoyang","name_es":"Luoyang","name_fr":"Luoyang","name_it":"Luoyang","name_ru":"Лоян","elevation":17.0,"timezone":"Asia/Shanghai","admin1_name":"Fujian"},{"name":"Jian’ou","lat":27.04146,"lon":118.31897,"population":59187,"iso_a3":"CHN","country":"China","is_capital":false,"name_en":"Jian’ou","name_es":"Jian’ou","name_fr":"Jian’ou","name_it":"Jian’ou","name_ru":"Jian’ou","elevation":116.0,"timezone":"Asia/Shanghai","admin1_name":"Fujian"},{"name":"Toufen","lat":24.68753,"lon":120.90942,"population":106310,"iso_a3":"TWN","country":"Taiwan","is_capital":false,"name_en":"Toufen Township","name_es":"Toufen Township","name_fr":"Toufen Township","name_it":"Toufen Township","name_ru":"Toufen Township","elevation":25.0,"timezone":"Asia/Taipei","admin1_name":"Taiwan"},{"name":"Miaoli","lat":24.56427,"lon":120.82367,"population":86327,"iso_a3":"TWN","country":"Taiwan","is_capital":false,"name_en":"Miaoli","name_es":"Miaoli","name_fr":"Miaoli","name_it":"Miaoli","name_ru":"Miaoli","elevation":53.0,"timezone":"Asia/Taipei","admin1_name":"Taiwan"}]