[{"name":"Dongling","lat":41.81444,"lon":123.57583,"population":171454,"iso_a3":"CHN","country":"China","is_capital":false,"name_en":"Dongling","name_es":"Dongling","name_fr":"Dongling","name_it":"Dongling","name_ru":"Донлин","elevation":53.0,"timezone":"Asia/Shanghai","admin1_name":"Liaoning"},{"name":"Beining","lat":41.59556,"lon":121.79278,"population":152033,"iso_a3":"CHN","country":"China","is_capital":false,"name_en":"Beining","name_es":"Beining","name_fr":"Beining","name_it":"Beining","name_ru":"Beining","elevation":66.0,"timezone":"Asia/Shanghai","admin1_name":"Liaoning"},{"name":"Sujiatun","lat":41.65917,"lon":123.33917,"population":148113,"iso_a3":"CHN","country":"China","is_capital":false,"name_en":"Sujiatun","name_es":"Sujiatun","name_fr":"Sujiatun","name_it":"Sujiatun","name_ru":"Суцзятунь","elevation":40.0,"timezone":"Asia/Shanghai","admin1_name":"Liaoning"},{"name":"Jiupu","lat":41.06667,"lon":122.95,"population":123843,"iso_a3":"CHN","country":"China","is_capital":false,"name_en":"Jiupu","name_es":"Jiupu","name_fr":"Jiupu","name_it":"Jiupu","name_ru":"Jiupu","elevation":31.0,"timezone":"Asia/Shanghai","admin1_name":"Liaoning"},{"name":"Xinmin","lat":41.99083,"lon":122.82528,"population":74139,"iso_a3":"CHN","country":"China","is_capital":false,"name_en":"Xinmin","name_es":"Xinmin","name_fr":"Xinmin","name_it":"Xinmin","name_ru":"Синьминь","elevation":34.0,"timezone":"Asia/Shanghai","admin1_name":"Liaoning"},{"name":"Gongchangling","lat":41.11667,"lon":123.45,"population":70761,"iso_a3":"CHN","country":"China","is_capital":false,"name_en":"Gongchangling","name_es":"Gongchangling","name_fr":"Gongchangling","name_it":"Gongchangling","name_ru":"Gongchangling","elevation":214.0,"timezone":"Asia/Shanghai","admin1_name":"Liaoning"},{"name":"Heishan","lat":41.68917,"lon":122.11278,"population":68603,"iso_a3":"CHN","country":"China","is_capital":false,"name_en":"Heishan","name_es":"Heishan","name_fr":"Heishan","name_it":"Heishan","name_ru":"Heishan","elevation":26.0,"timezone":"Asia/Shanghai","admin1_name":"Liaoning"},{"name":"Hushitai","lat":41.94175,"lon":123.50266,"population":61979,"iso_a3":"CHN","country":"China","is_capital":false,"name_en":"Hushitai","name_es":"Hushitai","name_fr":"Hushitai","name_it":"Hushitai","name_ru":"Hushitai","elevation":70.0,"timezone":"Asia/Shanghai","admin1_name":"Liaoning"},{"name":"Linghai","lat":41.16528,"lon":121.36667,"population":56176,"iso_a3":"CHN","country":"China","is_capital":false,"name_en":"Linghai","name_es":"Linghai","name_fr":"Linghai","name_it":"Linghai","name_ru":"Linghai","elevation":27.0,"timezone":"Asia/Shanghai","admin1_name":"Liaoning"},{"name":"Liaozhong","lat":41.50611,"lon":122.72417,"population":54691,"iso_a3":"CHN","country":"China","is_capital":false,"name_en":"Liaozhong","name_es":"Liaozhong","name_fr":"Liaozhong","name_it":"Liaozhong","name_ru":"Liaozhong","elevation":16.0,"timezone":"Asia/Shanghai","admin1_name":"Liaoning"}]