[{"name":"Baicheng","lat":45.61751,"lon":122.83302,"population":316970,"iso_a3":"CHN","country":"China","is_capital":false,"name_en":"Baicheng","name_es":"Baicheng","name_fr":"Baicheng","name_it":"Baicheng","name_ru":"Байчен","elevation":150.0,"timezone":"Asia/Shanghai","admin1_name":"Jilin"},{"name":"Ulanhot","lat":46.08333,"lon":122.08333,"population":165846,"iso_a3":"CHN","country":"China","is_capital":false,"name_en":"Ulanhot","name_es":"Ulanhot","name_fr":"Ulanhot","name_it":"Ulanhot","name_ru":"Ulanhot","elevation":303.0,"timezone":"Asia/Shanghai","admin1_name":"Inner Mongolia"},{"name":"Taonan","lat":45.33319,"lon":122.78464,"population":112819,"iso_a3":"CHN","country":"China","is_capital":false,"name_en":"Taonan","name_es":"Taonan","name_fr":"Taonan","name_it":"Taonan","name_ru":"Таонань","elevation":148.0,"timezone":"Asia/Shanghai","admin1_name":"Jilin"},{"name":"Zhenlai","lat":45.84963,"lon":123.19791,"population":67760,"iso_a3":"CHN","country":"China","is_capital":false,"name_en":"Zhenlai","name_es":"Zhenlai","name_fr":"Zhenlai","name_it":"Zhenlai","name_ru":"Zhenlai","elevation":139.0,"timezone":"Asia/Shanghai","admin1_name":"Jilin"},{"name":"Tailai","lat":46.39004,"lon":123.40849,"population":66623,"iso_a3":"CHN","country":"China","is_capital":false,"name_en":"Tailai","name_es":"Tailai","name_fr":"Tailai","name_it":"Tailai","name_ru":"Tailai","elevation":141.0,"timezone":"Asia/Shanghai","admin1_name":"Heilongjiang"}]