[{"name":"Anda","lat":46.44867,"lon":125.30161,"population":181271,"iso_a3":"CHN","country":"China","is_capital":false,"name_en":"Anda","name_es":"Anda","name_fr":"Anda","name_it":"Anda","name_ru":"Анда","elevation":143.0,"timezone":"Asia/Shanghai","admin1_name":"Heilongjiang"},{"name":"Zhaodong","lat":46.05223,"lon":125.9552,"population":154406,"iso_a3":"CHN","country":"China","is_capital":false,"name_en":"Zhaodong","name_es":"Zhaodong","name_fr":"Zhaodong","name_it":"Zhaodong","name_ru":"Zhaodong","elevation":143.0,"timezone":"Asia/Shanghai","admin1_name":"Heilongjiang"},{"name":"Longfeng","lat":46.53168,"lon":125.1038,"population":152074,"iso_a3":"CHN","country":"China","is_capital":false,"name_en":"Longfeng","name_es":"Longfeng","name_fr":"Longfeng","name_it":"Longfeng","name_ru":"Longfeng","elevation":147.0,"timezone":"Asia/Shanghai","admin1_name":"Heilongjiang"},{"name":"Honggang","lat":46.3974,"lon":124.88447,"population":147977,"iso_a3":"CHN","country":"China","is_capital":false,"name_en":"Honggang","name_es":"Honggang","name_fr":"Honggang","name_it":"Honggang","name_ru":"Honggang","elevation":123.0,"timezone":"Asia/Shanghai","admin1_name":"Heilongjiang"},{"name":"Fuyu","lat":45.18333,"lon":124.81667,"population":138704,"iso_a3":"CHN","country":"China","is_capital":false,"name_en":"Fuyu","name_es":"Fuyu","name_fr":"Fuyu","name_it":"Fuyu","name_ru":"Fuyu","elevation":141.0,"timezone":"Asia/Shanghai","admin1_name":"Jilin"},{"name":"Shuangcheng","lat":45.3798,"lon":126.30711,"population":130710,"iso_a3":"CHN","country":"China","is_capital":false,"name_en":"Shuangcheng","name_es":"Shuangcheng","name_fr":"Shuangcheng","name_it":"Shuangcheng","name_ru":"Shuangcheng","elevation":164.0,"timezone":"Asia/Shanghai","admin1_name":"Heilongjiang"},{"name":"Zhaozhou","lat":45.70595,"lon":125.26606,"population":114009,"iso_a3":"CHN","country":"China","is_capital":false,"name_en":"Zhaozhou","name_es":"Zhaozhou","name_fr":"Zhaozhou","name_it":"Zhaozhou","name_ru":"Чжаочжоу","elevation":154.0,"timezone":"Asia/Shanghai","admin1_name":"Heilongjiang"},{"name":"Songyuan","lat":45.12902,"lon":124.82769,"population":113611,"iso_a3":"CHN","country":"China","is_capital":false,"name_en":"Songyuan","name_es":"Songyuan","name_fr":"Songyuan","name_it":"Songyuan","name_ru":"Сунъюань","elevation":134.0,"timezone":"Asia/Shanghai","admin1_name":"Jilin"},{"name":"Wangkui","lat":46.83214,"lon":126.47657,"population":99617,"iso_a3":"CHN","country":"China","is_capital":false,"name_en":"Wangkui","name_es":"Wangkui","name_fr":"Wangkui","name_it":"Wangkui","name_ru":"Wangkui","elevation":178.0,"timezone":"Asia/Shanghai","admin1_name":"Heilongjiang"},{"name":"Zhaoyuan","lat":45.51971,"lon":125.07633,"population":93505,"iso_a3":"CHN","country":"China","is_capital":false,"name_en":"Zhaoyuan","name_es":"Zhaoyuan","name_fr":"Zhaoyuan","name_it":"Zhaoyuan","name_ru":"Zhaoyuan","elevation":129.0,"timezone":"Asia/Shanghai","admin1_name":"Heilongjiang"},{"name":"Dalai","lat":45.5,"lon":124.3,"population":93297,"iso_a3":"CHN","country":"China","is_capital":false,"name_en":"Dalai","name_es":"Dalai","name_fr":"Dalai","name_it":"Dalai","name_ru":"Dalai","elevation":137.0,"timezone":"Asia/Shanghai","admin1_name":"Jilin"},{"name":"Lanxi","lat":46.25773,"lon":126.28065,"population":72528,"iso_a3":"CHN","country":"China","is_capital":false,"name_en":"Lanxi","name_es":"Lanxi","name_fr":"Lanxi","name_it":"Lanxi","name_ru":"Lanxi","elevation":152.0,"timezone":"Asia/Shanghai","admin1_name":"Heilongjiang"},{"name":"Qinggang","lat":46.69833,"lon":126.0921,"population":64182,"iso_a3":"CHN","country":"China","is_capital":false,"name_en":"Qinggang","name_es":"Qinggang","name_fr":"Qinggang","name_it":"Qinggang","name_ru":"Qinggang","elevation":209.0,"timezone":"Asia/Shanghai","admin1_name":"Heilongjiang"},{"name":"Dorbod","lat":46.86135,"lon":124.442,"population":55316,"iso_a3":"CHN","country":"China","is_capital":false,"name_en":"Dorbod","name_es":"Dorbod","name_fr":"Dorbod","name_it":"Dorbod","name_ru":"Dorbod","elevation":146.0,"timezone":"Asia/Shanghai","admin1_name":"Heilongjiang"}]