[{"name":"Lapu-Lapu City","lat":10.31028,"lon":123.94944,"population":497813,"iso_a3":"PHL","country":"Philippines","is_capital":false,"name_en":"Lapu-Lapu City","name_es":"Lapu-Lapu City","name_fr":"Lapu-Lapu City","name_it":"Lapu-Lapu City","name_ru":"Lapu-Lapu City","elevation":4.0,"timezone":"Asia/Manila","admin1_name":"Central Visayas"},{"name":"Butuan","lat":8.94917,"lon":125.54361,"population":309709,"iso_a3":"PHL","country":"Philippines","is_capital":false,"name_en":"Butuan","name_es":"Butuan","name_fr":"Butuan","name_it":"Butuan","name_ru":"Butuan","elevation":9.0,"timezone":"Asia/Manila","admin1_name":"Caraga"},{"name":"Ormoc","lat":11.00639,"lon":124.6075,"population":238545,"iso_a3":"PHL","country":"Philippines","is_capital":false,"name_en":"Ormoc City","name_es":"Ormoc City","name_fr":"Ormoc City","name_it":"Ormoc City","name_ru":"Ормок","elevation":11.0,"timezone":"Asia/Manila","admin1_name":"Eastern Visayas"},{"name":"Gingoog","lat":8.82778,"lon":125.09972,"population":138895,"iso_a3":"PHL","country":"Philippines","is_capital":false,"name_en":"Gingoog","name_es":"Gingoog","name_fr":"Gingoog","name_it":"Gingoog","name_ru":"Gingoog","elevation":5.0,"timezone":"Asia/Manila","admin1_name":"Northern Mindanao"},{"name":"Naga","lat":10.20898,"lon":123.758,"population":138727,"iso_a3":"PHL","country":"Philippines","is_capital":false,"name_en":"Naga","name_es":"Naga","name_fr":"Naga","name_it":"Naga","name_ru":"Naga","elevation":6.0,"timezone":"Asia/Manila","admin1_name":"Central Visayas"},{"name":"Talisay","lat":10.24472,"lon":123.84944,"population":133148,"iso_a3":"PHL","country":"Philippines","is_capital":false,"name_en":"Talisay City","name_es":"Talisay City","name_fr":"Talisay City","name_it":"Talisay City","name_ru":"Talisay City","elevation":4.0,"timezone":"Asia/Manila","admin1_name":"Central Visayas"},{"name":"Bayugan","lat":8.75611,"lon":125.7675,"population":110313,"iso_a3":"PHL","country":"Philippines","is_capital":false,"name_en":"Bayugan","name_es":"Bayugan","name_fr":"Bayugan","name_it":"Bayugan","name_ru":"Bayugan","elevation":65.0,"timezone":"Asia/Manila","admin1_name":"Caraga"},{"name":"Prosperidad","lat":8.58,"lon":125.89639,"population":90162,"iso_a3":"PHL","country":"Philippines","is_capital":false,"name_en":"Prosperidad","name_es":"Prosperidad","name_fr":"Prosperidad","name_it":"Prosperidad","name_ru":"Prosperidad","elevation":39.0,"timezone":"Asia/Manila","admin1_name":"Caraga"},{"name":"Surigao","lat":9.789,"lon":125.495,"population":87832,"iso_a3":"PHL","country":"Philippines","is_capital":false,"name_en":"Surigao City","name_es":"Surigao City","name_fr":"Surigao City","name_it":"Surigao City","name_ru":"Серигао Сити","elevation":10.0,"timezone":"Asia/Manila","admin1_name":"Caraga"},{"name":"Tagbilaran City","lat":9.65556,"lon":123.85219,"population":86411,"iso_a3":"PHL","country":"Philippines","is_capital":false,"name_en":"Tagbilaran City","name_es":"Tagbilaran City","name_fr":"Tagbilaran City","name_it":"Tagbilaran City","name_ru":"Тагбиларан","elevation":10.0,"timezone":"Asia/Manila","admin1_name":"Central Visayas"},{"name":"San Francisco","lat":8.53556,"lon":125.95,"population":79718,"iso_a3":"PHL","country":"Philippines","is_capital":false,"name_en":"San Francisco","name_es":"San Francisco","name_fr":"San Francisco","name_it":"San Francisco","name_ru":"San Francisco","elevation":39.0,"timezone":"Asia/Manila","admin1_name":"Caraga"},{"name":"Oroquieta","lat":8.4859,"lon":123.8048,"population":71373,"iso_a3":"PHL","country":"Philippines","is_capital":false,"name_en":"Oroquieta","name_es":"Oroquieta","name_fr":"Oroquieta","name_it":"Oroquieta","name_ru":"Oroquieta","elevation":6.0,"timezone":"Asia/Manila","admin1_name":"Northern Mindanao"},{"name":"Buenavista","lat":8.97694,"lon":125.40889,"population":70691,"iso_a3":"PHL","country":"Philippines","is_capital":false,"name_en":"Buenavista","name_es":"Buenavista","name_fr":"Buenavista","name_it":"Buenavista","name_ru":"Buenavista","elevation":7.0,"timezone":"Asia/Manila","admin1_name":"Caraga"},{"name":"Danao","lat":10.52083,"lon":124.02722,"population":70270,"iso_a3":"PHL","country":"Philippines","is_capital":false,"name_en":"Danao","name_es":"Danao","name_fr":"Danao","name_it":"Danao","name_ru":"Danao","elevation":7.0,"timezone":"Asia/Manila","admin1_name":"Central Visayas"},{"name":"Minglanilla","lat":10.24498,"lon":123.7964,"population":62058,"iso_a3":"PHL","country":"Philippines","is_capital":false,"name_en":"Minglanilla","name_es":"Minglanilla","name_fr":"Minglanilla","name_it":"Minglanilla","name_ru":"Minglanilla","elevation":16.0,"timezone":"Asia/Manila","admin1_name":"Central Visayas"},{"name":"Cogan","lat":10.59306,"lon":124.01778,"population":60230,"iso_a3":"PHL","country":"Philippines","is_capital":false,"name_en":"Cogan","name_es":"Cogan","name_fr":"Cogan","name_it":"Cogan","name_ru":"Кармен","elevation":13.0,"timezone":"Asia/Manila","admin1_name":"Central Visayas"},{"name":"Burauen","lat":10.97556,"lon":124.89278,"population":54635,"iso_a3":"PHL","country":"Philippines","is_capital":false,"name_en":"Burauen","name_es":"Burauen","name_fr":"Burauen","name_it":"Burauen","name_ru":"Burauen","elevation":59.0,"timezone":"Asia/Manila","admin1_name":"Eastern Visayas"},{"name":"Liloan","lat":10.3991,"lon":123.9992,"population":49198,"iso_a3":"PHL","country":"Philippines","is_capital":false,"name_en":"Liloan","name_es":"Liloan","name_fr":"Liloan","name_it":"Liloan","name_ru":"Liloan","elevation":8.0,"timezone":"Asia/Manila","admin1_name":"Central Visayas"},{"name":"Consolacion","lat":10.3766,"lon":123.9573,"population":48638,"iso_a3":"PHL","country":"Philippines","is_capital":false,"name_en":"Consolacion","name_es":"Consolacion","name_fr":"Consolacion","name_it":"Consolacion","name_ru":"Consolacion","elevation":11.0,"timezone":"Asia/Manila","admin1_name":"Central Visayas"},{"name":"Inabanga","lat":10.0307,"lon":124.0671,"population":48534,"iso_a3":"PHL","country":"Philippines","is_capital":false,"name_en":"Inabanga","name_es":"Inabanga","name_fr":"Inabanga","name_it":"Inabanga","name_ru":"Inabanga","elevation":2.0,"timezone":"Asia/Manila","admin1_name":"Central Visayas"},{"name":"Tagbina","lat":8.45194,"lon":126.17139,"population":41157,"iso_a3":"PHL","country":"Philippines","is_capital":false,"name_en":"Tagbina","name_es":"Tagbina","name_fr":"Tagbina","name_it":"Tagbina","name_ru":"Tagbina","elevation":57.0,"timezone":"Asia/Manila","admin1_name":"Caraga"},{"name":"Jetafe","lat":10.14722,"lon":124.15389,"population":33485,"iso_a3":"PHL","country":"Philippines","is_capital":false,"name_en":"Getafe","name_es":"Jetafe","name_fr":"Jetafe","name_it":"Getafe","name_ru":"Getafe","elevation":7.0,"timezone":"Asia/Manila","admin1_name":"Central Visayas"},{"name":"Jagna","lat":9.6531,"lon":124.3697,"population":32566,"iso_a3":"PHL","country":"Philippines","is_capital":false,"name_en":"Jagna","name_es":"Jagna","name_fr":"Jagna","name_it":"Jagna","name_ru":"Jagna","elevation":5.0,"timezone":"Asia/Manila","admin1_name":"Central Visayas"},{"name":"Cabadbaran","lat":9.12261,"lon":125.53549,"population":31114,"iso_a3":"PHL","country":"Philippines","is_capital":false,"name_en":"Cabadbaran","name_es":"Cabadbarán","name_fr":"Cabadbaran","name_it":"Cabadbaran","name_ru":"Кабадбаран","elevation":10.0,"timezone":"Asia/Manila","admin1_name":"Caraga"},{"name":"Tagoloan","lat":8.53954,"lon":124.75411,"population":30390,"iso_a3":"PHL","country":"Philippines","is_capital":false,"name_en":"Tagoloan","name_es":"Tagoloan","name_fr":"Tagoloan","name_it":"Tagoloan","name_ru":"Tagoloan","elevation":15.0,"timezone":"Asia/Manila","admin1_name":"Northern Mindanao"}]