[{"name":"Cotabato","lat":7.22361,"lon":124.24639,"population":383383,"iso_a3":"PHL","country":"Philippines","is_capital":false,"name_en":"Cotabato City","name_es":"Cotabato City","name_fr":"Cotabato City","name_it":"Cotabato City","name_ru":"Котабато","elevation":7.0,"timezone":"Asia/Manila","admin1_name":"Autonomous Region in Muslim Mindanao"},{"name":"Iligan","lat":8.2289,"lon":124.24344,"population":342618,"iso_a3":"PHL","country":"Philippines","is_capital":false,"name_en":"Iligan","name_es":"Iligan","name_fr":"Iligan","name_it":"Iligan","name_ru":"Iligan","elevation":5.0,"timezone":"Asia/Manila","admin1_name":"Northern Mindanao"},{"name":"Iligan City","lat":8.25,"lon":124.4,"population":312323,"iso_a3":"PHL","country":"Philippines","is_capital":false,"name_en":"Iligan City","name_es":"Iligan City","name_fr":"Iligan City","name_it":"Iligan City","name_ru":"Iligan City","elevation":282.0,"timezone":"Asia/Manila","admin1_name":"Soccsksargen"},{"name":"Mantampay","lat":8.16667,"lon":124.21667,"population":265032,"iso_a3":"PHL","country":"Philippines","is_capital":false,"name_en":"Mantampay","name_es":"Mantampay","name_fr":"Mantampay","name_it":"Mantampay","name_ru":"Mantampay","elevation":172.0,"timezone":"Asia/Manila","admin1_name":"Northern Mindanao"},{"name":"Marawi City","lat":8.0034,"lon":124.28395,"population":259993,"iso_a3":"PHL","country":"Philippines","is_capital":false,"name_en":"Marawi City","name_es":"Marawi City","name_fr":"Marawi City","name_it":"Marawi City","name_ru":"Marawi City","elevation":719.0,"timezone":"Asia/Manila","admin1_name":"Autonomous Region in Muslim Mindanao"},{"name":"Magugpo Poblacion","lat":7.4475,"lon":125.8046,"population":233254,"iso_a3":"PHL","country":"Philippines","is_capital":false,"name_en":"Tagum","name_es":"Tágum","name_fr":"Tagum","name_it":"Tagum","name_ru":"Тагум","elevation":24.0,"timezone":"Asia/Manila","admin1_name":"Davao Region"},{"name":"NIA Valencia","lat":7.90639,"lon":125.09417,"population":223620,"iso_a3":"PHL","country":"Philippines","is_capital":false,"name_en":"NIA Valencia","name_es":"NIA Valencia","name_fr":"NIA Valencia","name_it":"NIA Valencia","name_ru":"Валенсия","elevation":310.0,"timezone":"Asia/Manila","admin1_name":"Northern Mindanao"},{"name":"Panabo","lat":7.30806,"lon":125.68417,"population":211242,"iso_a3":"PHL","country":"Philippines","is_capital":false,"name_en":"Panabo","name_es":"Panabo","name_fr":"Panabo","name_it":"Panabo","name_ru":"Панабо","elevation":4.0,"timezone":"Asia/Manila","admin1_name":"Davao Region"},{"name":"Koronadal","lat":6.50306,"lon":124.84694,"population":201844,"iso_a3":"PHL","country":"Philippines","is_capital":false,"name_en":"Koronadal","name_es":"Koronadal","name_fr":"Koronadal","name_it":"Koronadal","name_ru":"Koronadal","elevation":52.0,"timezone":"Asia/Manila","admin1_name":"Soccsksargen"},{"name":"Malita","lat":6.415,"lon":125.61167,"population":118438,"iso_a3":"PHL","country":"Philippines","is_capital":false,"name_en":"Malita","name_es":"Malita","name_fr":"Malita","name_it":"Malita","name_ru":"Malita","elevation":8.0,"timezone":"Asia/Manila","admin1_name":"Davao Region"},{"name":"Manolo Fortich","lat":8.36972,"lon":124.86444,"population":118075,"iso_a3":"PHL","country":"Philippines","is_capital":false,"name_en":"Manolo Fortich","name_es":"Maluko","name_fr":"Manolo Fortich","name_it":"Manolo Fortich","name_ru":"Manolo Fortich","elevation":515.0,"timezone":"Asia/Manila","admin1_name":"Northern Mindanao"},{"name":"Midsayap","lat":7.19083,"lon":124.53028,"population":117365,"iso_a3":"PHL","country":"Philippines","is_capital":false,"name_en":"Midsayap","name_es":"Midsayap","name_fr":"Midsayap","name_it":"Midsayap","name_ru":"Midsayap","elevation":19.0,"timezone":"Asia/Manila","admin1_name":"Soccsksargen"},{"name":"Tacurong","lat":6.6925,"lon":124.67639,"population":116945,"iso_a3":"PHL","country":"Philippines","is_capital":false,"name_en":"Tacurong","name_es":"Tacurong","name_fr":"Tacurong","name_it":"Tacurong","name_ru":"Tacurong","elevation":48.0,"timezone":"Asia/Manila","admin1_name":"Soccsksargen"},{"name":"Dinaig","lat":7.16985,"lon":124.20836,"population":116768,"iso_a3":"PHL","country":"Philippines","is_capital":false,"name_en":"Dinaig","name_es":"Dinaig","name_fr":"Dinaig","name_it":"Dinaig","name_ru":"Dinaig","elevation":40.0,"timezone":"Asia/Manila","admin1_name":"Autonomous Region in Muslim Mindanao"},{"name":"Digos","lat":6.74972,"lon":125.35722,"population":116122,"iso_a3":"PHL","country":"Philippines","is_capital":false,"name_en":"Digos","name_es":"Digos","name_fr":"Digos","name_it":"Digos","name_ru":"Digos","elevation":18.0,"timezone":"Asia/Manila","admin1_name":"Davao Region"},{"name":"Quezon","lat":7.73028,"lon":125.09889,"population":114521,"iso_a3":"PHL","country":"Philippines","is_capital":false,"name_en":"Quezon","name_es":"Quezon","name_fr":"Quezon","name_it":"Quezon","name_ru":"Кесон","elevation":273.0,"timezone":"Asia/Manila","admin1_name":"Northern Mindanao"},{"name":"Maramag","lat":7.76333,"lon":125.00528,"population":109864,"iso_a3":"PHL","country":"Philippines","is_capital":false,"name_en":"Maramag","name_es":"Maramag","name_fr":"Maramag","name_it":"Maramag","name_ru":"Maramag","elevation":276.0,"timezone":"Asia/Manila","admin1_name":"Northern Mindanao"},{"name":"Mati","lat":6.95508,"lon":126.21655,"population":105908,"iso_a3":"PHL","country":"Philippines","is_capital":false,"name_en":"Mati","name_es":"Mati","name_fr":"Mati","name_it":"Mati","name_ru":"Мати","elevation":21.0,"timezone":"Asia/Manila","admin1_name":"Davao Region"},{"name":"Isulan","lat":6.62944,"lon":124.605,"population":101455,"iso_a3":"PHL","country":"Philippines","is_capital":false,"name_en":"Isulan","name_es":"Isulan","name_fr":"Isulan","name_it":"Isulan","name_ru":"Isulan","elevation":65.0,"timezone":"Asia/Manila","admin1_name":"Soccsksargen"},{"name":"Bislig","lat":8.21528,"lon":126.31639,"population":99872,"iso_a3":"PHL","country":"Philippines","is_capital":false,"name_en":"Bislig","name_es":"Bislig","name_fr":"Bislig","name_it":"Bislig","name_ru":"Bislig","elevation":11.0,"timezone":"Asia/Manila","admin1_name":"Caraga"},{"name":"Monkayo","lat":7.81528,"lon":126.05444,"population":96405,"iso_a3":"PHL","country":"Philippines","is_capital":false,"name_en":"Monkayo","name_es":"Monkayo","name_fr":"Monkayo","name_it":"Monkayo","name_ru":"Monkayo","elevation":61.0,"timezone":"Asia/Manila","admin1_name":"Davao Region"},{"name":"Ozamiz City","lat":8.1481,"lon":123.8405,"population":93082,"iso_a3":"PHL","country":"Philippines","is_capital":false,"name_en":"Ozamiz","name_es":"Ozamiz","name_fr":"Ozamiz","name_it":"Ozamiz","name_ru":"Озамис","elevation":10.0,"timezone":"Asia/Manila","admin1_name":"Northern Mindanao"},{"name":"Surallah","lat":6.37527,"lon":124.74521,"population":91412,"iso_a3":"PHL","country":"Philippines","is_capital":false,"name_en":"Surallah","name_es":"Surala","name_fr":"Surallah","name_it":"Surallah","name_ru":"Surallah","elevation":195.0,"timezone":"Asia/Manila","admin1_name":"Soccsksargen"},{"name":"Alabel","lat":6.10179,"lon":125.29048,"population":90120,"iso_a3":"PHL","country":"Philippines","is_capital":false,"name_en":"Alabel","name_es":"Alabel","name_fr":"Alabel","name_it":"Alabel","name_ru":"Alabel","elevation":40.0,"timezone":"Asia/Manila","admin1_name":"Soccsksargen"},{"name":"Maco","lat":7.36194,"lon":125.85528,"population":87680,"iso_a3":"PHL","country":"Philippines","is_capital":false,"name_en":"Maco","name_es":"Maco","name_fr":"Maco","name_it":"Maco","name_ru":"Maco","elevation":11.0,"timezone":"Asia/Manila","admin1_name":"Davao Region"},{"name":"Malapatan","lat":5.96917,"lon":125.28944,"population":82577,"iso_a3":"PHL","country":"Philippines","is_capital":false,"name_en":"Malapatan","name_es":"Malapatan","name_fr":"Malapatan","name_it":"Malapatan","name_ru":"Malapatan","elevation":26.0,"timezone":"Asia/Manila","admin1_name":"Soccsksargen"},{"name":"Lambayong","lat":6.51944,"lon":125.04444,"population":81288,"iso_a3":"PHL","country":"Philippines","is_capital":false,"name_en":"Lambayong","name_es":"Lambayong","name_fr":"Lambayong","name_it":"Lambayong","name_ru":"Lambayong","elevation":810.0,"timezone":"Asia/Manila","admin1_name":"Soccsksargen"},{"name":"Kidapawan","lat":7.00833,"lon":125.08944,"population":79652,"iso_a3":"PHL","country":"Philippines","is_capital":false,"name_en":"Kidapawan","name_es":"Kidapawan","name_fr":"Kidapawan","name_it":"Kidapawan","name_ru":"Кидапаван","elevation":275.0,"timezone":"Asia/Manila","admin1_name":"Soccsksargen"},{"name":"Tupi","lat":6.33444,"lon":124.95278,"population":78599,"iso_a3":"PHL","country":"Philippines","is_capital":false,"name_en":"Tupi","name_es":"Tupi","name_fr":"Tupi","name_it":"Tupi","name_ru":"Tupi","elevation":317.0,"timezone":"Asia/Manila","admin1_name":"Soccsksargen"},{"name":"Don Carlos","lat":7.68,"lon":125.005,"population":73592,"iso_a3":"PHL","country":"Philippines","is_capital":false,"name_en":"Don Carlos","name_es":"Don Carlos de Maramag","name_fr":"Don Carlos","name_it":"Don Carlos","name_ru":"Don Carlos","elevation":307.0,"timezone":"Asia/Manila","admin1_name":"Northern Mindanao"},{"name":"Lupon","lat":6.89814,"lon":126.00961,"population":68717,"iso_a3":"PHL","country":"Philippines","is_capital":false,"name_en":"Lupon","name_es":"Lupon","name_fr":"Lupon","name_it":"Lupon","name_ru":"Lupon","elevation":23.0,"timezone":"Asia/Manila","admin1_name":"Davao Region"},{"name":"Polomolok","lat":6.22167,"lon":125.06398,"population":63987,"iso_a3":"PHL","country":"Philippines","is_capital":false,"name_en":"Polomolok","name_es":"Polomolok","name_fr":"Polomolok","name_it":"Polomolok","name_ru":"Polomolok","elevation":300.0,"timezone":"Asia/Manila","admin1_name":"Soccsksargen"},{"name":"Malaybalay","lat":8.1575,"lon":125.12778,"population":61524,"iso_a3":"PHL","country":"Philippines","is_capital":false,"name_en":"Malaybalay","name_es":"Malaybalay","name_fr":"Malaybalay","name_it":"Malaybalay","name_ru":"Малайбалай","elevation":629.0,"timezone":"Asia/Manila","admin1_name":"Northern Mindanao"},{"name":"Buluan","lat":6.72028,"lon":124.80194,"population":60931,"iso_a3":"PHL","country":"Philippines","is_capital":false,"name_en":"Buluan","name_es":"Buluan","name_fr":"Buluan","name_it":"Buluan","name_ru":"Buluan","elevation":16.0,"timezone":"Asia/Manila","admin1_name":"Autonomous Region in Muslim Mindanao"},{"name":"Bañga","lat":6.42389,"lon":124.77833,"population":58855,"iso_a3":"PHL","country":"Philippines","is_capital":false,"name_en":"Bañga","name_es":"Bañga","name_fr":"Bañga","name_it":"Bañga","name_ru":"Bañga","elevation":165.0,"timezone":"Asia/Manila","admin1_name":"Soccsksargen"},{"name":"Magsaysay","lat":6.76667,"lon":125.18333,"population":57936,"iso_a3":"PHL","country":"Philippines","is_capital":false,"name_en":"Magsaysay","name_es":"Magsaysay","name_fr":"Magsaysay","name_it":"Magsaysay","name_ru":"Magsaysay","elevation":102.0,"timezone":"Asia/Manila","admin1_name":"Davao Region"},{"name":"Impasugong","lat":8.30972,"lon":125.00194,"population":55901,"iso_a3":"PHL","country":"Philippines","is_capital":false,"name_en":"Impasugong","name_es":"Impasugong","name_fr":"Impasugong","name_it":"Impasugong","name_ru":"Impasugong","elevation":613.0,"timezone":"Asia/Manila","admin1_name":"Northern Mindanao"},{"name":"Kalamansig","lat":6.55187,"lon":124.05111,"population":52257,"iso_a3":"PHL","country":"Philippines","is_capital":false,"name_en":"Kalamansig","name_es":"Kalamansig","name_fr":"Kalamansig","name_it":"Kalamansig","name_ru":"Kalamansig","elevation":2.0,"timezone":"Asia/Manila","admin1_name":"Soccsksargen"},{"name":"Maluñgun","lat":6.27917,"lon":125.28167,"population":52248,"iso_a3":"PHL","country":"Philippines","is_capital":false,"name_en":"Maluñgun","name_es":"Maluñgun","name_fr":"Maluñgun","name_it":"Maluñgun","name_ru":"Maluñgun","elevation":127.0,"timezone":"Asia/Manila","admin1_name":"Soccsksargen"},{"name":"Bunawan","lat":8.16722,"lon":125.99083,"population":50999,"iso_a3":"PHL","country":"Philippines","is_capital":false,"name_en":"Bunawan","name_es":"Bunawan","name_fr":"Bunawan","name_it":"Bunawan","name_ru":"Bunawan","elevation":25.0,"timezone":"Asia/Manila","admin1_name":"Caraga"},{"name":"Tubod","lat":8.0555,"lon":123.7904,"population":50395,"iso_a3":"PHL","country":"Philippines","is_capital":false,"name_en":"Tubod","name_es":"Tubod","name_fr":"Tubod","name_it":"Tubod","name_ru":"Tubod","elevation":11.0,"timezone":"Asia/Manila","admin1_name":"Northern Mindanao"},{"name":"Norala","lat":6.5225,"lon":124.65917,"population":48499,"iso_a3":"PHL","country":"Philippines","is_capital":false,"name_en":"Norala","name_es":"Norala","name_fr":"Norala","name_it":"Norala","name_ru":"Norala","elevation":103.0,"timezone":"Asia/Manila","admin1_name":"Soccsksargen"},{"name":"Parang","lat":7.37035,"lon":124.26973,"population":44930,"iso_a3":"PHL","country":"Philippines","is_capital":false,"name_en":"Parang","name_es":"Parang","name_fr":"Parang","name_it":"Parang","name_ru":"Parang","elevation":57.0,"timezone":"Asia/Manila","admin1_name":"Autonomous Region in Muslim Mindanao"},{"name":"Hinatuan","lat":8.37222,"lon":126.33417,"population":44475,"iso_a3":"PHL","country":"Philippines","is_capital":false,"name_en":"Hinatuan","name_es":"Hinatuan","name_fr":"Hinatuan","name_it":"Hinatuan","name_ru":"Hinatuan","elevation":7.0,"timezone":"Asia/Manila","admin1_name":"Caraga"},{"name":"Samal","lat":7.07444,"lon":125.70833,"population":43526,"iso_a3":"PHL","country":"Philippines","is_capital":false,"name_en":"Samal","name_es":"Sámal","name_fr":"Samal","name_it":"Samal","name_ru":"Самал","elevation":8.0,"timezone":"Asia/Manila","admin1_name":"Davao Region"},{"name":"Compostela","lat":7.67306,"lon":126.08889,"population":42563,"iso_a3":"PHL","country":"Philippines","is_capital":false,"name_en":"Compostela","name_es":"Compostela","name_fr":"Compostela","name_it":"Compostela","name_ru":"Compostela","elevation":74.0,"timezone":"Asia/Manila","admin1_name":"Davao Region"},{"name":"Sultan sa Barongis","lat":6.8,"lon":124.63667,"population":39182,"iso_a3":"PHL","country":"Philippines","is_capital":false,"name_en":"Sultan sa Barongis","name_es":"Sultan sa Barongis","name_fr":"Sultan sa Barongis","name_it":"Sultan sa Barongis","name_ru":"Sultan sa Barongis","elevation":29.0,"timezone":"Asia/Manila","admin1_name":"Autonomous Region in Muslim Mindanao"},{"name":"Kabacan","lat":7.10667,"lon":124.82917,"population":31769,"iso_a3":"PHL","country":"Philippines","is_capital":false,"name_en":"Kabacan","name_es":"Kabacan","name_fr":"Kabacan","name_it":"Kabacan","name_ru":"Kabacan","elevation":24.0,"timezone":"Asia/Manila","admin1_name":"Soccsksargen"},{"name":"General Salipada K. Pendatun","lat":6.82626,"lon":124.72171,"population":31263,"iso_a3":"PHL","country":"Philippines","is_capital":false,"name_en":"General Salipada K. Pendatun","name_es":"General Salipada K. Pendatun","name_fr":"General Salipada K. Pendatun","name_it":"General Salipada K. Pendatun","name_ru":"General Salipada K. Pendatun","elevation":13.0,"timezone":"Asia/Manila","admin1_name":"Autonomous Region in Muslim Mindanao"},{"name":"Pagaluñgan","lat":7.14167,"lon":124.38056,"population":31052,"iso_a3":"PHL","country":"Philippines","is_capital":false,"name_en":"Pagaluñgan","name_es":"Pagaluñgan","name_fr":"Pagaluñgan","name_it":"Pagaluñgan","name_ru":"Pagaluñgan","elevation":4.0,"timezone":"Asia/Manila","admin1_name":"Autonomous Region in Muslim Mindanao"}]