[{"name":"Jiutai","lat":44.15127,"lon":125.82975,"population":175115,"iso_a3":"CHN","country":"China","is_capital":false,"name_en":"Jiutai","name_es":"Jiutai","name_fr":"Jiutai","name_it":"Jiutai","name_ru":"Jiutai","elevation":170.0,"timezone":"Asia/Shanghai","admin1_name":"Jilin"},{"name":"Gongzhuling","lat":43.50075,"lon":124.81979,"population":140909,"iso_a3":"CHN","country":"China","is_capital":false,"name_en":"Gongzhuling","name_es":"Gongzhuling","name_fr":"Gongzhuling","name_it":"Gongzhuling","name_ru":"Гунчжулин","elevation":211.0,"timezone":"Asia/Shanghai","admin1_name":"Jilin"},{"name":"Yushu","lat":44.82751,"lon":126.54063,"population":124736,"iso_a3":"CHN","country":"China","is_capital":false,"name_en":"Yushu","name_es":"Yushu","name_fr":"Yushu","name_it":"Yushu","name_ru":"Юйшу","elevation":196.0,"timezone":"Asia/Shanghai","admin1_name":"Jilin"},{"name":"Dehui","lat":44.53674,"lon":125.69427,"population":108818,"iso_a3":"CHN","country":"China","is_capital":false,"name_en":"Dehui","name_es":"Dehui","name_fr":"Dehui","name_it":"Dehui","name_ru":"Dehui","elevation":174.0,"timezone":"Asia/Shanghai","admin1_name":"Jilin"},{"name":"Shuangyang","lat":43.52259,"lon":125.65948,"population":62137,"iso_a3":"CHN","country":"China","is_capital":false,"name_en":"Shuangyang","name_es":"Shuangyang","name_fr":"Shuangyang","name_it":"Shuangyang","name_ru":"Shuangyang","elevation":210.0,"timezone":"Asia/Shanghai","admin1_name":"Jilin"},{"name":"Lishu","lat":43.30727,"lon":124.33371,"population":61584,"iso_a3":"CHN","country":"China","is_capital":false,"name_en":"Lishu","name_es":"Lishu","name_fr":"Lishu","name_it":"Lishu","name_ru":"Лишать","elevation":165.0,"timezone":"Asia/Shanghai","admin1_name":"Jilin"},{"name":"Xinglongshan","lat":43.95611,"lon":125.46611,"population":58432,"iso_a3":"CHN","country":"China","is_capital":false,"name_en":"Xinglongshan","name_es":"Xinglongshan","name_fr":"Xinglongshan","name_it":"Xinglongshan","name_ru":"Xinglongshan","elevation":228.0,"timezone":"Asia/Shanghai","admin1_name":"Jilin"},{"name":"Yantongshan","lat":43.29194,"lon":126.00944,"population":57515,"iso_a3":"CHN","country":"China","is_capital":false,"name_en":"Yantongshan","name_es":"Yantongshan","name_fr":"Yantongshan","name_it":"Yantongshan","name_ru":"Yantongshan","elevation":250.0,"timezone":"Asia/Shanghai","admin1_name":"Jilin"},{"name":"Changling","lat":44.27295,"lon":123.97559,"population":55841,"iso_a3":"CHN","country":"China","is_capital":false,"name_en":"Changling","name_es":"Changling","name_fr":"Changling","name_it":"Changling","name_ru":"Changling","elevation":191.0,"timezone":"Asia/Shanghai","admin1_name":"Jilin"},{"name":"Fate","lat":44.48333,"lon":126.5,"population":38105,"iso_a3":"CHN","country":"China","is_capital":false,"name_en":"Fate","name_es":"Fate","name_fr":"Fate","name_it":"Fate","name_ru":"Fate","elevation":162.0,"timezone":"Asia/Shanghai","admin1_name":"Jilin"}]