[{"name":"Seosan","lat":36.78167,"lon":126.45222,"population":74208,"iso_a3":"KOR","country":"South Korea","is_capital":false,"name_en":"Seosan City","name_es":"Seosan","name_fr":"Seosan","name_it":"Seosan City","name_ru":"Сосан","elevation":33.0,"timezone":"Asia/Seoul","admin1_name":"Chungcheongnam-do"},{"name":"Namp’o","lat":38.7375,"lon":125.40778,"population":455000,"iso_a3":"PRK","country":"North Korea","is_capital":false,"name_en":"Namp’o","name_es":"Namp’o","name_fr":"Namp’o","name_it":"Namp’o","name_ru":"Нампхо","elevation":9.0,"timezone":"Asia/Pyongyang","admin1_name":"Nampo"},{"name":"Kaesŏng","lat":37.97083,"lon":126.55444,"population":338155,"iso_a3":"PRK","country":"North Korea","is_capital":false,"name_en":"Kaesong","name_es":"Kaesong","name_fr":"Kaesong","name_it":"Kaesong","name_ru":"Кэсон","elevation":42.0,"timezone":"Asia/Pyongyang","admin1_name":"Kaesong"},{"name":"Sariwŏn-si","lat":38.50722,"lon":125.75583,"population":310100,"iso_a3":"PRK","country":"North Korea","is_capital":false,"name_en":"Sariwŏn-si","name_es":"Sariwŏn-si","name_fr":"Sariwŏn-si","name_it":"Sariwŏn-si","name_ru":"Саривоне","elevation":20.0,"timezone":"Asia/Pyongyang","admin1_name":"North Hwanghae"},{"name":"Haeju","lat":38.04056,"lon":125.71472,"population":222396,"iso_a3":"PRK","country":"North Korea","is_capital":false,"name_en":"Haeju","name_es":"Haeju","name_fr":"Haeju","name_it":"Haeju","name_ru":"Хэджу","elevation":57.0,"timezone":"Asia/Pyongyang","admin1_name":"South Hwanghae"},{"name":"Paech’ŏn-ŭp","lat":37.99306,"lon":126.30139,"population":159825,"iso_a3":"PRK","country":"North Korea","is_capital":false,"name_en":"Paech’ŏn-ŭp","name_es":"Paech’ŏn-ŭp","name_fr":"Paech’ŏn-ŭp","name_it":"Paech’ŏn-ŭp","name_ru":"Paech’ŏn-ŭp","elevation":32.0,"timezone":"Asia/Pyongyang","admin1_name":"South Hwanghae"},{"name":"Songnim-ni","lat":38.76349,"lon":125.64096,"population":152425,"iso_a3":"PRK","country":"North Korea","is_capital":false,"name_en":"Songnim-ni","name_es":"Songnim-ni","name_fr":"Songnim-ni","name_it":"Songnim-ni","name_ru":"Songnim-ni","elevation":27.0,"timezone":"Asia/Pyongyang","admin1_name":"North Hwanghae"},{"name":"Ch’ŏngdan-ŭp","lat":37.97028,"lon":125.9375,"population":142607,"iso_a3":"PRK","country":"North Korea","is_capital":false,"name_en":"Ch’ŏngdan-ŭp","name_es":"Ch’ŏngdan-ŭp","name_fr":"Ch’ŏngdan-ŭp","name_it":"Ch’ŏngdan-ŭp","name_ru":"Ch’ŏngdan-ŭp","elevation":21.0,"timezone":"Asia/Pyongyang","admin1_name":"South Hwanghae"},{"name":"Sinch’ŏn-ŭp","lat":38.35323,"lon":125.48423,"population":141407,"iso_a3":"PRK","country":"North Korea","is_capital":false,"name_en":"Sinch’ŏn-ŭp","name_es":"Sinch’ŏn-ŭp","name_fr":"Sinch’ŏn-ŭp","name_it":"Sinch’ŏn-ŭp","name_ru":"Sinch’ŏn-ŭp","elevation":21.0,"timezone":"Asia/Pyongyang","admin1_name":"South Hwanghae"},{"name":"Chaeryŏng-ni","lat":38.73583,"lon":125.23083,"population":125631,"iso_a3":"PRK","country":"North Korea","is_capital":false,"name_en":"Chaeryŏng-ni","name_es":"Chaeryŏng-ni","name_fr":"Chaeryŏng-ni","name_it":"Chaeryŏng-ni","name_ru":"Chaeryŏng-ni","elevation":13.0,"timezone":"Asia/Pyongyang","admin1_name":"South Pyongan"},{"name":"Ŭllyul","lat":38.51389,"lon":125.18972,"population":107997,"iso_a3":"PRK","country":"North Korea","is_capital":false,"name_en":"Ŭllyul","name_es":"Ŭllyul","name_fr":"Ŭllyul","name_it":"Ŭllyul","name_ru":"Ŭllyul","elevation":29.0,"timezone":"Asia/Pyongyang","admin1_name":"South Hwanghae"},{"name":"Kangnyŏng","lat":37.9075,"lon":125.51,"population":106827,"iso_a3":"PRK","country":"North Korea","is_capital":false,"name_en":"Kangnyŏng","name_es":"Kangnyŏng","name_fr":"Kangnyŏng","name_it":"Kangnyŏng","name_ru":"Kangnyŏng","elevation":16.0,"timezone":"Asia/Pyongyang","admin1_name":"South Hwanghae"},{"name":"Ŭnch’ŏn-ŭp","lat":38.56556,"lon":125.42722,"population":95597,"iso_a3":"PRK","country":"North Korea","is_capital":false,"name_en":"Ŭnch’ŏn-ŭp","name_es":"Ŭnch’ŏn-ŭp","name_fr":"Ŭnch’ŏn-ŭp","name_it":"Ŭnch’ŏn-ŭp","name_ru":"Ŭnch’ŏn-ŭp","elevation":27.0,"timezone":"Asia/Pyongyang","admin1_name":"South Hwanghae"},{"name":"Kwail-ŭp","lat":38.44611,"lon":125.01861,"population":89895,"iso_a3":"PRK","country":"North Korea","is_capital":false,"name_en":"Kwail-ŭp","name_es":"Kwail-ŭp","name_fr":"Kwail-ŭp","name_it":"Kwail-ŭp","name_ru":"Kwail-ŭp","elevation":19.0,"timezone":"Asia/Pyongyang","admin1_name":"South Hwanghae"},{"name":"Samch’ŏn","lat":38.35944,"lon":125.32586,"population":86042,"iso_a3":"PRK","country":"North Korea","is_capital":false,"name_en":"Samch’ŏn","name_es":"Samch’ŏn","name_fr":"Samch’ŏn","name_it":"Samch’ŏn","name_ru":"Samch’ŏn","elevation":46.0,"timezone":"Asia/Pyongyang","admin1_name":"South Hwanghae"},{"name":"Sinwŏn-ŭp","lat":38.23532,"lon":125.76244,"population":83161,"iso_a3":"PRK","country":"North Korea","is_capital":false,"name_en":"Sinwŏn-ŭp","name_es":"Sinwŏn-ŭp","name_fr":"Sinwŏn-ŭp","name_it":"Sinwŏn-ŭp","name_ru":"Sinwŏn-ŭp","elevation":85.0,"timezone":"Asia/Pyongyang","admin1_name":"South Hwanghae"},{"name":"Pongch’ŏn-ŭp","lat":38.12389,"lon":126.20472,"population":79740,"iso_a3":"PRK","country":"North Korea","is_capital":false,"name_en":"Pongch’ŏn-ŭp","name_es":"Pongch’ŏn-ŭp","name_fr":"Pongch’ŏn-ŭp","name_it":"Pongch’ŏn-ŭp","name_ru":"Pongch’ŏn-ŭp","elevation":57.0,"timezone":"Asia/Pyongyang","admin1_name":"South Hwanghae"},{"name":"T’aet’an-ŭp","lat":38.08822,"lon":125.2983,"population":64258,"iso_a3":"PRK","country":"North Korea","is_capital":false,"name_en":"T’aet’an-ŭp","name_es":"T’aet’an-ŭp","name_fr":"T’aet’an-ŭp","name_it":"T’aet’an-ŭp","name_ru":"T’aet’an-ŭp","elevation":22.0,"timezone":"Asia/Pyongyang","admin1_name":"South Hwanghae"},{"name":"Ongjin","lat":37.93472,"lon":125.36194,"population":64247,"iso_a3":"PRK","country":"North Korea","is_capital":false,"name_en":"Ongjin","name_es":"Ongjin","name_fr":"Ongjin","name_it":"Ongjin","name_ru":"Ончжин","elevation":19.0,"timezone":"Asia/Pyongyang","admin1_name":"South Hwanghae"},{"name":"Chaeryŏng-ŭp","lat":38.39917,"lon":125.61556,"population":53330,"iso_a3":"PRK","country":"North Korea","is_capital":false,"name_en":"Chaeryŏng-ŭp","name_es":"Chaeryŏng-ŭp","name_fr":"Chaeryŏng-ŭp","name_it":"Chaeryŏng-ŭp","name_ru":"Chaeryŏng-ŭp","elevation":17.0,"timezone":"Asia/Pyongyang","admin1_name":"South Hwanghae"},{"name":"Songhwa","lat":38.36028,"lon":125.13722,"population":44274,"iso_a3":"PRK","country":"North Korea","is_capital":false,"name_en":"Songhwa","name_es":"Songhwa","name_fr":"Songhwa","name_it":"Songhwa","name_ru":"Songhwa","elevation":74.0,"timezone":"Asia/Pyongyang","admin1_name":"South Hwanghae"},{"name":"Changyŏn","lat":38.25083,"lon":125.09611,"population":39368,"iso_a3":"PRK","country":"North Korea","is_capital":false,"name_en":"Changyŏn","name_es":"Changyŏn","name_fr":"Changyŏn","name_it":"Changyŏn","name_ru":"Changyŏn","elevation":21.0,"timezone":"Asia/Pyongyang","admin1_name":"South Hwanghae"},{"name":"Hwangju-ŭp","lat":38.67028,"lon":125.77611,"population":35641,"iso_a3":"PRK","country":"North Korea","is_capital":false,"name_en":"Hwangju-ŭp","name_es":"Hwangju-ŭp","name_fr":"Hwangju-ŭp","name_it":"Hwangju-ŭp","name_ru":"Hwangju-ŭp","elevation":23.0,"timezone":"Asia/Pyongyang","admin1_name":"North Hwanghae"}]