[{"name":"Fengcheng","lat":40.45361,"lon":124.07167,"population":120514,"iso_a3":"CHN","country":"China","is_capital":false,"name_en":"Fengcheng","name_es":"Fengcheng","name_fr":"Fengcheng","name_it":"Fengcheng","name_ru":"Fengcheng","elevation":65.0,"timezone":"Asia/Shanghai","admin1_name":"Liaoning"},{"name":"Kuandian","lat":40.72861,"lon":124.78472,"population":70867,"iso_a3":"CHN","country":"China","is_capital":false,"name_en":"Kuandian","name_es":"Kuandian","name_fr":"Kuandian","name_it":"Kuandian","name_ru":"Kuandian","elevation":281.0,"timezone":"Asia/Shanghai","admin1_name":"Liaoning"},{"name":"Langtoucun","lat":40.04068,"lon":124.33525,"population":59046,"iso_a3":"CHN","country":"China","is_capital":false,"name_en":"Langtoucun","name_es":"Langtoucun","name_fr":"Langtoucun","name_it":"Langtoucun","name_ru":"Langtoucun","elevation":7.0,"timezone":"Asia/Shanghai","admin1_name":"Liaoning"},{"name":"Sunch’ŏn","lat":39.43167,"lon":125.93278,"population":437000,"iso_a3":"PRK","country":"North Korea","is_capital":false,"name_en":"Sunch’ŏn","name_es":"Sunch’ŏn","name_fr":"Sunch’ŏn","name_it":"Sunch’ŏn","name_ru":"Sunch’ŏn","elevation":72.0,"timezone":"Asia/Pyongyang","admin1_name":"South Pyongan"},{"name":"Man’gyŏngdae-ri","lat":38.99182,"lon":125.65871,"population":321690,"iso_a3":"PRK","country":"North Korea","is_capital":false,"name_en":"Man’gyŏngdae-ri","name_es":"Man’gyŏngdae-ri","name_fr":"Man’gyŏngdae-ri","name_it":"Man’gyŏngdae-ri","name_ru":"Man’gyŏngdae-ri","elevation":14.0,"timezone":"Asia/Pyongyang","admin1_name":"Pyongyang"},{"name":"Kaech’ŏn","lat":39.70056,"lon":125.89333,"population":319554,"iso_a3":"PRK","country":"North Korea","is_capital":false,"name_en":"Kaech’ŏn","name_es":"Kaech’ŏn","name_fr":"Kaech’ŏn","name_it":"Kaech’ŏn","name_ru":"Kaech’ŏn","elevation":35.0,"timezone":"Asia/Pyongyang","admin1_name":"South Pyongan"},{"name":"Sinŭiju","lat":40.10056,"lon":124.39806,"population":288112,"iso_a3":"PRK","country":"North Korea","is_capital":false,"name_en":"Sinuiju","name_es":"Sinuiju","name_fr":"Sinuiju","name_it":"Sinuiju","name_ru":"Sinuiju","elevation":6.0,"timezone":"Asia/Pyongyang","admin1_name":"P'yŏngan-bukto"},{"name":"Tŏkch’ŏn","lat":39.75261,"lon":126.25798,"population":237133,"iso_a3":"PRK","country":"North Korea","is_capital":false,"name_en":"Tŏkch’ŏn","name_es":"Tŏkch’ŏn","name_fr":"Tŏkch’ŏn","name_it":"Tŏkch’ŏn","name_ru":"Tŏkch’ŏn","elevation":113.0,"timezone":"Asia/Pyongyang","admin1_name":"South Pyongan"},{"name":"Paek'ak","lat":39.46275,"lon":125.60594,"population":125924,"iso_a3":"PRK","country":"North Korea","is_capital":false,"name_en":"Paek'ak","name_es":"Paek'ak","name_fr":"Paek'ak","name_it":"Paek'ak","name_ru":"Paek'ak","elevation":28.0,"timezone":"Asia/Pyongyang","admin1_name":"South Pyongan"},{"name":"Kangsŏn","lat":38.93639,"lon":125.58111,"population":102436,"iso_a3":"PRK","country":"North Korea","is_capital":false,"name_en":"Kangsŏn","name_es":"Kangsŏn","name_fr":"Kangsŏn","name_it":"Kangsŏn","name_ru":"Kangsŏn","elevation":22.0,"timezone":"Asia/Pyongyang","admin1_name":"South Pyongan"},{"name":"P’yŏngsŏng","lat":39.24639,"lon":125.87194,"population":100000,"iso_a3":"PRK","country":"North Korea","is_capital":false,"name_en":"P’yŏngsŏng","name_es":"P’yŏngsŏng","name_fr":"P’yŏngsŏng","name_it":"P’yŏngsŏng","name_ru":"P’yŏngsŏng","elevation":53.0,"timezone":"Asia/Pyongyang","admin1_name":"South Pyongan"},{"name":"Anju","lat":39.61778,"lon":125.66472,"population":50196,"iso_a3":"PRK","country":"North Korea","is_capital":false,"name_en":"Anju","name_es":"Anju","name_fr":"Anju","name_it":"Anju","name_ru":"Anju","elevation":16.0,"timezone":"Asia/Pyongyang","admin1_name":"South Pyongan"},{"name":"Uiju","lat":40.19944,"lon":124.53167,"population":50081,"iso_a3":"PRK","country":"North Korea","is_capital":false,"name_en":"Uiju","name_es":"Uiju","name_fr":"Uiju","name_it":"Uiju","name_ru":"Uiju","elevation":26.0,"timezone":"Asia/Pyongyang","admin1_name":"P'yŏngan-bukto"},{"name":"Ch’ŏsal-li","lat":39.40333,"lon":125.50889,"population":43614,"iso_a3":"PRK","country":"North Korea","is_capital":false,"name_en":"Ch’ŏsal-li","name_es":"Ch’ŏsal-li","name_fr":"Ch’ŏsal-li","name_it":"Ch’ŏsal-li","name_ru":"Ch’ŏsal-li","elevation":17.0,"timezone":"Asia/Pyongyang","admin1_name":"South Pyongan"},{"name":"Sŭngho 1-tong","lat":38.99139,"lon":125.97778,"population":39841,"iso_a3":"PRK","country":"North Korea","is_capital":false,"name_en":"Sŭngho 1-tong","name_es":"Sŭngho 1-tong","name_fr":"Sŭngho 1-tong","name_it":"Sŭngho 1-tong","name_ru":"Sŭngho 1-tong","elevation":38.0,"timezone":"Asia/Pyongyang","admin1_name":"Pyongyang"},{"name":"Songwŏn","lat":40.37704,"lon":125.87867,"population":38051,"iso_a3":"PRK","country":"North Korea","is_capital":false,"name_en":"Songwŏn","name_es":"Songwŏn","name_fr":"Songwŏn","name_it":"Songwŏn","name_ru":"Songwŏn","elevation":329.0,"timezone":"Asia/Pyongyang","admin1_name":"Chagang"},{"name":"Songwŏn-ŭp","lat":40.37278,"lon":126.30833,"population":38051,"iso_a3":"PRK","country":"North Korea","is_capital":false,"name_en":"Songwŏn-ŭp","name_es":"Songwŏn-ŭp","name_fr":"Songwŏn-ŭp","name_it":"Songwŏn-ŭp","name_ru":"Songwŏn-ŭp","elevation":371.0,"timezone":"Asia/Pyongyang","admin1_name":"Chagang"},{"name":"Sunan","lat":39.20323,"lon":125.69312,"population":36671,"iso_a3":"PRK","country":"North Korea","is_capital":false,"name_en":"Sunan","name_es":"Sunan","name_fr":"Sunan","name_it":"Sunan","name_ru":"Сунан","elevation":37.0,"timezone":"Asia/Pyongyang","admin1_name":"Pyongyang"},{"name":"Kop’ung","lat":40.60389,"lon":125.94667,"population":31572,"iso_a3":"PRK","country":"North Korea","is_capital":false,"name_en":"Kop’ung","name_es":"Kop’ung","name_fr":"Kop’ung","name_it":"Kop’ung","name_ru":"Kop’ung","elevation":412.0,"timezone":"Asia/Pyongyang","admin1_name":"Chagang"},{"name":"Kusŏng-si","lat":39.97969,"lon":125.2529,"population":30902,"iso_a3":"PRK","country":"North Korea","is_capital":false,"name_en":"Kusŏng-si","name_es":"Kusŏng-si","name_fr":"Kusŏng-si","name_it":"Kusŏng-si","name_ru":"Kusŏng-si","elevation":79.0,"timezone":"Asia/Pyongyang","admin1_name":"P'yŏngan-bukto"}]