[{"name":"Pohang","lat":36.02917,"lon":129.36481,"population":492041,"iso_a3":"KOR","country":"South Korea","is_capital":false,"name_en":"Pohang","name_es":"Pohang","name_fr":"Pohang","name_it":"Pohang","name_ru":"Pohang","elevation":5.0,"timezone":"Asia/Seoul","admin1_name":"Gyeongsangbuk-do"},{"name":"Masan","lat":35.12725,"lon":126.83149,"population":434371,"iso_a3":"KOR","country":"South Korea","is_capital":false,"name_en":"Masan","name_es":"Masan","name_fr":"Masan","name_it":"Masan","name_ru":"Masan","elevation":18.0,"timezone":"Asia/Seoul","admin1_name":"Gwangju"},{"name":"Gumi","lat":36.1136,"lon":128.336,"population":404691,"iso_a3":"KOR","country":"South Korea","is_capital":false,"name_en":"Gumi","name_es":"Gumi","name_fr":"Gumi","name_it":"Gumi","name_ru":"Куми","elevation":63.0,"timezone":"Asia/Seoul","admin1_name":"Gyeongsangbuk-do"},{"name":"Sejong","lat":36.59245,"lon":127.29223,"population":394630,"iso_a3":"KOR","country":"South Korea","is_capital":false,"name_en":"Sejong","name_es":"Sejong","name_fr":"Sejong","name_it":"Sejong","name_ru":"Sejong","elevation":49.0,"timezone":"Asia/Seoul","admin1_name":"Sejong-si"},{"name":"Yangsan","lat":35.34199,"lon":129.03358,"population":358074,"iso_a3":"KOR","country":"South Korea","is_capital":false,"name_en":"Yangsan","name_es":"Yangsan","name_fr":"Yangsan","name_it":"Yangsan","name_ru":"Янсан","elevation":6.0,"timezone":"Asia/Seoul","admin1_name":"Gyeongsangnam-do"},{"name":"Chinju","lat":35.19278,"lon":128.08472,"population":307242,"iso_a3":"KOR","country":"South Korea","is_capital":false,"name_en":"Jinju","name_es":"Jinju","name_fr":"Jinju","name_it":"Jinju","name_ru":"Чинджу","elevation":33.0,"timezone":"Asia/Seoul","admin1_name":"Gyeongsangnam-do"},{"name":"Iksan","lat":35.94389,"lon":126.95444,"population":307000,"iso_a3":"KOR","country":"South Korea","is_capital":false,"name_en":"Iksan","name_es":"Iksan","name_fr":"Iksan","name_it":"Iksan","name_ru":"Иксан","elevation":16.0,"timezone":"Asia/Seoul","admin1_name":"Jeollabuk-do"},{"name":"Suncheon","lat":34.9505,"lon":127.48784,"population":276375,"iso_a3":"KOR","country":"South Korea","is_capital":false,"name_en":"Suncheon","name_es":"Suncheon","name_fr":"Suncheon","name_it":"Suncheon","name_ru":"Suncheon","elevation":19.0,"timezone":"Asia/Seoul","admin1_name":"Jeollanam-do"},{"name":"Yeosu","lat":34.76062,"lon":127.66215,"population":268823,"iso_a3":"KOR","country":"South Korea","is_capital":false,"name_en":"Yeosu","name_es":"Yeosu","name_fr":"Yeosu","name_it":"Yeosu","name_ru":"Йосу","elevation":10.0,"timezone":"Asia/Seoul","admin1_name":"Jeollanam-do"},{"name":"Gyeongsan-si","lat":35.82333,"lon":128.73778,"population":266951,"iso_a3":"KOR","country":"South Korea","is_capital":false,"name_en":"Gyeongsan-si","name_es":"Gyeongsan-si","name_fr":"Gyeongsan-si","name_it":"Gyeongsan-si","name_ru":"Gyeongsan-si","elevation":59.0,"timezone":"Asia/Seoul","admin1_name":"Gyeongsangbuk-do"},{"name":"Gunsan","lat":35.97861,"lon":126.71139,"population":264656,"iso_a3":"KOR","country":"South Korea","is_capital":false,"name_en":"Gunsan","name_es":"Gunsan","name_fr":"Gunsan","name_it":"Gunsan","name_ru":"Кунсан","elevation":14.0,"timezone":"Asia/Seoul","admin1_name":"Jeollabuk-do"},{"name":"Gyeongju","lat":35.84278,"lon":129.21167,"population":245365,"iso_a3":"KOR","country":"South Korea","is_capital":false,"name_en":"Gyeongju","name_es":"Gyeongju","name_fr":"Gyeongju","name_it":"Gyeongju","name_ru":"Кёнджу","elevation":45.0,"timezone":"Asia/Seoul","admin1_name":"Gyeongsangbuk-do"},{"name":"Geoje","lat":34.81379,"lon":128.70556,"population":232921,"iso_a3":"KOR","country":"South Korea","is_capital":false,"name_en":"Geoje","name_es":"Geoje","name_fr":"Geoje","name_it":"Geoje","name_ru":"Geoje","elevation":11.0,"timezone":"Asia/Seoul","admin1_name":"Gyeongsangnam-do"},{"name":"Gijang","lat":35.24417,"lon":129.21389,"population":176388,"iso_a3":"KOR","country":"South Korea","is_capital":false,"name_en":"Gijang","name_es":"Gijang","name_fr":"Gijang","name_it":"Gijang","name_ru":"Gijang","elevation":21.0,"timezone":"Asia/Seoul","admin1_name":"Busan"},{"name":"Gwangyang","lat":34.9414,"lon":127.69569,"population":154266,"iso_a3":"KOR","country":"South Korea","is_capital":false,"name_en":"Gwangyang","name_es":"Gwangyang","name_fr":"Gwangyang","name_it":"Gwangyang","name_ru":"Gwangyang","elevation":24.0,"timezone":"Asia/Seoul","admin1_name":"Jeollanam-do"},{"name":"Andong","lat":36.56636,"lon":128.72275,"population":153348,"iso_a3":"KOR","country":"South Korea","is_capital":false,"name_en":"Andong","name_es":"Andong","name_fr":"Andong","name_it":"Andong","name_ru":"Андон","elevation":103.0,"timezone":"Asia/Seoul","admin1_name":"Gyeongsangbuk-do"},{"name":"Gimcheon","lat":36.12176,"lon":128.11981,"population":150000,"iso_a3":"KOR","country":"South Korea","is_capital":false,"name_en":"Gimcheon","name_es":"Gimcheon","name_fr":"Gimcheon","name_it":"Gimcheon","name_ru":"Кимчхон","elevation":81.0,"timezone":"Asia/Seoul","admin1_name":"Gyeongsangbuk-do"},{"name":"Jeongeup","lat":35.60004,"lon":126.91699,"population":139876,"iso_a3":"KOR","country":"South Korea","is_capital":false,"name_en":"Jeongeup","name_es":"Jeongeup","name_fr":"Jeongeup","name_it":"Jeongeup","name_ru":"Jeongeup","elevation":53.0,"timezone":"Asia/Seoul","admin1_name":"Jeollabuk-do"},{"name":"Sangju","lat":36.41528,"lon":128.16056,"population":101267,"iso_a3":"KOR","country":"South Korea","is_capital":false,"name_en":"Sangju","name_es":"Sangju","name_fr":"Sangju","name_it":"Sangju","name_ru":"Санджу","elevation":61.0,"timezone":"Asia/Seoul","admin1_name":"Gyeongsangbuk-do"},{"name":"Boryeong","lat":36.34931,"lon":126.59772,"population":94191,"iso_a3":"KOR","country":"South Korea","is_capital":false,"name_en":"Boryeong","name_es":"Boryeong","name_fr":"Boryeong","name_it":"Boryeong","name_ru":"Boryeong","elevation":11.0,"timezone":"Asia/Seoul","admin1_name":"Chungcheongnam-do"},{"name":"Kwangyang","lat":34.97528,"lon":127.58917,"population":89281,"iso_a3":"KOR","country":"South Korea","is_capital":false,"name_en":"Kwangyang","name_es":"Kwangyang","name_fr":"Kwangyang","name_it":"Kwangyang","name_ru":"Kwangyang","elevation":16.0,"timezone":"Asia/Seoul","admin1_name":"Jeollanam-do"},{"name":"Ungsang","lat":35.40611,"lon":129.16861,"population":83360,"iso_a3":"KOR","country":"South Korea","is_capital":false,"name_en":"Ungsang","name_es":"Ungsang","name_fr":"Ungsang","name_it":"Ungsang","name_ru":"Ungsang","elevation":101.0,"timezone":"Asia/Seoul","admin1_name":"Gyeongsangnam-do"},{"name":"Sinhyeon","lat":34.8825,"lon":128.62667,"population":82560,"iso_a3":"KOR","country":"South Korea","is_capital":false,"name_en":"Sinhyeon","name_es":"Sinhyeon","name_fr":"Sinhyeon","name_it":"Sinhyeon","name_ru":"Sinhyeon","elevation":14.0,"timezone":"Asia/Seoul","admin1_name":"Gyeongsangnam-do"},{"name":"Nangen","lat":35.41,"lon":127.38583,"population":81257,"iso_a3":"KOR","country":"South Korea","is_capital":false,"name_en":"Namwon","name_es":"Namwon","name_fr":"Namwon","name_it":"Namwon","name_ru":"Намвон","elevation":103.0,"timezone":"Asia/Seoul","admin1_name":"Jeollabuk-do"},{"name":"Naesŏ","lat":35.24972,"lon":128.52,"population":80987,"iso_a3":"KOR","country":"South Korea","is_capital":false,"name_en":"Naesŏ","name_es":"Naesŏ","name_fr":"Naesŏ","name_it":"Naesŏ","name_ru":"Naesŏ","elevation":62.0,"timezone":"Asia/Seoul","admin1_name":"Gyeongsangnam-do"},{"name":"Mungyeong","lat":36.59458,"lon":128.19946,"population":77304,"iso_a3":"KOR","country":"South Korea","is_capital":false,"name_en":"Mungyeong","name_es":"Mungyeong","name_fr":"Mungyeong","name_it":"Mungyeong","name_ru":"Мунгён","elevation":78.0,"timezone":"Asia/Seoul","admin1_name":"Gyeongsangbuk-do"},{"name":"Changnyeong","lat":35.54145,"lon":128.49506,"population":74668,"iso_a3":"KOR","country":"South Korea","is_capital":false,"name_en":"Changnyeong","name_es":"Changnyeong","name_fr":"Changnyeong","name_it":"Changnyeong","name_ru":"Changnyeong","elevation":66.0,"timezone":"Asia/Seoul","admin1_name":"Gyeongsangnam-do"},{"name":"Koch'ang","lat":35.43333,"lon":126.7,"population":72996,"iso_a3":"KOR","country":"South Korea","is_capital":false,"name_en":"Koch'ang","name_es":"Koch'ang","name_fr":"Koch'ang","name_it":"Koch'ang","name_ru":"Koch'ang","elevation":44.0,"timezone":"Asia/Seoul","admin1_name":"Jeollabuk-do"},{"name":"Gongju","lat":36.45556,"lon":127.12472,"population":72435,"iso_a3":"KOR","country":"South Korea","is_capital":false,"name_en":"Gongju","name_es":"Gongju","name_fr":"Gongju","name_it":"Gongju","name_ru":"Конджу","elevation":23.0,"timezone":"Asia/Seoul","admin1_name":"Chungcheongnam-do"},{"name":"Tongyeong","lat":34.84957,"lon":128.42779,"population":70641,"iso_a3":"KOR","country":"South Korea","is_capital":false,"name_en":"Tongyeong","name_es":"Tongyeong","name_fr":"Tongyeong","name_it":"Tongyeong","name_ru":"Tongyeong","elevation":28.0,"timezone":"Asia/Seoul","admin1_name":"Gyeongsangnam-do"},{"name":"Hwawŏn","lat":35.80167,"lon":128.50083,"population":64718,"iso_a3":"KOR","country":"South Korea","is_capital":false,"name_en":"Hwawŏn","name_es":"Hwawŏn","name_fr":"Hwawŏn","name_it":"Hwawŏn","name_ru":"Hwawŏn","elevation":36.0,"timezone":"Asia/Seoul","admin1_name":"Daegu"},{"name":"Hwasun","lat":35.06125,"lon":126.98746,"population":59914,"iso_a3":"KOR","country":"South Korea","is_capital":false,"name_en":"Hwasun","name_es":"Hwasun","name_fr":"Hwasun","name_it":"Hwasun","name_ru":"Хвасун","elevation":75.0,"timezone":"Asia/Seoul","admin1_name":"Jeollanam-do"},{"name":"Buyeo","lat":36.27472,"lon":126.90906,"population":59823,"iso_a3":"KOR","country":"South Korea","is_capital":false,"name_en":"Buyeo","name_es":"Buyeo","name_fr":"Buyeo","name_it":"Buyeo","name_ru":"Пуйо","elevation":19.0,"timezone":"Asia/Seoul","admin1_name":"Chungcheongnam-do"},{"name":"Okcheon","lat":36.3012,"lon":127.568,"population":56634,"iso_a3":"KOR","country":"South Korea","is_capital":false,"name_en":"Okcheon","name_es":"Okcheon","name_fr":"Okcheon","name_it":"Okcheon","name_ru":"Okcheon","elevation":97.0,"timezone":"Asia/Seoul","admin1_name":"North Chungcheong"},{"name":"Eisen","lat":35.9675,"lon":128.93083,"population":56006,"iso_a3":"KOR","country":"South Korea","is_capital":false,"name_en":"Eisen","name_es":"Eisen","name_fr":"Eisen","name_it":"Eisen","name_ru":"Eisen","elevation":85.0,"timezone":"Asia/Seoul","admin1_name":"Gyeongsangbuk-do"},{"name":"Miryang","lat":35.49333,"lon":128.74889,"population":53103,"iso_a3":"KOR","country":"South Korea","is_capital":false,"name_en":"Miryang","name_es":"Miryang","name_fr":"Miryang","name_it":"Miryang","name_ru":"Мирян","elevation":14.0,"timezone":"Asia/Seoul","admin1_name":"Gyeongsangnam-do"},{"name":"Yeongam","lat":34.80059,"lon":126.69669,"population":51573,"iso_a3":"KOR","country":"South Korea","is_capital":false,"name_en":"Yeongam","name_es":"Yeongam","name_fr":"Yeongam","name_it":"Yeongam","name_ru":"Yeongam","elevation":34.0,"timezone":"Asia/Seoul","admin1_name":"Jeollanam-do"},{"name":"Kimje","lat":35.80167,"lon":126.88889,"population":44894,"iso_a3":"KOR","country":"South Korea","is_capital":false,"name_en":"Kimje","name_es":"Kimje","name_fr":"Kimje","name_it":"Kimje","name_ru":"Kimje","elevation":18.0,"timezone":"Asia/Seoul","admin1_name":"Jeollabuk-do"},{"name":"Damyang","lat":35.31889,"lon":126.98389,"population":44800,"iso_a3":"KOR","country":"South Korea","is_capital":false,"name_en":"Damyang","name_es":"Damyang","name_fr":"Damyang","name_it":"Damyang","name_ru":"Damyang","elevation":49.0,"timezone":"Asia/Seoul","admin1_name":"Jeollanam-do"},{"name":"Nonsan","lat":36.20389,"lon":127.08472,"population":43845,"iso_a3":"KOR","country":"South Korea","is_capital":false,"name_en":"Nonsan","name_es":"Nonsan","name_fr":"Nonsan","name_it":"Nonsan","name_ru":"Нонсан","elevation":16.0,"timezone":"Asia/Seoul","admin1_name":"Chungcheongnam-do"},{"name":"Yeongdong","lat":36.175,"lon":127.77639,"population":43680,"iso_a3":"KOR","country":"South Korea","is_capital":false,"name_en":"Yeongdong","name_es":"Yeongdong","name_fr":"Yeongdong","name_it":"Yeongdong","name_ru":"Yeongdong","elevation":130.0,"timezone":"Asia/Seoul","admin1_name":"North Chungcheong"},{"name":"Naju","lat":35.0292,"lon":126.7175,"population":42459,"iso_a3":"KOR","country":"South Korea","is_capital":false,"name_en":"Naju","name_es":"Naju","name_fr":"Naju","name_it":"Naju","name_ru":"Наджу","elevation":25.0,"timezone":"Asia/Seoul","admin1_name":"Jeollanam-do"},{"name":"Jangseong","lat":35.29778,"lon":126.78444,"population":42129,"iso_a3":"KOR","country":"South Korea","is_capital":false,"name_en":"Jangseong","name_es":"Jangseong","name_fr":"Jangseong","name_it":"Jangseong","name_ru":"Jangseong","elevation":70.0,"timezone":"Asia/Seoul","admin1_name":"Jeollanam-do"},{"name":"Hadong","lat":35.068,"lon":127.75147,"population":40909,"iso_a3":"KOR","country":"South Korea","is_capital":false,"name_en":"Hadong","name_es":"Hadong","name_fr":"Hadong","name_it":"Hadong","name_ru":"Hadong","elevation":5.0,"timezone":"Asia/Seoul","admin1_name":"Gyeongsangnam-do"},{"name":"Boseong","lat":34.77148,"lon":127.07996,"population":37164,"iso_a3":"KOR","country":"South Korea","is_capital":false,"name_en":"Boseong","name_es":"Boseong","name_fr":"Boseong","name_it":"Boseong","name_ru":"Boseong","elevation":162.0,"timezone":"Asia/Seoul","admin1_name":"Jeollanam-do"},{"name":"Heunghae","lat":36.10945,"lon":129.34517,"population":36080,"iso_a3":"KOR","country":"South Korea","is_capital":false,"name_en":"Heunghae","name_es":"Heunghae","name_fr":"Heunghae","name_it":"Heunghae","name_ru":"Heunghae","elevation":22.0,"timezone":"Asia/Seoul","admin1_name":"Gyeongsangbuk-do"},{"name":"Jangheung","lat":34.68164,"lon":126.90694,"population":34544,"iso_a3":"KOR","country":"South Korea","is_capital":false,"name_en":"Jangheung","name_es":"Jangheung","name_fr":"Jangheung","name_it":"Jangheung","name_ru":"Jangheung","elevation":28.0,"timezone":"Asia/Seoul","admin1_name":"Jeollanam-do"},{"name":"Kunwi","lat":36.23472,"lon":128.57278,"population":34293,"iso_a3":"KOR","country":"South Korea","is_capital":false,"name_en":"Kunwi","name_es":"Kunwi","name_fr":"Kunwi","name_it":"Kunwi","name_ru":"Kunwi","elevation":95.0,"timezone":"Asia/Seoul","admin1_name":"Gyeongsangbuk-do"},{"name":"Cheongsong gun","lat":36.43351,"lon":129.057,"population":31313,"iso_a3":"KOR","country":"South Korea","is_capital":false,"name_en":"Cheongsong gun","name_es":"Cheongsong gun","name_fr":"Cheongsong gun","name_it":"Cheongsong gun","name_ru":"Cheongsong gun","elevation":197.0,"timezone":"Asia/Seoul","admin1_name":"Gyeongsangbuk-do"},{"name":"Jinan-gun","lat":35.79167,"lon":127.42528,"population":31273,"iso_a3":"KOR","country":"South Korea","is_capital":false,"name_en":"Jinan-gun","name_es":"Jinan-gun","name_fr":"Jinan-gun","name_it":"Jinan-gun","name_ru":"Jinan-gun","elevation":295.0,"timezone":"Asia/Seoul","admin1_name":"Jeollabuk-do"},{"name":"Kurye","lat":35.20944,"lon":127.46444,"population":30000,"iso_a3":"KOR","country":"South Korea","is_capital":false,"name_en":"Kurye","name_es":"Kurye","name_fr":"Kurye","name_it":"Kurye","name_ru":"Kurye","elevation":46.0,"timezone":"Asia/Seoul","admin1_name":"Jeollanam-do"}]