[{"name":"Dunhua","lat":43.36954,"lon":128.22861,"population":148844,"iso_a3":"CHN","country":"China","is_capital":false,"name_en":"Dunhua","name_es":"Dunhua","name_fr":"Dunhua","name_it":"Dunhua","name_ru":"Дуньхуа","elevation":509.0,"timezone":"Asia/Shanghai","admin1_name":"Jilin"},{"name":"Jiaohe","lat":43.72133,"lon":127.33473,"population":123018,"iso_a3":"CHN","country":"China","is_capital":false,"name_en":"Jiaohe","name_es":"Jiaohe","name_fr":"Jiaohe","name_it":"Jiaohe","name_ru":"Цзяохэ","elevation":279.0,"timezone":"Asia/Shanghai","admin1_name":"Jilin"},{"name":"Jishu","lat":44.31667,"lon":126.8,"population":103988,"iso_a3":"CHN","country":"China","is_capital":false,"name_en":"Jishu","name_es":"Jishu","name_fr":"Jishu","name_it":"Jishu","name_ru":"Jishu","elevation":250.0,"timezone":"Asia/Shanghai","admin1_name":"Jilin"},{"name":"Wuchang","lat":44.92754,"lon":127.16039,"population":94786,"iso_a3":"CHN","country":"China","is_capital":false,"name_en":"Wuchang","name_es":"Wuchang","name_fr":"Wuchang","name_it":"Wuchang","name_ru":"Учан","elevation":190.0,"timezone":"Asia/Shanghai","admin1_name":"Heilongjiang"},{"name":"Shulan","lat":44.41134,"lon":126.94827,"population":77420,"iso_a3":"CHN","country":"China","is_capital":false,"name_en":"Shulan","name_es":"Shulan","name_fr":"Shulan","name_it":"Shulan","name_ru":"Шулань","elevation":239.0,"timezone":"Asia/Shanghai","admin1_name":"Jilin"},{"name":"Dashitou","lat":43.30667,"lon":128.51139,"population":65683,"iso_a3":"CHN","country":"China","is_capital":false,"name_en":"Dashitou","name_es":"Dashitou","name_fr":"Dashitou","name_it":"Dashitou","name_ru":"Dashitou","elevation":524.0,"timezone":"Asia/Shanghai","admin1_name":"Jilin"},{"name":"Antu","lat":43.10247,"lon":128.90848,"population":58872,"iso_a3":"CHN","country":"China","is_capital":false,"name_en":"Antu","name_es":"Antu","name_fr":"Antu","name_it":"Antu","name_ru":"Antu","elevation":347.0,"timezone":"Asia/Shanghai","admin1_name":"Jilin"},{"name":"Baishishan","lat":43.58333,"lon":127.56667,"population":56992,"iso_a3":"CHN","country":"China","is_capital":false,"name_en":"Baishishan","name_es":"Baishishan","name_fr":"Baishishan","name_it":"Baishishan","name_ru":"Baishishan","elevation":348.0,"timezone":"Asia/Shanghai","admin1_name":"Jilin"},{"name":"Huangnihe","lat":43.55833,"lon":128.02389,"population":54959,"iso_a3":"CHN","country":"China","is_capital":false,"name_en":"Huangnihe","name_es":"Huangnihe","name_fr":"Huangnihe","name_it":"Huangnihe","name_ru":"Huangnihe","elevation":490.0,"timezone":"Asia/Shanghai","admin1_name":"Jilin"}]