[{"name":"Miyazaki","lat":31.91667,"lon":131.41667,"population":401339,"iso_a3":"JPN","country":"Japan","is_capital":false,"name_en":"Miyazaki","name_es":"Miyazaki","name_fr":"Miyazaki","name_it":"Miyazaki","name_ru":"Миядзаки","elevation":11.0,"timezone":"Asia/Tokyo","admin1_name":"Miyazaki"},{"name":"Miyakonojō","lat":31.73333,"lon":131.06667,"population":161137,"iso_a3":"JPN","country":"Japan","is_capital":false,"name_en":"Miyakonojō","name_es":"Miyakonojō","name_fr":"Miyakonojō","name_it":"Miyakonojō","name_ru":"Мияконодзё","elevation":148.0,"timezone":"Asia/Tokyo","admin1_name":"Miyazaki"},{"name":"Kirishima","lat":31.74087,"lon":130.76288,"population":123205,"iso_a3":"JPN","country":"Japan","is_capital":false,"name_en":"Kirishima","name_es":"Kirishima","name_fr":"Kirishima","name_it":"Kirishima","name_ru":"Kirishima","elevation":10.0,"timezone":"Asia/Tokyo","admin1_name":"Kagoshima"},{"name":"Kanoya","lat":31.38333,"lon":130.85,"population":101096,"iso_a3":"JPN","country":"Japan","is_capital":false,"name_en":"Kanoya","name_es":"Kanoya","name_fr":"Kanoya","name_it":"Kanoya","name_ru":"Каноя","elevation":23.0,"timezone":"Asia/Tokyo","admin1_name":"Kagoshima"},{"name":"Sendai","lat":31.81667,"lon":130.3,"population":92403,"iso_a3":"JPN","country":"Japan","is_capital":false,"name_en":"Sendai","name_es":"Sendai","name_fr":"Sendai","name_it":"Sendai","name_ru":"Сендай","elevation":5.0,"timezone":"Asia/Tokyo","admin1_name":"Kagoshima"},{"name":"Aira","lat":31.77429,"lon":130.59208,"population":76348,"iso_a3":"JPN","country":"Japan","is_capital":false,"name_en":"Aira","name_es":"Aira","name_fr":"Aira","name_it":"Aira","name_ru":"Aira","elevation":76.0,"timezone":"Asia/Tokyo","admin1_name":"Kagoshima"},{"name":"Nichinan","lat":31.6,"lon":131.36667,"population":51241,"iso_a3":"JPN","country":"Japan","is_capital":false,"name_en":"Nichinan","name_es":"Nichinan","name_fr":"Nichinan","name_it":"Nichinan","name_ru":"Нитинан","elevation":29.0,"timezone":"Asia/Tokyo","admin1_name":"Miyazaki"},{"name":"Umeki","lat":31.66667,"lon":130.38333,"population":47153,"iso_a3":"JPN","country":"Japan","is_capital":false,"name_en":"Umeki","name_es":"Umeki","name_fr":"Umeki","name_it":"Umeki","name_ru":"Umeki","elevation":77.0,"timezone":"Asia/Tokyo","admin1_name":"Kagoshima"},{"name":"Ibusuki","lat":31.23333,"lon":130.65,"population":39011,"iso_a3":"JPN","country":"Japan","is_capital":false,"name_en":"Ibusuki","name_es":"Ibusuki","name_fr":"Ibusuki","name_it":"Ibusuki","name_ru":"Ибусуки","elevation":2.0,"timezone":"Asia/Tokyo","admin1_name":"Kagoshima"},{"name":"Soo","lat":31.64637,"lon":130.99068,"population":33310,"iso_a3":"JPN","country":"Japan","is_capital":false,"name_en":"Soo","name_es":"Soo","name_fr":"Soo","name_it":"Soo","name_ru":"Soo","elevation":217.0,"timezone":"Asia/Tokyo","admin1_name":"Kagoshima"},{"name":"Minamikyushu","lat":31.34689,"lon":130.45612,"population":33080,"iso_a3":"JPN","country":"Japan","is_capital":false,"name_en":"Minamikyushu","name_es":"Minamikyushu","name_fr":"Minamikyushu","name_it":"Minamikyushu","name_ru":"Minamikyushu","elevation":160.0,"timezone":"Asia/Tokyo","admin1_name":"Kagoshima"},{"name":"Minamisatsuma","lat":31.38999,"lon":130.28343,"population":32887,"iso_a3":"JPN","country":"Japan","is_capital":false,"name_en":"Minamisatsuma","name_es":"Minamisatsuma","name_fr":"Minamisatsuma","name_it":"Minamisatsuma","name_ru":"Minamisatsuma","elevation":272.0,"timezone":"Asia/Tokyo","admin1_name":"Kagoshima"},{"name":"Ichikikushikino","lat":31.72934,"lon":130.29305,"population":30551,"iso_a3":"JPN","country":"Japan","is_capital":false,"name_en":"Ichikikushikino","name_es":"Ichikikushikino","name_fr":"Ichikikushikino","name_it":"Ichikikushikino","name_ru":"Ichikikushikino","elevation":26.0,"timezone":"Asia/Tokyo","admin1_name":"Kagoshima"},{"name":"Shibushi","lat":31.476,"lon":131.10114,"population":30231,"iso_a3":"JPN","country":"Japan","is_capital":false,"name_en":"Shibushi","name_es":"Shibushi","name_fr":"Shibushi","name_it":"Shibushi","name_ru":"Сибуси","elevation":11.0,"timezone":"Asia/Tokyo","admin1_name":"Kagoshima"}]