[{"name":"Artëm","lat":43.35757,"lon":132.19137,"population":102300,"iso_a3":"RUS","country":"Russia","is_capital":false,"name_en":"Artyom","name_es":"Artyom","name_fr":"Artiom","name_it":"Artyom","name_ru":"Артём","elevation":57.0,"timezone":"Asia/Vladivostok","admin1_name":"Primorye"},{"name":"Arsen’yev","lat":44.15695,"lon":133.27331,"population":58700,"iso_a3":"RUS","country":"Russia","is_capital":false,"name_en":"Arsen'yev","name_es":"Arsen'yev","name_fr":"Arsen'yev","name_it":"Arsen'yev","name_ru":"Арсеньев","elevation":172.0,"timezone":"Asia/Vladivostok","admin1_name":"Primorye"},{"name":"Spassk-Dal’niy","lat":44.60059,"lon":132.82042,"population":45265,"iso_a3":"RUS","country":"Russia","is_capital":false,"name_en":"Spassk-Dal'niy","name_es":"Spassk-Dal'niy","name_fr":"Spassk-Dal'niy","name_it":"Spassk-Dal'niy","name_ru":"Спасск-Дальний","elevation":100.0,"timezone":"Asia/Vladivostok","admin1_name":"Primorye"},{"name":"Partizansk","lat":43.11992,"lon":133.12316,"population":42489,"iso_a3":"RUS","country":"Russia","is_capital":false,"name_en":"Partizansk","name_es":"Partizansk","name_fr":"Partizansk","name_it":"Partizansk","name_ru":"Партизанск","elevation":145.0,"timezone":"Asia/Vladivostok","admin1_name":"Primorye"},{"name":"Bol'šoj Kamen'","lat":43.1112,"lon":132.35021,"population":40387,"iso_a3":"RUS","country":"Russia","is_capital":false,"name_en":"Bolshoy Kamen","name_es":"Bolshoy Kamen","name_fr":"Bolshoy Kamen","name_it":"Bolshoy Kamen","name_ru":"Большой Камень","elevation":18.0,"timezone":"Asia/Vladivostok","admin1_name":"Primorye"}]