[{"name":"Higashiosaka","lat":34.66667,"lon":135.58333,"population":493940,"iso_a3":"JPN","country":"Japan","is_capital":false,"name_en":"Higashiosaka","name_es":"Higashiosaka","name_fr":"Higashiosaka","name_it":"Higashiosaka","name_ru":"Higashiosaka","elevation":6.0,"timezone":"Asia/Tokyo","admin1_name":"Osaka"},{"name":"Nishinomiya","lat":34.71562,"lon":135.33199,"population":485587,"iso_a3":"JPN","country":"Japan","is_capital":false,"name_en":"Nishinomiya","name_es":"Nishinomiya","name_fr":"Nishinomiya","name_it":"Nishinomiya","name_ru":"Нисиномия","elevation":5.0,"timezone":"Asia/Tokyo","admin1_name":"Hyōgo"},{"name":"Amagasaki","lat":34.71667,"lon":135.41667,"population":459593,"iso_a3":"JPN","country":"Japan","is_capital":false,"name_en":"Amagasaki","name_es":"Amagasaki","name_fr":"Amagasaki","name_it":"Amagasaki","name_ru":"Amagasaki","elevation":1.0,"timezone":"Asia/Tokyo","admin1_name":"Hyōgo"},{"name":"Toyota","lat":35.08333,"lon":137.15,"population":426162,"iso_a3":"JPN","country":"Japan","is_capital":false,"name_en":"Toyota","name_es":"Toyota","name_fr":"Toyota","name_it":"Toyota","name_ru":"Тоёта","elevation":55.0,"timezone":"Asia/Tokyo","admin1_name":"Aichi"},{"name":"Hirakata","lat":34.81352,"lon":135.64914,"population":406331,"iso_a3":"JPN","country":"Japan","is_capital":false,"name_en":"Hirakata","name_es":"Hirakata","name_fr":"Hirakata","name_it":"Hirakata","name_ru":"Hirakata","elevation":17.0,"timezone":"Asia/Tokyo","admin1_name":"Osaka"},{"name":"Gifu","lat":35.42291,"lon":136.76039,"population":402557,"iso_a3":"JPN","country":"Japan","is_capital":false,"name_en":"Gifu","name_es":"Gifu","name_fr":"Gifu","name_it":"Gifu","name_ru":"Гифу","elevation":14.0,"timezone":"Asia/Tokyo","admin1_name":"Gifu"},{"name":"Toyonaka","lat":34.78244,"lon":135.46932,"population":401558,"iso_a3":"JPN","country":"Japan","is_capital":false,"name_en":"Toyonaka","name_es":"Toyonaka","name_fr":"Toyonaka","name_it":"Toyonaka","name_ru":"Toyonaka","elevation":31.0,"timezone":"Asia/Tokyo","admin1_name":"Osaka"},{"name":"Okazaki","lat":34.95,"lon":137.16667,"population":384654,"iso_a3":"JPN","country":"Japan","is_capital":false,"name_en":"Okazaki","name_es":"Okazaki","name_fr":"Okazaki","name_it":"Okazaki","name_ru":"Окадзаки","elevation":34.0,"timezone":"Asia/Tokyo","admin1_name":"Aichi"},{"name":"Ichinomiya","lat":35.3,"lon":136.8,"population":380073,"iso_a3":"JPN","country":"Japan","is_capital":false,"name_en":"Ichinomiya","name_es":"Ichinomiya","name_fr":"Ichinomiya","name_it":"Ichinomiya","name_ru":"Итиномия","elevation":11.0,"timezone":"Asia/Tokyo","admin1_name":"Aichi"},{"name":"Toyohashi","lat":34.76667,"lon":137.38333,"population":377453,"iso_a3":"JPN","country":"Japan","is_capital":false,"name_en":"Toyohashi","name_es":"Toyohashi","name_fr":"Toyohashi","name_it":"Toyohashi","name_ru":"Тойохаши","elevation":12.0,"timezone":"Asia/Tokyo","admin1_name":"Aichi"},{"name":"Nara-shi","lat":34.68505,"lon":135.80485,"population":367353,"iso_a3":"JPN","country":"Japan","is_capital":false,"name_en":"Nara","name_es":"Nara","name_fr":"Nara","name_it":"Nara","name_ru":"Нара","elevation":68.0,"timezone":"Asia/Tokyo","admin1_name":"Nara"},{"name":"Ōtsu","lat":35.0,"lon":135.86667,"population":345070,"iso_a3":"JPN","country":"Japan","is_capital":false,"name_en":"Ōtsu","name_es":"Ōtsu","name_fr":"Ōtsu","name_it":"Ōtsu","name_ru":"Оцу","elevation":131.0,"timezone":"Asia/Tokyo","admin1_name":"Shiga"},{"name":"Kasugai","lat":35.24762,"lon":136.97229,"population":308681,"iso_a3":"JPN","country":"Japan","is_capital":false,"name_en":"Kasugai","name_es":"Kasugai","name_fr":"Kasugai","name_it":"Kasugai","name_ru":"Касугай","elevation":30.0,"timezone":"Asia/Tokyo","admin1_name":"Aichi"},{"name":"Yokkaichi","lat":34.96667,"lon":136.61667,"population":305424,"iso_a3":"JPN","country":"Japan","is_capital":false,"name_en":"Yokkaichi","name_es":"Yokkaichi","name_fr":"Yokkaichi","name_it":"Yokkaichi","name_ru":"Йоккаичи","elevation":8.0,"timezone":"Asia/Tokyo","admin1_name":"Mie"},{"name":"Akashi","lat":34.65524,"lon":135.00687,"population":303601,"iso_a3":"JPN","country":"Japan","is_capital":false,"name_en":"Akashi","name_es":"Akashi","name_fr":"Akashi","name_it":"Akashi","name_ru":"Акаси","elevation":37.0,"timezone":"Asia/Tokyo","admin1_name":"Hyōgo"},{"name":"Ibaraki","lat":34.81641,"lon":135.56828,"population":287730,"iso_a3":"JPN","country":"Japan","is_capital":false,"name_en":"Ibaraki","name_es":"Ibaraki","name_fr":"Ibaraki","name_it":"Ibaraki","name_ru":"Ибараки","elevation":18.0,"timezone":"Asia/Tokyo","admin1_name":"Osaka"},{"name":"Tsu","lat":34.73333,"lon":136.51667,"population":274537,"iso_a3":"JPN","country":"Japan","is_capital":false,"name_en":"Tsu","name_es":"Tsu","name_fr":"Tsu","name_it":"Tsu","name_ru":"Цу","elevation":1.0,"timezone":"Asia/Tokyo","admin1_name":"Mie"},{"name":"Yao","lat":34.61667,"lon":135.6,"population":273213,"iso_a3":"JPN","country":"Japan","is_capital":false,"name_en":"Yao","name_es":"Yao","name_fr":"Yao","name_it":"Yao","name_ru":"Яо","elevation":13.0,"timezone":"Asia/Tokyo","admin1_name":"Osaka"},{"name":"Fukui-shi","lat":36.06443,"lon":136.22257,"population":262328,"iso_a3":"JPN","country":"Japan","is_capital":false,"name_en":"Fukui-shi","name_es":"Fukui-shi","name_fr":"Fukui-shi","name_it":"Fukui-shi","name_ru":"Фукуй","elevation":15.0,"timezone":"Asia/Tokyo","admin1_name":"Fukui"},{"name":"Neyagawa","lat":34.76615,"lon":135.62759,"population":238549,"iso_a3":"JPN","country":"Japan","is_capital":false,"name_en":"Neyagawa","name_es":"Neyagawa","name_fr":"Neyagawa","name_it":"Neyagawa","name_ru":"Neyagawa","elevation":9.0,"timezone":"Asia/Tokyo","admin1_name":"Osaka"},{"name":"Takarazuka","lat":34.79936,"lon":135.35697,"population":226432,"iso_a3":"JPN","country":"Japan","is_capital":false,"name_en":"Takarazuka","name_es":"Takarazuka","name_fr":"Takarazuka","name_it":"Takarazuka","name_ru":"Такарадзука","elevation":29.0,"timezone":"Asia/Tokyo","admin1_name":"Hyōgo"},{"name":"Kishiwada","lat":34.46667,"lon":135.36667,"population":205561,"iso_a3":"JPN","country":"Japan","is_capital":false,"name_en":"Kishiwada","name_es":"Kishiwada","name_fr":"Kishiwada","name_it":"Kishiwada","name_ru":"Кисивада","elevation":8.0,"timezone":"Asia/Tokyo","admin1_name":"Osaka"},{"name":"Suzuka","lat":34.88333,"lon":136.58333,"population":195670,"iso_a3":"JPN","country":"Japan","is_capital":false,"name_en":"Suzuka","name_es":"Suzuka","name_fr":"Suzuka","name_it":"Suzuka","name_ru":"Судзука","elevation":10.0,"timezone":"Asia/Tokyo","admin1_name":"Mie"},{"name":"Uji","lat":34.89044,"lon":135.80325,"population":192925,"iso_a3":"JPN","country":"Japan","is_capital":false,"name_en":"Uji","name_es":"Uji","name_fr":"Uji","name_it":"Uji","name_ru":"Удзи","elevation":23.0,"timezone":"Asia/Tokyo","admin1_name":"Kyoto"},{"name":"Anjō","lat":34.95828,"lon":137.08054,"population":188693,"iso_a3":"JPN","country":"Japan","is_capital":false,"name_en":"Anjo","name_es":"Anjō","name_fr":"Anjo","name_it":"Anjo","name_ru":"Андзё","elevation":20.0,"timezone":"Asia/Tokyo","admin1_name":"Aichi"},{"name":"Toyokawa","lat":34.81667,"lon":137.4,"population":184661,"iso_a3":"JPN","country":"Japan","is_capital":false,"name_en":"Toyokawa","name_es":"Toyokawa","name_fr":"Toyokawa","name_it":"Toyokawa","name_ru":"Тоёкава","elevation":4.0,"timezone":"Asia/Tokyo","admin1_name":"Aichi"},{"name":"Izumi","lat":34.48333,"lon":135.43333,"population":184615,"iso_a3":"JPN","country":"Japan","is_capital":false,"name_en":"Izumi","name_es":"Izumi","name_fr":"Izumi","name_it":"Izumi","name_ru":"Izumi","elevation":24.0,"timezone":"Asia/Tokyo","admin1_name":"Osaka"},{"name":"Nishio","lat":34.86667,"lon":137.05,"population":169984,"iso_a3":"JPN","country":"Japan","is_capital":false,"name_en":"Nishio","name_es":"Nishio","name_fr":"Nishio","name_it":"Nishio","name_ru":"Нисио","elevation":9.0,"timezone":"Asia/Tokyo","admin1_name":"Aichi"},{"name":"Ōgaki","lat":35.35,"lon":136.61667,"population":161539,"iso_a3":"JPN","country":"Japan","is_capital":false,"name_en":"Ōgaki","name_es":"Ōgaki","name_fr":"Ōgaki","name_it":"Ōgaki","name_ru":"Огаки","elevation":7.0,"timezone":"Asia/Tokyo","admin1_name":"Gifu"},{"name":"Matsusaka","lat":34.57895,"lon":136.53706,"population":159145,"iso_a3":"JPN","country":"Japan","is_capital":false,"name_en":"Matsusaka","name_es":"Matsusaka","name_fr":"Matsusaka","name_it":"Matsusaka","name_ru":"Matsusaka","elevation":6.0,"timezone":"Asia/Tokyo","admin1_name":"Mie"},{"name":"Kariya","lat":34.98333,"lon":136.98333,"population":153834,"iso_a3":"JPN","country":"Japan","is_capital":false,"name_en":"Kariya","name_es":"Kariya","name_fr":"Kariya","name_it":"Kariya","name_ru":"Кария","elevation":2.0,"timezone":"Asia/Tokyo","admin1_name":"Aichi"},{"name":"Komaki","lat":35.28333,"lon":136.91667,"population":148872,"iso_a3":"JPN","country":"Japan","is_capital":false,"name_en":"Komaki","name_es":"Komaki","name_fr":"Komaki","name_it":"Komaki","name_ru":"Комаки","elevation":17.0,"timezone":"Asia/Tokyo","admin1_name":"Aichi"},{"name":"Kakamigahara","lat":35.41667,"lon":136.86667,"population":144521,"iso_a3":"JPN","country":"Japan","is_capital":false,"name_en":"Kakamigahara","name_es":"Kakamigahara","name_fr":"Kakamigahara","name_it":"Kakamigahara","name_ru":"Какамигахара","elevation":40.0,"timezone":"Asia/Tokyo","admin1_name":"Gifu"},{"name":"Kusatsu","lat":35.01667,"lon":135.96667,"population":143913,"iso_a3":"JPN","country":"Japan","is_capital":false,"name_en":"Kusatsu","name_es":"Kusatsu","name_fr":"Kusatsu","name_it":"Kusatsu","name_ru":"Кусацу","elevation":102.0,"timezone":"Asia/Tokyo","admin1_name":"Shiga"},{"name":"Moriguchi","lat":34.73333,"lon":135.56667,"population":143096,"iso_a3":"JPN","country":"Japan","is_capital":false,"name_en":"Moriguchi","name_es":"Moriguchi","name_fr":"Moriguchi","name_it":"Moriguchi","name_ru":"Моригути","elevation":3.0,"timezone":"Asia/Tokyo","admin1_name":"Osaka"},{"name":"Kuwana","lat":35.05192,"lon":136.66958,"population":140051,"iso_a3":"JPN","country":"Japan","is_capital":false,"name_en":"Kuwana","name_es":"Kuwana","name_fr":"Kuwana","name_it":"Kuwana","name_ru":"Kuwana","elevation":8.0,"timezone":"Asia/Tokyo","admin1_name":"Mie"},{"name":"Inazawa","lat":35.25,"lon":136.78333,"population":134751,"iso_a3":"JPN","country":"Japan","is_capital":false,"name_en":"Inazawa","name_es":"Inazawa","name_fr":"Inazawa","name_it":"Inazawa","name_ru":"Инадзава","elevation":4.0,"timezone":"Asia/Tokyo","admin1_name":"Aichi"},{"name":"Tondabayashichō","lat":34.50065,"lon":135.60211,"population":132873,"iso_a3":"JPN","country":"Japan","is_capital":false,"name_en":"Tondabayashi","name_es":"Tondabayashi","name_fr":"Tondabayashi","name_it":"Tondabayashi","name_ru":"Tondabayashi","elevation":66.0,"timezone":"Asia/Tokyo","admin1_name":"Osaka"},{"name":"Sandachō","lat":34.88444,"lon":135.22694,"population":132858,"iso_a3":"JPN","country":"Japan","is_capital":false,"name_en":"Sandachō","name_es":"Sandachō","name_fr":"Sandachō","name_it":"Sandachō","name_ru":"Санда","elevation":147.0,"timezone":"Asia/Tokyo","admin1_name":"Hyōgo"},{"name":"Matsubara","lat":34.56667,"lon":135.55,"population":130855,"iso_a3":"JPN","country":"Japan","is_capital":false,"name_en":"Matsubara","name_es":"Matsubara","name_fr":"Matsubara","name_it":"Matsubara","name_ru":"Matsubara","elevation":24.0,"timezone":"Asia/Tokyo","admin1_name":"Osaka"},{"name":"Seto","lat":35.23333,"lon":137.1,"population":127792,"iso_a3":"JPN","country":"Japan","is_capital":false,"name_en":"Seto","name_es":"Seto","name_fr":"Seto","name_it":"Seto","name_ru":"Сету","elevation":111.0,"timezone":"Asia/Tokyo","admin1_name":"Aichi"},{"name":"Kashihara-shi","lat":34.50896,"lon":135.7929,"population":124521,"iso_a3":"JPN","country":"Japan","is_capital":false,"name_en":"Kashihara-shi","name_es":"Kashihara-shi","name_fr":"Kashihara-shi","name_it":"Kashihara-shi","name_ru":"Kashihara-shi","elevation":65.0,"timezone":"Asia/Tokyo","admin1_name":"Nara"},{"name":"Ise","lat":34.48333,"lon":136.7,"population":123533,"iso_a3":"JPN","country":"Japan","is_capital":false,"name_en":"Ise","name_es":"Ise","name_fr":"Ise","name_it":"Ise","name_ru":"Исэ","elevation":56.0,"timezone":"Asia/Tokyo","admin1_name":"Mie"},{"name":"Kashiwara","lat":34.45,"lon":135.76667,"population":120922,"iso_a3":"JPN","country":"Japan","is_capital":false,"name_en":"Kashiwara","name_es":"Kashiwara","name_fr":"Kashiwara","name_it":"Kashiwara","name_ru":"Kashiwara","elevation":83.0,"timezone":"Asia/Tokyo","admin1_name":"Nara"},{"name":"Ikoma","lat":34.68333,"lon":135.7,"population":120741,"iso_a3":"JPN","country":"Japan","is_capital":false,"name_en":"Ikoma","name_es":"Ikoma","name_fr":"Ikoma","name_it":"Ikoma","name_ru":"Икома","elevation":146.0,"timezone":"Asia/Tokyo","admin1_name":"Nara"},{"name":"Daitō","lat":34.71378,"lon":135.62033,"population":119367,"iso_a3":"JPN","country":"Japan","is_capital":false,"name_en":"Daitō","name_es":"Daitō","name_fr":"Daitō","name_it":"Daitō","name_ru":"Daitō","elevation":4.0,"timezone":"Asia/Tokyo","admin1_name":"Osaka"},{"name":"Handa","lat":34.88333,"lon":136.93333,"population":117884,"iso_a3":"JPN","country":"Japan","is_capital":false,"name_en":"Handa","name_es":"Handa","name_fr":"Handa","name_it":"Handa","name_ru":"Ханда","elevation":1.0,"timezone":"Asia/Tokyo","admin1_name":"Aichi"},{"name":"Tōkai","lat":35.02269,"lon":136.90887,"population":113787,"iso_a3":"JPN","country":"Japan","is_capital":false,"name_en":"Tōkai","name_es":"Tōkai","name_fr":"Tōkai","name_it":"Tōkai","name_ru":"Tōkai","elevation":7.0,"timezone":"Asia/Tokyo","admin1_name":"Aichi"},{"name":"Hikone","lat":35.25,"lon":136.25,"population":113647,"iso_a3":"JPN","country":"Japan","is_capital":false,"name_en":"Hikone","name_es":"Hikone","name_fr":"Hikone","name_it":"Hikone","name_ru":"Хиконэ","elevation":95.0,"timezone":"Asia/Tokyo","admin1_name":"Shiga"},{"name":"Nagahama","lat":35.38333,"lon":136.26667,"population":113636,"iso_a3":"JPN","country":"Japan","is_capital":false,"name_en":"Nagahama","name_es":"Nagahama","name_fr":"Nagahama","name_it":"Nagahama","name_ru":"Нагахама","elevation":86.0,"timezone":"Asia/Tokyo","admin1_name":"Shiga"},{"name":"Youkaichi","lat":35.11626,"lon":136.19768,"population":112819,"iso_a3":"JPN","country":"Japan","is_capital":false,"name_en":"Youkaichi","name_es":"Youkaichi","name_fr":"Youkaichi","name_it":"Youkaichi","name_ru":"Youkaichi","elevation":124.0,"timezone":"Asia/Tokyo","admin1_name":"Shiga"},{"name":"Komatsu","lat":36.40263,"lon":136.45088,"population":108509,"iso_a3":"JPN","country":"Japan","is_capital":false,"name_en":"Komatsu","name_es":"Komatsu","name_fr":"Komatsu","name_it":"Komatsu","name_ru":"Комацу","elevation":7.0,"timezone":"Asia/Tokyo","admin1_name":"Ishikawa"},{"name":"Tajimi","lat":35.31667,"lon":137.13333,"population":107818,"iso_a3":"JPN","country":"Japan","is_capital":false,"name_en":"Tajimi","name_es":"Tajimi","name_fr":"Tajimi","name_it":"Tajimi","name_ru":"Тадзими","elevation":138.0,"timezone":"Asia/Tokyo","admin1_name":"Gifu"},{"name":"Ikeda","lat":34.82208,"lon":135.4298,"population":104993,"iso_a3":"JPN","country":"Japan","is_capital":false,"name_en":"Ikeda","name_es":"Ikeda","name_fr":"Ikeda","name_it":"Ikeda","name_ru":"Икеда","elevation":26.0,"timezone":"Asia/Tokyo","admin1_name":"Osaka"},{"name":"Kani","lat":35.40435,"lon":137.05595,"population":102143,"iso_a3":"JPN","country":"Japan","is_capital":false,"name_en":"Kani","name_es":"Kani","name_fr":"Kani","name_it":"Kani","name_ru":"Кани","elevation":123.0,"timezone":"Asia/Tokyo","admin1_name":"Gifu"},{"name":"Kawachi-Nagano","lat":34.44108,"lon":135.58283,"population":101692,"iso_a3":"JPN","country":"Japan","is_capital":false,"name_en":"Kawachi-Nagano","name_es":"Kawachi-Nagano","name_fr":"Kawachi-Nagano","name_it":"Kawachi-Nagano","name_ru":"Kawachi-Nagano","elevation":197.0,"timezone":"Asia/Tokyo","admin1_name":"Osaka"},{"name":"Izumisano","lat":34.41667,"lon":135.31667,"population":100131,"iso_a3":"JPN","country":"Japan","is_capital":false,"name_en":"Izumisano","name_es":"Izumisano","name_fr":"Izumisano","name_it":"Izumisano","name_ru":"Идзумисано","elevation":6.0,"timezone":"Asia/Tokyo","admin1_name":"Osaka"},{"name":"Kōnan","lat":35.33165,"lon":136.87042,"population":98255,"iso_a3":"JPN","country":"Japan","is_capital":false,"name_en":"Kōnan","name_es":"Kōnan","name_fr":"Kōnan","name_it":"Kōnan","name_ru":"Конан","elevation":19.0,"timezone":"Asia/Tokyo","admin1_name":"Aichi"},{"name":"Kameoka","lat":35.0,"lon":135.58333,"population":97181,"iso_a3":"JPN","country":"Japan","is_capital":false,"name_en":"Kameoka","name_es":"Kameoka","name_fr":"Kameoka","name_it":"Kameoka","name_ru":"Камеока","elevation":129.0,"timezone":"Asia/Tokyo","admin1_name":"Kyoto"},{"name":"Maizuru","lat":35.45,"lon":135.33333,"population":92465,"iso_a3":"JPN","country":"Japan","is_capital":false,"name_en":"Maizuru","name_es":"Maizuru","name_fr":"Maizuru","name_it":"Maizuru","name_ru":"Майдзуру","elevation":6.0,"timezone":"Asia/Tokyo","admin1_name":"Kyoto"},{"name":"Sakai","lat":36.1473,"lon":136.19408,"population":92210,"iso_a3":"JPN","country":"Japan","is_capital":false,"name_en":"Sakai","name_es":"Sakai","name_fr":"Sakai","name_it":"Sakai","name_ru":"Sakai","elevation":5.0,"timezone":"Asia/Tokyo","admin1_name":"Fukui"},{"name":"Nisshin","lat":35.13676,"lon":137.05238,"population":91795,"iso_a3":"JPN","country":"Japan","is_capital":false,"name_en":"Nisshin","name_es":"Nisshin","name_fr":"Nisshin","name_it":"Nisshin","name_ru":"Ниссин","elevation":45.0,"timezone":"Asia/Tokyo","admin1_name":"Aichi"},{"name":"Kōka","lat":34.9802,"lon":136.15752,"population":89619,"iso_a3":"JPN","country":"Japan","is_capital":false,"name_en":"Kōka","name_es":"Kōka","name_fr":"Kōka","name_it":"Kōka","name_ru":"Кока","elevation":170.0,"timezone":"Asia/Tokyo","admin1_name":"Shiga"},{"name":"Iga","lat":34.75797,"lon":136.13468,"population":88895,"iso_a3":"JPN","country":"Japan","is_capital":false,"name_en":"Iga","name_es":"Iga","name_fr":"Iga","name_it":"Iga","name_ru":"Iga","elevation":152.0,"timezone":"Asia/Tokyo","admin1_name":"Mie"},{"name":"Takayama","lat":36.13333,"lon":137.25,"population":88473,"iso_a3":"JPN","country":"Japan","is_capital":false,"name_en":"Takayama","name_es":"Takayama","name_fr":"Takayama","name_it":"Takayama","name_ru":"Такаяма","elevation":583.0,"timezone":"Asia/Tokyo","admin1_name":"Gifu"},{"name":"Hamakita","lat":34.8,"lon":137.78333,"population":86502,"iso_a3":"JPN","country":"Japan","is_capital":false,"name_en":"Hamakita","name_es":"Hamakita","name_fr":"Hamakita","name_it":"Hamakita","name_ru":"Hamakita","elevation":21.0,"timezone":"Asia/Tokyo","admin1_name":"Shizuoka"},{"name":"Kitanagoya","lat":35.24702,"lon":136.87832,"population":86385,"iso_a3":"JPN","country":"Japan","is_capital":false,"name_en":"Kitanagoya","name_es":"Kitanagoya","name_fr":"Kitanagoya","name_it":"Kitanagoya","name_ru":"Kitanagoya","elevation":8.0,"timezone":"Asia/Tokyo","admin1_name":"Aichi"},{"name":"Ama","lat":35.18307,"lon":136.7997,"population":86126,"iso_a3":"JPN","country":"Japan","is_capital":false,"name_en":"Ama","name_es":"Ama","name_fr":"Ama","name_it":"Ama","name_ru":"Ama","elevation":0.0,"timezone":"Asia/Tokyo","admin1_name":"Aichi"},{"name":"Moriyama","lat":35.06667,"lon":135.98333,"population":85485,"iso_a3":"JPN","country":"Japan","is_capital":false,"name_en":"Moriyama","name_es":"Moriyama","name_fr":"Moriyama","name_it":"Moriyama","name_ru":"Морияма","elevation":92.0,"timezone":"Asia/Tokyo","admin1_name":"Shiga"},{"name":"Sekimachi","lat":35.48333,"lon":136.91667,"population":85283,"iso_a3":"JPN","country":"Japan","is_capital":false,"name_en":"Sekimachi","name_es":"Sekimachi","name_fr":"Sekimachi","name_it":"Sekimachi","name_ru":"Sekimachi","elevation":51.0,"timezone":"Asia/Tokyo","admin1_name":"Gifu"},{"name":"Yamatokōriyama","lat":34.60658,"lon":135.77033,"population":83285,"iso_a3":"JPN","country":"Japan","is_capital":false,"name_en":"Yamatokōriyama","name_es":"Yamatokōriyama","name_fr":"Yamatokōriyama","name_it":"Yamatokōriyama","name_ru":"Yamatokōriyama","elevation":42.0,"timezone":"Asia/Tokyo","admin1_name":"Nara"},{"name":"Owariasahi","lat":35.208,"lon":137.03,"population":83144,"iso_a3":"JPN","country":"Japan","is_capital":false,"name_en":"Owariasahi","name_es":"Owariasahi","name_fr":"Owariasahi","name_it":"Owariasahi","name_ru":"Owariasahi","elevation":48.0,"timezone":"Asia/Tokyo","admin1_name":"Aichi"},{"name":"Echizen","lat":35.88571,"lon":136.17073,"population":83078,"iso_a3":"JPN","country":"Japan","is_capital":false,"name_en":"Echizen","name_es":"Echizen","name_fr":"Echizen","name_it":"Echizen","name_ru":"Echizen","elevation":40.0,"timezone":"Asia/Tokyo","admin1_name":"Fukui"},{"name":"Ōmihachiman","lat":35.12861,"lon":136.0976,"population":82233,"iso_a3":"JPN","country":"Japan","is_capital":false,"name_en":"Ōmihachiman","name_es":"Ōmihachiman","name_fr":"Ōmihachiman","name_it":"Ōmihachiman","name_ru":"Омихатиман","elevation":91.0,"timezone":"Asia/Tokyo","admin1_name":"Shiga"},{"name":"Gamagōri","lat":34.83333,"lon":137.23333,"population":80063,"iso_a3":"JPN","country":"Japan","is_capital":false,"name_en":"Gamagōri","name_es":"Gamagōri","name_fr":"Gamagōri","name_it":"Gamagōri","name_ru":"Гамагори","elevation":23.0,"timezone":"Asia/Tokyo","admin1_name":"Aichi"},{"name":"Nakatsugawa","lat":35.48333,"lon":137.5,"population":78930,"iso_a3":"JPN","country":"Japan","is_capital":false,"name_en":"Nakatsugawa","name_es":"Nakatsugawa","name_fr":"Nakatsugawa","name_it":"Nakatsugawa","name_ru":"Накацугава","elevation":338.0,"timezone":"Asia/Tokyo","admin1_name":"Gifu"},{"name":"Kashiba","lat":34.53472,"lon":135.70925,"population":78113,"iso_a3":"JPN","country":"Japan","is_capital":false,"name_en":"Kashiba","name_es":"Kashiba","name_fr":"Kashiba","name_it":"Kashiba","name_ru":"Касиба","elevation":58.0,"timezone":"Asia/Tokyo","admin1_name":"Nara"},{"name":"Kizugawa","lat":34.73668,"lon":135.83994,"population":77907,"iso_a3":"JPN","country":"Japan","is_capital":false,"name_en":"Kizugawa","name_es":"Kizugawa","name_fr":"Kizugawa","name_it":"Kizugawa","name_ru":"Kizugawa","elevation":56.0,"timezone":"Asia/Tokyo","admin1_name":"Kyoto"},{"name":"Fukuchiyama","lat":35.3,"lon":135.11667,"population":77306,"iso_a3":"JPN","country":"Japan","is_capital":false,"name_en":"Fukuchiyama","name_es":"Fukuchiyama","name_fr":"Fukuchiyama","name_it":"Fukuchiyama","name_ru":"Фукутияма","elevation":20.0,"timezone":"Asia/Tokyo","admin1_name":"Kyoto"},{"name":"Nabari","lat":34.61667,"lon":136.08333,"population":77022,"iso_a3":"JPN","country":"Japan","is_capital":false,"name_en":"Nabari","name_es":"Nabari","name_fr":"Nabari","name_it":"Nabari","name_ru":"Nabari","elevation":192.0,"timezone":"Asia/Tokyo","admin1_name":"Mie"},{"name":"Jōyō","lat":34.84396,"lon":135.80561,"population":74607,"iso_a3":"JPN","country":"Japan","is_capital":false,"name_en":"Jōyō","name_es":"Jōyō","name_fr":"Jōyō","name_it":"Jōyō","name_ru":"Jōyō","elevation":88.0,"timezone":"Asia/Tokyo","admin1_name":"Kyoto"},{"name":"Inuyama","lat":35.37995,"lon":136.94295,"population":73995,"iso_a3":"JPN","country":"Japan","is_capital":false,"name_en":"Inuyama","name_es":"Inuyama","name_fr":"Inuyama","name_it":"Inuyama","name_ru":"Инуяма","elevation":56.0,"timezone":"Asia/Tokyo","admin1_name":"Aichi"},{"name":"Kyōtanabe","lat":34.8045,"lon":135.76681,"population":73753,"iso_a3":"JPN","country":"Japan","is_capital":false,"name_en":"Kyōtanabe","name_es":"Kyōtanabe","name_fr":"Kyōtanabe","name_it":"Kyōtanabe","name_ru":"Kyōtanabe","elevation":75.0,"timezone":"Asia/Tokyo","admin1_name":"Kyoto"},{"name":"Yawata","lat":34.87009,"lon":135.7027,"population":71656,"iso_a3":"JPN","country":"Japan","is_capital":false,"name_en":"Yawata","name_es":"Yawata","name_fr":"Yawata","name_it":"Yawata","name_ru":"Явата","elevation":17.0,"timezone":"Asia/Tokyo","admin1_name":"Kyoto"},{"name":"Tenri","lat":34.58333,"lon":135.83333,"population":71052,"iso_a3":"JPN","country":"Japan","is_capital":false,"name_en":"Tenri","name_es":"Tenri","name_fr":"Tenri","name_it":"Tenri","name_ru":"Тэнри","elevation":56.0,"timezone":"Asia/Tokyo","admin1_name":"Nara"},{"name":"Toyoake","lat":35.038,"lon":136.99931,"population":69295,"iso_a3":"JPN","country":"Japan","is_capital":false,"name_en":"Toyoake","name_es":"Toyoake","name_fr":"Toyoake","name_it":"Toyoake","name_ru":"Toyoake","elevation":13.0,"timezone":"Asia/Tokyo","admin1_name":"Aichi"},{"name":"Tsuruga","lat":35.653,"lon":136.06331,"population":68482,"iso_a3":"JPN","country":"Japan","is_capital":false,"name_en":"Tsuruga","name_es":"Tsuruga","name_fr":"Tsuruga","name_it":"Tsuruga","name_ru":"Цуруга","elevation":12.0,"timezone":"Asia/Tokyo","admin1_name":"Fukui"},{"name":"Sabae","lat":35.94647,"lon":136.18498,"population":68302,"iso_a3":"JPN","country":"Japan","is_capital":false,"name_en":"Sabae","name_es":"Sabae","name_fr":"Sabae","name_it":"Sabae","name_ru":"Sabae","elevation":27.0,"timezone":"Asia/Tokyo","admin1_name":"Fukui"},{"name":"Hashima","lat":35.329,"lon":136.68051,"population":67909,"iso_a3":"JPN","country":"Japan","is_capital":false,"name_en":"Hashima","name_es":"Hashima","name_fr":"Hashima","name_it":"Hashima","name_ru":"Хасима","elevation":5.0,"timezone":"Asia/Tokyo","admin1_name":"Gifu"},{"name":"Kaga","lat":36.3,"lon":136.33333,"population":67793,"iso_a3":"JPN","country":"Japan","is_capital":false,"name_en":"Kaga","name_es":"Kaga","name_fr":"Kaga","name_it":"Kaga","name_ru":"Kaga","elevation":20.0,"timezone":"Asia/Tokyo","admin1_name":"Ishikawa"},{"name":"Tsushima","lat":35.16667,"lon":136.71667,"population":67658,"iso_a3":"JPN","country":"Japan","is_capital":false,"name_en":"Tsushima","name_es":"Tsushima","name_fr":"Tsushima","name_it":"Tsushima","name_ru":"Цусима","elevation":2.0,"timezone":"Asia/Tokyo","admin1_name":"Aichi"},{"name":"Tanba","lat":35.16034,"lon":135.03914,"population":62152,"iso_a3":"JPN","country":"Japan","is_capital":false,"name_en":"Tanba","name_es":"Tanba","name_fr":"Tanba","name_it":"Tanba","name_ru":"Tanba","elevation":91.0,"timezone":"Asia/Tokyo","admin1_name":"Hyōgo"},{"name":"Miyoshi","lat":35.08971,"lon":137.08998,"population":61952,"iso_a3":"JPN","country":"Japan","is_capital":false,"name_en":"Miyoshi","name_es":"Miyoshi","name_fr":"Miyoshi","name_it":"Miyoshi","name_ru":"Miyoshi","elevation":59.0,"timezone":"Asia/Tokyo","admin1_name":"Aichi"},{"name":"Hashimoto","lat":34.31667,"lon":135.61667,"population":61063,"iso_a3":"JPN","country":"Japan","is_capital":false,"name_en":"Hashimoto","name_es":"Hashimoto","name_fr":"Hashimoto","name_it":"Hashimoto","name_ru":"Хасимото","elevation":79.0,"timezone":"Asia/Tokyo","admin1_name":"Wakayama"},{"name":"Tahara","lat":34.66799,"lon":137.26736,"population":60206,"iso_a3":"JPN","country":"Japan","is_capital":false,"name_en":"Tahara","name_es":"Tahara","name_fr":"Tahara","name_it":"Tahara","name_ru":"Тахара","elevation":34.0,"timezone":"Asia/Tokyo","admin1_name":"Aichi"},{"name":"Sennan","lat":34.34835,"lon":135.26842,"population":60102,"iso_a3":"JPN","country":"Japan","is_capital":false,"name_en":"Sennan","name_es":"Sennan","name_fr":"Sennan","name_it":"Sennan","name_ru":"Sennan","elevation":29.0,"timezone":"Asia/Tokyo","admin1_name":"Osaka"},{"name":"Kosai","lat":34.70053,"lon":137.52253,"population":59770,"iso_a3":"JPN","country":"Japan","is_capital":false,"name_en":"Kosai","name_es":"Kosai","name_fr":"Kosai","name_it":"Kosai","name_ru":"Kosai","elevation":30.0,"timezone":"Asia/Tokyo","admin1_name":"Shizuoka"},{"name":"Tokoname","lat":34.88333,"lon":136.85,"population":58710,"iso_a3":"JPN","country":"Japan","is_capital":false,"name_en":"Tokoname","name_es":"Tokoname","name_fr":"Tokoname","name_it":"Tokoname","name_ru":"Токонамэ","elevation":11.0,"timezone":"Asia/Tokyo","admin1_name":"Aichi"},{"name":"Toki","lat":35.35,"lon":137.18333,"population":58567,"iso_a3":"JPN","country":"Japan","is_capital":false,"name_en":"Toki","name_es":"Toki","name_fr":"Toki","name_it":"Toki","name_ru":"Тока","elevation":159.0,"timezone":"Asia/Tokyo","admin1_name":"Gifu"},{"name":"Sakurai","lat":34.5,"lon":135.85,"population":58386,"iso_a3":"JPN","country":"Japan","is_capital":false,"name_en":"Sakurai","name_es":"Sakurai","name_fr":"Sakurai","name_it":"Sakurai","name_ru":"Сакураи","elevation":108.0,"timezone":"Asia/Tokyo","admin1_name":"Nara"},{"name":"Nonoichi","lat":36.53333,"lon":136.61667,"population":57238,"iso_a3":"JPN","country":"Japan","is_capital":false,"name_en":"Nonoichi","name_es":"Nonoichi","name_fr":"Nonoichi","name_it":"Nonoichi","name_ru":"Ноноичи","elevation":20.0,"timezone":"Asia/Tokyo","admin1_name":"Ishikawa"},{"name":"Minokamo","lat":35.48199,"lon":137.02166,"population":56972,"iso_a3":"JPN","country":"Japan","is_capital":false,"name_en":"Minokamo","name_es":"Minokamo","name_fr":"Minokamo","name_it":"Minokamo","name_ru":"Минокамо","elevation":175.0,"timezone":"Asia/Tokyo","admin1_name":"Gifu"},{"name":"Mukō","lat":34.96545,"lon":135.70415,"population":56859,"iso_a3":"JPN","country":"Japan","is_capital":false,"name_en":"Mukō","name_es":"Mukō","name_fr":"Mukō","name_it":"Mukō","name_ru":"Мука","elevation":19.0,"timezone":"Asia/Tokyo","admin1_name":"Kyoto"},{"name":"Mizuho","lat":35.3943,"lon":136.66898,"population":56388,"iso_a3":"JPN","country":"Japan","is_capital":false,"name_en":"Mizuho","name_es":"Mizuho","name_fr":"Mizuho","name_it":"Mizuho","name_ru":"Mizuho","elevation":7.0,"timezone":"Asia/Tokyo","admin1_name":"Gifu"},{"name":"Shijōnawate","lat":34.73333,"lon":135.68333,"population":55177,"iso_a3":"JPN","country":"Japan","is_capital":false,"name_en":"Shijōnawate","name_es":"Shijōnawate","name_fr":"Shijōnawate","name_it":"Shijōnawate","name_ru":"Shijōnawate","elevation":268.0,"timezone":"Asia/Tokyo","admin1_name":"Osaka"},{"name":"Konan","lat":34.99921,"lon":136.09674,"population":54607,"iso_a3":"JPN","country":"Japan","is_capital":false,"name_en":"Konan","name_es":"Konan","name_fr":"Konan","name_it":"Konan","name_ru":"Konan","elevation":137.0,"timezone":"Asia/Tokyo","admin1_name":"Shiga"},{"name":"Kyōtango","lat":35.60623,"lon":135.04429,"population":50860,"iso_a3":"JPN","country":"Japan","is_capital":false,"name_en":"Kyōtango","name_es":"Kyōtango","name_fr":"Kyōtango","name_it":"Kyōtango","name_ru":"Kyōtango","elevation":61.0,"timezone":"Asia/Tokyo","admin1_name":"Kyoto"},{"name":"Arashiyama","lat":35.01481,"lon":135.67755,"population":50000,"iso_a3":"JPN","country":"Japan","is_capital":false,"name_en":"Arashiyama","name_es":"Arashiyama","name_fr":"Arashiyama","name_it":"Arashiyama","name_ru":"Арашияма","elevation":36.0,"timezone":"Asia/Tokyo","admin1_name":"Kyoto"},{"name":"Kameyama","lat":34.85,"lon":136.45,"population":49835,"iso_a3":"JPN","country":"Japan","is_capital":false,"name_en":"Kameyama","name_es":"Kameyama","name_fr":"Kameyama","name_it":"Kameyama","name_ru":"Kameyama","elevation":54.0,"timezone":"Asia/Tokyo","admin1_name":"Mie"},{"name":"Ena","lat":35.44722,"lon":137.38332,"population":48777,"iso_a3":"JPN","country":"Japan","is_capital":false,"name_en":"Ena","name_es":"Ena","name_fr":"Ena","name_it":"Ena","name_ru":"Эна","elevation":358.0,"timezone":"Asia/Tokyo","admin1_name":"Gifu"},{"name":"Takahama","lat":34.91667,"lon":136.98333,"population":48736,"iso_a3":"JPN","country":"Japan","is_capital":false,"name_en":"Takahama","name_es":"Takahama","name_fr":"Takahama","name_it":"Takahama","name_ru":"Такахама","elevation":7.0,"timezone":"Asia/Tokyo","admin1_name":"Aichi"},{"name":"Nanto","lat":36.51274,"lon":136.89352,"population":47976,"iso_a3":"JPN","country":"Japan","is_capital":false,"name_en":"Nanto","name_es":"Nanto","name_fr":"Nanto","name_it":"Nanto","name_ru":"Нанто","elevation":141.0,"timezone":"Asia/Tokyo","admin1_name":"Toyama"},{"name":"Nanto-shi","lat":36.56922,"lon":136.91162,"population":47976,"iso_a3":"JPN","country":"Japan","is_capital":false,"name_en":"Nanto-shi","name_es":"Nanto-shi","name_fr":"Nanto-shi","name_it":"Nanto-shi","name_ru":"Nanto-shi","elevation":70.0,"timezone":"Asia/Tokyo","admin1_name":"Toyama"},{"name":"Shima","lat":34.33333,"lon":136.83333,"population":47774,"iso_a3":"JPN","country":"Japan","is_capital":false,"name_en":"Shima","name_es":"Shima","name_fr":"Shima","name_it":"Shima","name_ru":"Shima","elevation":11.0,"timezone":"Asia/Tokyo","admin1_name":"Mie"},{"name":"Takashima","lat":35.41347,"lon":136.01612,"population":46976,"iso_a3":"JPN","country":"Japan","is_capital":false,"name_en":"Takashima","name_es":"Takashima","name_fr":"Takashima","name_it":"Takashima","name_ru":"Такасима","elevation":107.0,"timezone":"Asia/Tokyo","admin1_name":"Shiga"},{"name":"Inabe","lat":35.11344,"lon":136.57205,"population":44973,"iso_a3":"JPN","country":"Japan","is_capital":false,"name_en":"Inabe","name_es":"Inabe","name_fr":"Inabe","name_it":"Inabe","name_ru":"Inabe","elevation":78.0,"timezone":"Asia/Tokyo","admin1_name":"Mie"},{"name":"Shinshiro","lat":34.9,"lon":137.5,"population":44355,"iso_a3":"JPN","country":"Japan","is_capital":false,"name_en":"Shinshiro","name_es":"Shinshiro","name_fr":"Shinshiro","name_it":"Shinshiro","name_ru":"Синсиро","elevation":48.0,"timezone":"Asia/Tokyo","admin1_name":"Aichi"},{"name":"Yatomi","lat":35.1053,"lon":136.73378,"population":43025,"iso_a3":"JPN","country":"Japan","is_capital":false,"name_en":"Yatomi","name_es":"Yatomi","name_fr":"Yatomi","name_it":"Yatomi","name_ru":"Yatomi","elevation":0.0,"timezone":"Asia/Tokyo","admin1_name":"Aichi"},{"name":"Kōta","lat":34.87482,"lon":137.17086,"population":42449,"iso_a3":"JPN","country":"Japan","is_capital":false,"name_en":"Kōta","name_es":"Kōta","name_fr":"Kōta","name_it":"Kōta","name_ru":"Kōta","elevation":70.0,"timezone":"Asia/Tokyo","admin1_name":"Aichi"},{"name":"Gujō","lat":35.73691,"lon":136.95852,"population":41858,"iso_a3":"JPN","country":"Japan","is_capital":false,"name_en":"Gujō","name_es":"Gujō","name_fr":"Gujō","name_it":"Gujō","name_ru":"Гудзё","elevation":314.0,"timezone":"Asia/Tokyo","admin1_name":"Gifu"},{"name":"Komono","lat":35.0,"lon":136.51667,"population":41542,"iso_a3":"JPN","country":"Japan","is_capital":false,"name_en":"Komono","name_es":"Komono","name_fr":"Komono","name_it":"Komono","name_ru":"Komono","elevation":84.0,"timezone":"Asia/Tokyo","admin1_name":"Mie"},{"name":"Katō","lat":34.92422,"lon":135.02609,"population":40645,"iso_a3":"JPN","country":"Japan","is_capital":false,"name_en":"Katō","name_es":"Katō","name_fr":"Katō","name_it":"Katō","name_ru":"Katō","elevation":125.0,"timezone":"Asia/Tokyo","admin1_name":"Hyōgo"},{"name":"Sasayama","lat":35.06667,"lon":135.21667,"population":40050,"iso_a3":"JPN","country":"Japan","is_capital":false,"name_en":"Sasayama","name_es":"Sasayama","name_fr":"Sasayama","name_it":"Sasayama","name_ru":"Сасаяма","elevation":202.0,"timezone":"Asia/Tokyo","admin1_name":"Hyōgo"},{"name":"Maibara","lat":35.31667,"lon":136.28333,"population":38259,"iso_a3":"JPN","country":"Japan","is_capital":false,"name_en":"Maibara","name_es":"Maibara","name_fr":"Maibara","name_it":"Maibara","name_ru":"Майбара","elevation":86.0,"timezone":"Asia/Tokyo","admin1_name":"Shiga"},{"name":"Mizunami","lat":35.36667,"lon":137.25,"population":37705,"iso_a3":"JPN","country":"Japan","is_capital":false,"name_en":"Mizunami","name_es":"Mizunami","name_fr":"Mizunami","name_it":"Mizunami","name_ru":"Мидзунами","elevation":157.0,"timezone":"Asia/Tokyo","admin1_name":"Gifu"},{"name":"Katsuragi","lat":34.48562,"lon":135.69698,"population":37352,"iso_a3":"JPN","country":"Japan","is_capital":false,"name_en":"Katsuragi","name_es":"Katsuragi","name_fr":"Katsuragi","name_it":"Katsuragi","name_ru":"Кацураги","elevation":270.0,"timezone":"Asia/Tokyo","admin1_name":"Nara"},{"name":"Kanie","lat":35.13333,"lon":136.8,"population":37338,"iso_a3":"JPN","country":"Japan","is_capital":false,"name_en":"Kanie","name_es":"Kanie","name_fr":"Kanie","name_it":"Kanie","name_ru":"Kanie","elevation":0.0,"timezone":"Asia/Tokyo","admin1_name":"Aichi"},{"name":"Gero","lat":35.8,"lon":137.23333,"population":35000,"iso_a3":"JPN","country":"Japan","is_capital":false,"name_en":"Gero","name_es":"Gero","name_fr":"Gero","name_it":"Gero","name_ru":"Геро","elevation":781.0,"timezone":"Asia/Tokyo","admin1_name":"Gifu"},{"name":"Kaizu","lat":35.20169,"lon":136.63505,"population":34960,"iso_a3":"JPN","country":"Japan","is_capital":false,"name_en":"Kaizu","name_es":"Kaizu","name_fr":"Kaizu","name_it":"Kaizu","name_ru":"Kaizu","elevation":-1.0,"timezone":"Asia/Tokyo","admin1_name":"Gifu"},{"name":"Gojō","lat":34.35,"lon":135.7,"population":34342,"iso_a3":"JPN","country":"Japan","is_capital":false,"name_en":"Gojō","name_es":"Gojō","name_fr":"Gojō","name_it":"Gojō","name_ru":"Годзё","elevation":98.0,"timezone":"Asia/Tokyo","admin1_name":"Nara"},{"name":"Ono","lat":35.98106,"lon":136.48727,"population":33640,"iso_a3":"JPN","country":"Japan","is_capital":false,"name_en":"Ono","name_es":"Ono","name_fr":"Ono","name_it":"Ono","name_ru":"Оно","elevation":175.0,"timezone":"Asia/Tokyo","admin1_name":"Fukui"},{"name":"Maruoka","lat":36.1534,"lon":136.27029,"population":33563,"iso_a3":"JPN","country":"Japan","is_capital":false,"name_en":"Maruoka","name_es":"Maruoka","name_fr":"Maruoka","name_it":"Maruoka","name_ru":"Maruoka","elevation":13.0,"timezone":"Asia/Tokyo","admin1_name":"Fukui"},{"name":"Motosu","lat":35.48384,"lon":136.67443,"population":32928,"iso_a3":"JPN","country":"Japan","is_capital":false,"name_en":"Motosu","name_es":"Motosu","name_fr":"Motosu","name_it":"Motosu","name_ru":"Мотосу","elevation":35.0,"timezone":"Asia/Tokyo","admin1_name":"Gifu"},{"name":"Kuroda","lat":35.35,"lon":136.78333,"population":32586,"iso_a3":"JPN","country":"Japan","is_capital":false,"name_en":"Kuroda","name_es":"Kuroda","name_fr":"Kuroda","name_it":"Kuroda","name_ru":"Курода","elevation":10.0,"timezone":"Asia/Tokyo","admin1_name":"Aichi"},{"name":"Ayabe","lat":35.3,"lon":135.25,"population":31846,"iso_a3":"JPN","country":"Japan","is_capital":false,"name_en":"Ayabe","name_es":"Ayabe","name_fr":"Ayabe","name_it":"Ayabe","name_ru":"Аябе","elevation":46.0,"timezone":"Asia/Tokyo","admin1_name":"Kyoto"},{"name":"Nantan","lat":35.1098,"lon":135.49164,"population":31629,"iso_a3":"JPN","country":"Japan","is_capital":false,"name_en":"Nantan","name_es":"Nantan","name_fr":"Nantan","name_it":"Nantan","name_ru":"Nantan","elevation":248.0,"timezone":"Asia/Tokyo","admin1_name":"Kyoto"}]