[{"name":"Nagano","lat":36.65,"lon":138.18333,"population":372760,"iso_a3":"JPN","country":"Japan","is_capital":false,"name_en":"Nagano","name_es":"Nagano","name_fr":"Nagano","name_it":"Nagano","name_ru":"Нагано","elevation":372.0,"timezone":"Asia/Tokyo","admin1_name":"Nagano"},{"name":"Kōriyama","lat":37.4,"lon":140.38333,"population":327692,"iso_a3":"JPN","country":"Japan","is_capital":false,"name_en":"Kōriyama","name_es":"Kōriyama","name_fr":"Kōriyama","name_it":"Kōriyama","name_ru":"Корияма","elevation":236.0,"timezone":"Asia/Tokyo","admin1_name":"Fukushima"},{"name":"Fukushima","lat":37.75,"lon":140.46667,"population":294237,"iso_a3":"JPN","country":"Japan","is_capital":false,"name_en":"Fukushima","name_es":"Fukushima","name_fr":"Fukushima","name_it":"Fukushima","name_ru":"Фукусима","elevation":77.0,"timezone":"Asia/Tokyo","admin1_name":"Fukushima"},{"name":"Nagaoka","lat":37.45,"lon":138.85,"population":266936,"iso_a3":"JPN","country":"Japan","is_capital":false,"name_en":"Nagaoka","name_es":"Nagaoka","name_fr":"Nagaoka","name_it":"Nagaoka","name_ru":"Нагаока","elevation":23.0,"timezone":"Asia/Tokyo","admin1_name":"Niigata"},{"name":"Yamagata","lat":38.23333,"lon":140.36667,"population":248772,"iso_a3":"JPN","country":"Japan","is_capital":false,"name_en":"Yamagata","name_es":"Yamagata","name_fr":"Yamagata","name_it":"Yamagata","name_ru":"Ямагата","elevation":321.0,"timezone":"Asia/Tokyo","admin1_name":"Yamagata"},{"name":"Jōetsu","lat":37.14828,"lon":138.23642,"population":189430,"iso_a3":"JPN","country":"Japan","is_capital":false,"name_en":"Jōetsu","name_es":"Jōetsu","name_fr":"Jōetsu","name_it":"Jōetsu","name_ru":"Дзёэцу","elevation":10.0,"timezone":"Asia/Tokyo","admin1_name":"Niigata"},{"name":"Tsuruoka","lat":38.72167,"lon":139.82167,"population":125389,"iso_a3":"JPN","country":"Japan","is_capital":false,"name_en":"Tsuruoka","name_es":"Tsuruoka","name_fr":"Tsuruoka","name_it":"Tsuruoka","name_ru":"Цуруока","elevation":13.0,"timezone":"Asia/Tokyo","admin1_name":"Yamagata"},{"name":"Aizu-Wakamatsu","lat":37.49142,"lon":139.94546,"population":118159,"iso_a3":"JPN","country":"Japan","is_capital":false,"name_en":"Aizu-Wakamatsu","name_es":"Aizu-Wakamatsu","name_fr":"Aizu-Wakamatsu","name_it":"Aizu-Wakamatsu","name_ru":"Aizu-Wakamatsu","elevation":238.0,"timezone":"Asia/Tokyo","admin1_name":"Fukushima"},{"name":"Nasushiobara","lat":36.97682,"lon":140.06642,"population":115794,"iso_a3":"JPN","country":"Japan","is_capital":false,"name_en":"Nasushiobara","name_es":"Nasushiobara","name_fr":"Nasushiobara","name_it":"Nasushiobara","name_ru":"Насусиобара","elevation":280.0,"timezone":"Asia/Tokyo","admin1_name":"Tochigi"},{"name":"Shibata","lat":37.95,"lon":139.33333,"population":96236,"iso_a3":"JPN","country":"Japan","is_capital":false,"name_en":"Shibata","name_es":"Shibata","name_fr":"Shibata","name_it":"Shibata","name_ru":"Шибата","elevation":10.0,"timezone":"Asia/Tokyo","admin1_name":"Niigata"},{"name":"Sanjō","lat":37.61667,"lon":138.95,"population":94642,"iso_a3":"JPN","country":"Japan","is_capital":false,"name_en":"Sanjō","name_es":"Sanjō","name_fr":"Sanjō","name_it":"Sanjō","name_ru":"Сандзе","elevation":9.0,"timezone":"Asia/Tokyo","admin1_name":"Niigata"},{"name":"Yonezawa","lat":37.91,"lon":140.11667,"population":94486,"iso_a3":"JPN","country":"Japan","is_capital":false,"name_en":"Yonezawa","name_es":"Yonezawa","name_fr":"Yonezawa","name_it":"Yonezawa","name_ru":"Йонезава","elevation":249.0,"timezone":"Asia/Tokyo","admin1_name":"Yamagata"},{"name":"Kashiwazaki","lat":37.36667,"lon":138.55,"population":86183,"iso_a3":"JPN","country":"Japan","is_capital":false,"name_en":"Kashiwazaki","name_es":"Kashiwazaki","name_fr":"Kashiwazaki","name_it":"Kashiwazaki","name_ru":"Касивадзаки","elevation":4.0,"timezone":"Asia/Tokyo","admin1_name":"Niigata"},{"name":"Nikkō","lat":36.75,"lon":139.61667,"population":77661,"iso_a3":"JPN","country":"Japan","is_capital":false,"name_en":"Nikkō","name_es":"Nikkō","name_fr":"Nikkō","name_it":"Nikkō","name_ru":"Никко","elevation":555.0,"timezone":"Asia/Tokyo","admin1_name":"Tochigi"},{"name":"Tsubame","lat":37.6645,"lon":138.92518,"population":77382,"iso_a3":"JPN","country":"Japan","is_capital":false,"name_en":"Tsubame","name_es":"Tsubame","name_fr":"Tsubame","name_it":"Tsubame","name_ru":"Цубамэ","elevation":8.0,"timezone":"Asia/Tokyo","admin1_name":"Niigata"},{"name":"Sukagawa","lat":37.28333,"lon":140.38333,"population":74992,"iso_a3":"JPN","country":"Japan","is_capital":false,"name_en":"Sukagawa","name_es":"Sukagawa","name_fr":"Sukagawa","name_it":"Sukagawa","name_ru":"Sukagawa","elevation":261.0,"timezone":"Asia/Tokyo","admin1_name":"Fukushima"},{"name":"Ōtawara","lat":36.86667,"lon":140.03333,"population":72087,"iso_a3":"JPN","country":"Japan","is_capital":false,"name_en":"Ōtawara","name_es":"Ōtawara","name_fr":"Ōtawara","name_it":"Ōtawara","name_ru":"Отавара","elevation":205.0,"timezone":"Asia/Tokyo","admin1_name":"Tochigi"},{"name":"Niitsu-honchō","lat":37.80024,"lon":139.1224,"population":65910,"iso_a3":"JPN","country":"Japan","is_capital":false,"name_en":"Niitsu","name_es":"Niitsu","name_fr":"Niitsu","name_it":"Niitsu","name_ru":"Niitsu","elevation":8.0,"timezone":"Asia/Tokyo","admin1_name":"Niigata"},{"name":"Tendō","lat":38.35361,"lon":140.36972,"population":65393,"iso_a3":"JPN","country":"Japan","is_capital":false,"name_en":"Tendō","name_es":"Tendō","name_fr":"Tendō","name_it":"Tendō","name_ru":"Тендо","elevation":108.0,"timezone":"Asia/Tokyo","admin1_name":"Yamagata"},{"name":"Imaichi","lat":36.71667,"lon":139.68333,"population":64323,"iso_a3":"JPN","country":"Japan","is_capital":false,"name_en":"Imaichi","name_es":"Imaichi","name_fr":"Imaichi","name_it":"Imaichi","name_ru":"Imaichi","elevation":391.0,"timezone":"Asia/Tokyo","admin1_name":"Tochigi"},{"name":"Date","lat":37.81667,"lon":140.5,"population":59625,"iso_a3":"JPN","country":"Japan","is_capital":false,"name_en":"Date","name_es":"Date","name_fr":"Date","name_it":"Date","name_ru":"Date","elevation":58.0,"timezone":"Asia/Tokyo","admin1_name":"Fukushima"},{"name":"Shirakawa","lat":37.11954,"lon":140.26211,"population":59491,"iso_a3":"JPN","country":"Japan","is_capital":false,"name_en":"Shirakawa","name_es":"Shirakawa","name_fr":"Shirakawa","name_it":"Shirakawa","name_ru":"Shirakawa","elevation":323.0,"timezone":"Asia/Tokyo","admin1_name":"Fukushima"},{"name":"Murakami","lat":38.23333,"lon":139.48333,"population":58300,"iso_a3":"JPN","country":"Japan","is_capital":false,"name_en":"Murakami","name_es":"Murakami","name_fr":"Murakami","name_it":"Murakami","name_ru":"Мураками","elevation":4.0,"timezone":"Asia/Tokyo","admin1_name":"Niigata"},{"name":"Minamiuonuma","lat":37.08259,"lon":138.87413,"population":55354,"iso_a3":"JPN","country":"Japan","is_capital":false,"name_en":"Minamiuonuma","name_es":"Minamiuonuma","name_fr":"Minamiuonuma","name_it":"Minamiuonuma","name_ru":"Minamiuonuma","elevation":198.0,"timezone":"Asia/Tokyo","admin1_name":"Niigata"},{"name":"Suzaka","lat":36.65,"lon":138.31667,"population":54022,"iso_a3":"JPN","country":"Japan","is_capital":false,"name_en":"Suzaka","name_es":"Suzaka","name_fr":"Suzaka","name_it":"Suzaka","name_ru":"Suzaka","elevation":401.0,"timezone":"Asia/Tokyo","admin1_name":"Nagano"},{"name":"Nihommatsu","lat":37.58333,"lon":140.43333,"population":53557,"iso_a3":"JPN","country":"Japan","is_capital":false,"name_en":"Nihommatsu","name_es":"Nihommatsu","name_fr":"Nihommatsu","name_it":"Nihommatsu","name_ru":"Nihommatsu","elevation":224.0,"timezone":"Asia/Tokyo","admin1_name":"Fukushima"},{"name":"Tōkamachi","lat":37.13333,"lon":138.76667,"population":53333,"iso_a3":"JPN","country":"Japan","is_capital":false,"name_en":"Tōkamachi","name_es":"Tōkamachi","name_fr":"Tōkamachi","name_it":"Tōkamachi","name_ru":"Токамати","elevation":154.0,"timezone":"Asia/Tokyo","admin1_name":"Niigata"},{"name":"Sado","lat":38.02496,"lon":138.35931,"population":51492,"iso_a3":"JPN","country":"Japan","is_capital":false,"name_en":"Sado","name_es":"Sado","name_fr":"Sado","name_it":"Sado","name_ru":"Япония","elevation":27.0,"timezone":"Asia/Tokyo","admin1_name":"Niigata"},{"name":"Gosen","lat":37.73333,"lon":139.16667,"population":48458,"iso_a3":"JPN","country":"Japan","is_capital":false,"name_en":"Gosen","name_es":"Gosen","name_fr":"Gosen","name_it":"Gosen","name_ru":"Госен","elevation":9.0,"timezone":"Asia/Tokyo","admin1_name":"Niigata"},{"name":"Higashine","lat":38.43889,"lon":140.40056,"population":47682,"iso_a3":"JPN","country":"Japan","is_capital":false,"name_en":"Higashine","name_es":"Higashine","name_fr":"Higashine","name_it":"Higashine","name_ru":"Хигасине","elevation":119.0,"timezone":"Asia/Tokyo","admin1_name":"Yamagata"},{"name":"Numata","lat":36.63333,"lon":139.05,"population":46908,"iso_a3":"JPN","country":"Japan","is_capital":false,"name_en":"Numata","name_es":"Numata","name_fr":"Numata","name_it":"Numata","name_ru":"Нумата","elevation":376.0,"timezone":"Asia/Tokyo","admin1_name":"Gunma"},{"name":"Kitakata","lat":37.65,"lon":139.86667,"population":46269,"iso_a3":"JPN","country":"Japan","is_capital":false,"name_en":"Kitakata","name_es":"Kitakata","name_fr":"Kitakata","name_it":"Kitakata","name_ru":"Китаката","elevation":207.0,"timezone":"Asia/Tokyo","admin1_name":"Fukushima"},{"name":"Sakura","lat":36.72072,"lon":139.98779,"population":44712,"iso_a3":"JPN","country":"Japan","is_capital":false,"name_en":"Sakura","name_es":"Sakura","name_fr":"Sakura","name_it":"Sakura","name_ru":"Sakura","elevation":190.0,"timezone":"Asia/Tokyo","admin1_name":"Tochigi"},{"name":"Sagae","lat":38.3725,"lon":140.2725,"population":43544,"iso_a3":"JPN","country":"Japan","is_capital":false,"name_en":"Sagae","name_es":"Sagae","name_fr":"Sagae","name_it":"Sagae","name_ru":"Сагаэ","elevation":102.0,"timezone":"Asia/Tokyo","admin1_name":"Yamagata"},{"name":"Mitsuke","lat":37.53333,"lon":138.93333,"population":43180,"iso_a3":"JPN","country":"Japan","is_capital":false,"name_en":"Mitsuke","name_es":"Mitsuke","name_fr":"Mitsuke","name_it":"Mitsuke","name_ru":"Mitsuke","elevation":48.0,"timezone":"Asia/Tokyo","admin1_name":"Niigata"},{"name":"Nakano","lat":36.75,"lon":138.36667,"population":42664,"iso_a3":"JPN","country":"Japan","is_capital":false,"name_en":"Nakano","name_es":"Nakano","name_fr":"Nakano","name_it":"Nakano","name_ru":"Накано","elevation":380.0,"timezone":"Asia/Tokyo","admin1_name":"Nagano"},{"name":"Shirone","lat":37.76354,"lon":139.02199,"population":41406,"iso_a3":"JPN","country":"Japan","is_capital":false,"name_en":"Shirone","name_es":"Shirone","name_fr":"Shirone","name_it":"Shirone","name_ru":"Shirone","elevation":-1.0,"timezone":"Asia/Tokyo","admin1_name":"Niigata"},{"name":"Shinjō","lat":38.75861,"lon":140.30083,"population":41140,"iso_a3":"JPN","country":"Japan","is_capital":false,"name_en":"Shinjō","name_es":"Shinjō","name_fr":"Shinjō","name_it":"Shinjō","name_ru":"Синдзе","elevation":99.0,"timezone":"Asia/Tokyo","admin1_name":"Yamagata"},{"name":"Itoigawa","lat":37.03333,"lon":137.85,"population":40765,"iso_a3":"JPN","country":"Japan","is_capital":false,"name_en":"Itoigawa","name_es":"Itoigawa","name_fr":"Itoigawa","name_it":"Itoigawa","name_ru":"Итоигава","elevation":15.0,"timezone":"Asia/Tokyo","admin1_name":"Niigata"},{"name":"Agano","lat":37.83605,"lon":139.22332,"population":40696,"iso_a3":"JPN","country":"Japan","is_capital":false,"name_en":"Agano","name_es":"Agano","name_fr":"Agano","name_it":"Agano","name_ru":"Agano","elevation":7.0,"timezone":"Asia/Tokyo","admin1_name":"Niigata"},{"name":"Yaita","lat":36.8,"lon":139.93333,"population":36275,"iso_a3":"JPN","country":"Japan","is_capital":false,"name_en":"Yaita","name_es":"Yaita","name_fr":"Yaita","name_it":"Yaita","name_ru":"Яита","elevation":191.0,"timezone":"Asia/Tokyo","admin1_name":"Tochigi"},{"name":"Kaminoyama","lat":38.15389,"lon":140.27361,"population":35593,"iso_a3":"JPN","country":"Japan","is_capital":false,"name_en":"Kaminoyama","name_es":"Kaminoyama","name_fr":"Kaminoyama","name_it":"Kaminoyama","name_ru":"Каминояма","elevation":177.0,"timezone":"Asia/Tokyo","admin1_name":"Yamagata"},{"name":"Tamura","lat":37.43055,"lon":140.60335,"population":35169,"iso_a3":"JPN","country":"Japan","is_capital":false,"name_en":"Tamura","name_es":"Tamura","name_fr":"Tamura","name_it":"Tamura","name_ru":"Тамура","elevation":468.0,"timezone":"Asia/Tokyo","admin1_name":"Fukushima"},{"name":"Ojiya","lat":37.3,"lon":138.8,"population":34704,"iso_a3":"JPN","country":"Japan","is_capital":false,"name_en":"Ojiya","name_es":"Ojiya","name_fr":"Ojiya","name_it":"Ojiya","name_ru":"Ojiya","elevation":72.0,"timezone":"Asia/Tokyo","admin1_name":"Niigata"},{"name":"Uonuma","lat":37.24488,"lon":138.96234,"population":34483,"iso_a3":"JPN","country":"Japan","is_capital":false,"name_en":"Uonuma","name_es":"Uonuma","name_fr":"Uonuma","name_it":"Uonuma","name_ru":"Уонума","elevation":95.0,"timezone":"Asia/Tokyo","admin1_name":"Niigata"},{"name":"Shiroishi","lat":38.00333,"lon":140.61833,"population":33330,"iso_a3":"JPN","country":"Japan","is_capital":false,"name_en":"Shiroishi","name_es":"Shiroishi","name_fr":"Shiroishi","name_it":"Shiroishi","name_ru":"Shiroishi","elevation":57.0,"timezone":"Asia/Tokyo","admin1_name":"Miyagi"},{"name":"Kameda-honchō","lat":37.87214,"lon":139.1099,"population":32765,"iso_a3":"JPN","country":"Japan","is_capital":false,"name_en":"Kameda-honchō","name_es":"Kameda-honchō","name_fr":"Kameda-honchō","name_it":"Kameda-honchō","name_ru":"Kameda-honchō","elevation":0.0,"timezone":"Asia/Tokyo","admin1_name":"Niigata"},{"name":"Nagai","lat":38.10361,"lon":140.035,"population":31026,"iso_a3":"JPN","country":"Japan","is_capital":false,"name_en":"Nagai","name_es":"Nagai","name_fr":"Nagai","name_it":"Nagai","name_ru":"Нагаи","elevation":204.0,"timezone":"Asia/Tokyo","admin1_name":"Yamagata"},{"name":"Nanyō","lat":38.04322,"lon":140.11276,"population":30420,"iso_a3":"JPN","country":"Japan","is_capital":false,"name_en":"Nanyō","name_es":"Nanyō","name_fr":"Nanyō","name_it":"Nanyō","name_ru":"Nanyō","elevation":212.0,"timezone":"Asia/Tokyo","admin1_name":"Yamagata"},{"name":"Myoko","lat":37.02534,"lon":138.25561,"population":30383,"iso_a3":"JPN","country":"Japan","is_capital":false,"name_en":"Myoko","name_es":"Myoko","name_fr":"Myoko","name_it":"Myoko","name_ru":"Myoko","elevation":79.0,"timezone":"Asia/Tokyo","admin1_name":"Niigata"},{"name":"Motomiya","lat":37.51391,"lon":140.40063,"population":30236,"iso_a3":"JPN","country":"Japan","is_capital":false,"name_en":"Motomiya","name_es":"Motomiya","name_fr":"Motomiya","name_it":"Motomiya","name_ru":"Мотомия","elevation":213.0,"timezone":"Asia/Tokyo","admin1_name":"Fukushima"}]