[{"name":"Akita","lat":39.71667,"lon":140.11667,"population":307672,"iso_a3":"JPN","country":"Japan","is_capital":false,"name_en":"Akita","name_es":"Akita","name_fr":"Akita","name_it":"Akita","name_ru":"Акита","elevation":14.0,"timezone":"Asia/Tokyo","admin1_name":"Akita"},{"name":"Hirosaki","lat":40.59306,"lon":140.4725,"population":168739,"iso_a3":"JPN","country":"Japan","is_capital":false,"name_en":"Hirosaki","name_es":"Hirosaki","name_fr":"Hirosaki","name_it":"Hirosaki","name_ru":"Хиросаки","elevation":45.0,"timezone":"Asia/Tokyo","admin1_name":"Aomori"},{"name":"Sakata","lat":38.91667,"lon":139.855,"population":100273,"iso_a3":"JPN","country":"Japan","is_capital":false,"name_en":"Sakata","name_es":"Sakata","name_fr":"Sakata","name_it":"Sakata","name_ru":"Саката","elevation":0.0,"timezone":"Asia/Tokyo","admin1_name":"Yamagata"},{"name":"Daisen","lat":39.44116,"lon":140.48961,"population":91143,"iso_a3":"JPN","country":"Japan","is_capital":false,"name_en":"Daisen","name_es":"Daisen","name_fr":"Daisen","name_it":"Daisen","name_ru":"Дайсен Япония","elevation":22.0,"timezone":"Asia/Tokyo","admin1_name":"Akita"},{"name":"Yokote","lat":39.31691,"lon":140.55034,"population":85555,"iso_a3":"JPN","country":"Japan","is_capital":false,"name_en":"Yokote","name_es":"Yokote","name_fr":"Yokote","name_it":"Yokote","name_ru":"Yokote","elevation":61.0,"timezone":"Asia/Tokyo","admin1_name":"Akita"},{"name":"Yurihonjō","lat":39.3895,"lon":140.05813,"population":76077,"iso_a3":"JPN","country":"Japan","is_capital":false,"name_en":"Yurihonjō","name_es":"Yurihonjō","name_fr":"Yurihonjō","name_it":"Yurihonjō","name_ru":"Юрихондзё","elevation":4.0,"timezone":"Asia/Tokyo","admin1_name":"Akita"},{"name":"Ōdate","lat":40.27178,"lon":140.55756,"population":69237,"iso_a3":"JPN","country":"Japan","is_capital":false,"name_en":"Ōdate","name_es":"Odate","name_fr":"Ōdate","name_it":"Ōdate","name_ru":"Одате","elevation":66.0,"timezone":"Asia/Tokyo","admin1_name":"Akita"},{"name":"Goshogawara","lat":40.80444,"lon":140.44139,"population":53576,"iso_a3":"JPN","country":"Japan","is_capital":false,"name_en":"Goshogawara","name_es":"Goshogawara","name_fr":"Goshogawara","name_it":"Goshogawara","name_ru":"Госёгавара","elevation":9.0,"timezone":"Asia/Tokyo","admin1_name":"Aomori"},{"name":"Noshiro","lat":40.20838,"lon":140.0274,"population":52283,"iso_a3":"JPN","country":"Japan","is_capital":false,"name_en":"Noshiro","name_es":"Noshiro","name_fr":"Noshiro","name_it":"Noshiro","name_ru":"Носиро","elevation":13.0,"timezone":"Asia/Tokyo","admin1_name":"Akita"},{"name":"Yuzawa","lat":39.16667,"lon":140.5,"population":44346,"iso_a3":"JPN","country":"Japan","is_capital":false,"name_en":"Yuzawa","name_es":"Yuzawa","name_fr":"Yuzawa","name_it":"Yuzawa","name_ru":"Юдзава","elevation":100.0,"timezone":"Asia/Tokyo","admin1_name":"Akita"},{"name":"Kuroishi","lat":40.64581,"lon":140.58354,"population":38615,"iso_a3":"JPN","country":"Japan","is_capital":false,"name_en":"Kuroishi","name_es":"Kuroishi","name_fr":"Kuroishi","name_it":"Kuroishi","name_ru":"Куроиси","elevation":45.0,"timezone":"Asia/Tokyo","admin1_name":"Aomori"},{"name":"Katagami","lat":39.87869,"lon":139.99767,"population":31720,"iso_a3":"JPN","country":"Japan","is_capital":false,"name_en":"Katagami","name_es":"Katagami","name_fr":"Katagami","name_it":"Katagami","name_ru":"Katagami","elevation":10.0,"timezone":"Asia/Tokyo","admin1_name":"Akita"},{"name":"Kita-Akita","lat":40.19956,"lon":140.39388,"population":31504,"iso_a3":"JPN","country":"Japan","is_capital":false,"name_en":"Kita-Akita","name_es":"Kita-Akita","name_fr":"Kita-Akita","name_it":"Kita-Akita","name_ru":"Kita-Akita","elevation":25.0,"timezone":"Asia/Tokyo","admin1_name":"Akita"},{"name":"Hirakawa","lat":40.58728,"lon":140.57107,"population":30938,"iso_a3":"JPN","country":"Japan","is_capital":false,"name_en":"Hirakawa","name_es":"Hirakawa","name_fr":"Hirakawa","name_it":"Hirakawa","name_ru":"Хиракава","elevation":46.0,"timezone":"Asia/Tokyo","admin1_name":"Aomori"}]