[{"name":"Iwaki","lat":37.05,"lon":140.88333,"population":357309,"iso_a3":"JPN","country":"Japan","is_capital":false,"name_en":"Iwaki","name_es":"Iwaki","name_fr":"Iwaki","name_it":"Iwaki","name_ru":"Иваки","elevation":9.0,"timezone":"Asia/Tokyo","admin1_name":"Fukushima"},{"name":"Hitachi","lat":36.6,"lon":140.65,"population":174508,"iso_a3":"JPN","country":"Japan","is_capital":false,"name_en":"Hitachi","name_es":"Hitachi","name_fr":"Hitachi","name_it":"Hitachi","name_ru":"Хитати","elevation":51.0,"timezone":"Asia/Tokyo","admin1_name":"Ibaraki"},{"name":"Ishinomaki","lat":38.41667,"lon":141.3,"population":140151,"iso_a3":"JPN","country":"Japan","is_capital":false,"name_en":"Ishinomaki","name_es":"Ishinomaki","name_fr":"Ishinomaki","name_it":"Ishinomaki","name_ru":"Исиномаки","elevation":2.0,"timezone":"Asia/Tokyo","admin1_name":"Miyagi"},{"name":"Ōsaki","lat":38.58866,"lon":140.973,"population":128763,"iso_a3":"JPN","country":"Japan","is_capital":false,"name_en":"Ōsaki","name_es":"Ōsaki","name_fr":"Ōsaki","name_it":"Ōsaki","name_ru":"Осаки","elevation":20.0,"timezone":"Asia/Tokyo","admin1_name":"Miyagi"},{"name":"Natori-shi","lat":38.16667,"lon":140.88333,"population":78718,"iso_a3":"JPN","country":"Japan","is_capital":false,"name_en":"Natori-shi","name_es":"Natori-shi","name_fr":"Natori-shi","name_it":"Natori-shi","name_ru":"Natori-shi","elevation":9.0,"timezone":"Asia/Tokyo","admin1_name":"Miyagi"},{"name":"Tome","lat":38.70882,"lon":141.15578,"population":77897,"iso_a3":"JPN","country":"Japan","is_capital":false,"name_en":"Tome","name_es":"Tome","name_fr":"Tome","name_it":"Tome","name_ru":"Tome","elevation":6.0,"timezone":"Asia/Tokyo","admin1_name":"Miyagi"},{"name":"Kurihara","lat":38.75,"lon":141.0,"population":66565,"iso_a3":"JPN","country":"Japan","is_capital":false,"name_en":"Kurihara","name_es":"Kurihara","name_fr":"Kurihara","name_it":"Kurihara","name_ru":"Kurihara","elevation":42.0,"timezone":"Asia/Tokyo","admin1_name":"Miyagi"},{"name":"Tagajō-shi","lat":38.3,"lon":141.0,"population":62827,"iso_a3":"JPN","country":"Japan","is_capital":false,"name_en":"Tagajō-shi","name_es":"Tagajō-shi","name_fr":"Tagajō-shi","name_it":"Tagajō-shi","name_ru":"Tagajō-shi","elevation":22.0,"timezone":"Asia/Tokyo","admin1_name":"Miyagi"},{"name":"Minami-Sōma","lat":37.62908,"lon":140.97868,"population":59005,"iso_a3":"JPN","country":"Japan","is_capital":false,"name_en":"Minami-Sōma","name_es":"Minami-Sōma","name_fr":"Minami-Sōma","name_it":"Minami-Sōma","name_ru":"Minami-Sōma","elevation":27.0,"timezone":"Asia/Tokyo","admin1_name":"Fukushima"},{"name":"Tomiya","lat":38.39306,"lon":140.88611,"population":52433,"iso_a3":"JPN","country":"Japan","is_capital":false,"name_en":"Tomiya","name_es":"Tomiya","name_fr":"Tomiya","name_it":"Tomiya","name_ru":"Tomiya","elevation":64.0,"timezone":"Asia/Tokyo","admin1_name":"Miyagi"},{"name":"Iwanuma","lat":38.10472,"lon":140.85944,"population":44068,"iso_a3":"JPN","country":"Japan","is_capital":false,"name_en":"Iwanuma","name_es":"Iwanuma","name_fr":"Iwanuma","name_it":"Iwanuma","name_ru":"Iwanuma","elevation":5.0,"timezone":"Asia/Tokyo","admin1_name":"Miyagi"},{"name":"Kitaibaraki","lat":36.78671,"lon":140.74901,"population":41801,"iso_a3":"JPN","country":"Japan","is_capital":false,"name_en":"Kitaibaraki","name_es":"Kitaibaraki","name_fr":"Kitaibaraki","name_it":"Kitaibaraki","name_ru":"Китаибараки","elevation":5.0,"timezone":"Asia/Tokyo","admin1_name":"Ibaraki"},{"name":"Higashimatsushima","lat":38.40886,"lon":141.17901,"population":39098,"iso_a3":"JPN","country":"Japan","is_capital":false,"name_en":"Higashimatsushima","name_es":"Higashimatsushima","name_fr":"Higashimatsushima","name_it":"Higashimatsushima","name_ru":"Higashimatsushima","elevation":42.0,"timezone":"Asia/Tokyo","admin1_name":"Miyagi"},{"name":"Murata","lat":38.11858,"lon":140.72434,"population":38271,"iso_a3":"JPN","country":"Japan","is_capital":false,"name_en":"Murata","name_es":"Murata","name_fr":"Murata","name_it":"Murata","name_ru":"Murata","elevation":28.0,"timezone":"Asia/Tokyo","admin1_name":"Miyagi"},{"name":"Sōma","lat":37.79283,"lon":140.92941,"population":34865,"iso_a3":"JPN","country":"Japan","is_capital":false,"name_en":"Sōma","name_es":"Sōma","name_fr":"Sōma","name_it":"Sōma","name_ru":"Sōma","elevation":9.0,"timezone":"Asia/Tokyo","admin1_name":"Fukushima"},{"name":"Watari","lat":38.035,"lon":140.85111,"population":33459,"iso_a3":"JPN","country":"Japan","is_capital":false,"name_en":"Watari","name_es":"Watari","name_fr":"Watari","name_it":"Watari","name_ru":"Ватари","elevation":10.0,"timezone":"Asia/Tokyo","admin1_name":"Miyagi"},{"name":"Kakuda","lat":37.97451,"lon":140.77202,"population":33221,"iso_a3":"JPN","country":"Japan","is_capital":false,"name_en":"Kakuda","name_es":"Kakuda","name_fr":"Kakuda","name_it":"Kakuda","name_ru":"Какудский","elevation":12.0,"timezone":"Asia/Tokyo","admin1_name":"Miyagi"}]