[{"name":"Hakodate","lat":41.77583,"lon":140.73667,"population":275730,"iso_a3":"JPN","country":"Japan","is_capital":false,"name_en":"Hakodate","name_es":"Hakodate","name_fr":"Hakodate","name_it":"Hakodate","name_ru":"Хакодате","elevation":5.0,"timezone":"Asia/Tokyo","admin1_name":"Hokkaido"},{"name":"Tomakomai","lat":42.63694,"lon":141.60333,"population":174806,"iso_a3":"JPN","country":"Japan","is_capital":false,"name_en":"Tomakomai","name_es":"Tomakomai","name_fr":"Tomakomai","name_it":"Tomakomai","name_ru":"Томакомай","elevation":7.0,"timezone":"Asia/Tokyo","admin1_name":"Hokkaido"},{"name":"Obihiro","lat":42.91722,"lon":143.20444,"population":166536,"iso_a3":"JPN","country":"Japan","is_capital":false,"name_en":"Obihiro","name_es":"Obihiro","name_fr":"Obihiro","name_it":"Obihiro","name_ru":"Обихиро","elevation":44.0,"timezone":"Asia/Tokyo","admin1_name":"Hokkaido"},{"name":"Chitose","lat":42.81944,"lon":141.65222,"population":97950,"iso_a3":"JPN","country":"Japan","is_capital":false,"name_en":"Chitose","name_es":"Chitose","name_fr":"Chitose","name_it":"Chitose","name_ru":"Титосе","elevation":15.0,"timezone":"Asia/Tokyo","admin1_name":"Hokkaido"},{"name":"Muroran","lat":42.31722,"lon":140.98806,"population":96197,"iso_a3":"JPN","country":"Japan","is_capital":false,"name_en":"Muroran","name_es":"Muroran","name_fr":"Muroran","name_it":"Muroran","name_ru":"Муроран","elevation":8.0,"timezone":"Asia/Tokyo","admin1_name":"Hokkaido"},{"name":"Eniwa","lat":42.89357,"lon":141.576,"population":70331,"iso_a3":"JPN","country":"Japan","is_capital":false,"name_en":"Eniwa","name_es":"Eniwa","name_fr":"Eniwa","name_it":"Eniwa","name_ru":"Eniwa","elevation":30.0,"timezone":"Asia/Tokyo","admin1_name":"Hokkaido"},{"name":"Kitahiroshima","lat":42.97583,"lon":141.56722,"population":58918,"iso_a3":"JPN","country":"Japan","is_capital":false,"name_en":"Kitahiroshima","name_es":"Kitahiroshima","name_fr":"Kitahiroshima","name_it":"Kitahiroshima","name_ru":"Хиросима","elevation":19.0,"timezone":"Asia/Tokyo","admin1_name":"Hokkaido"},{"name":"Mutsu","lat":41.28944,"lon":141.21694,"population":56244,"iso_a3":"JPN","country":"Japan","is_capital":false,"name_en":"Mutsu","name_es":"Mutsu","name_fr":"Mutsu","name_it":"Mutsu","name_ru":"Муцу","elevation":6.0,"timezone":"Asia/Tokyo","admin1_name":"Aomori"},{"name":"Noboribetsu","lat":42.45215,"lon":141.17914,"population":46391,"iso_a3":"JPN","country":"Japan","is_capital":false,"name_en":"Noboribetsu","name_es":"Noboribetsu","name_fr":"Noboribetsu","name_it":"Noboribetsu","name_ru":"Ноборибецу","elevation":10.0,"timezone":"Asia/Tokyo","admin1_name":"Hokkaido"},{"name":"Hokuto","lat":41.81626,"lon":140.63472,"population":46083,"iso_a3":"JPN","country":"Japan","is_capital":false,"name_en":"Hokuto","name_es":"Hokuto","name_fr":"Hokuto","name_it":"Hokuto","name_ru":"Хокуто","elevation":11.0,"timezone":"Asia/Tokyo","admin1_name":"Hokkaido"},{"name":"Otofuke","lat":42.99167,"lon":143.20028,"population":44235,"iso_a3":"JPN","country":"Japan","is_capital":false,"name_en":"Otofuke","name_es":"Otofuke","name_fr":"Otofuke","name_it":"Otofuke","name_ru":"Otofuke","elevation":64.0,"timezone":"Asia/Tokyo","admin1_name":"Hokkaido"},{"name":"Date","lat":42.46806,"lon":140.86806,"population":34898,"iso_a3":"JPN","country":"Japan","is_capital":false,"name_en":"Date","name_es":"Date","name_fr":"Date","name_it":"Date","name_ru":"Date","elevation":6.0,"timezone":"Asia/Tokyo","admin1_name":"Hokkaido"}]