[{"name":"Asahikawa","lat":43.77063,"lon":142.36489,"population":333530,"iso_a3":"JPN","country":"Japan","is_capital":false,"name_en":"Asahikawa","name_es":"Asahikawa","name_fr":"Asahikawa","name_it":"Asahikawa","name_ru":"Асахикава","elevation":121.0,"timezone":"Asia/Tokyo","admin1_name":"Hokkaido"},{"name":"Ebetsu","lat":43.10806,"lon":141.55056,"population":133953,"iso_a3":"JPN","country":"Japan","is_capital":false,"name_en":"Ebetsu","name_es":"Ebetsu","name_fr":"Ebetsu","name_it":"Ebetsu","name_ru":"Эбецу","elevation":12.0,"timezone":"Asia/Tokyo","admin1_name":"Hokkaido"},{"name":"Otaru","lat":43.18944,"lon":141.00222,"population":115333,"iso_a3":"JPN","country":"Japan","is_capital":false,"name_en":"Otaru","name_es":"Otaru","name_fr":"Otaru","name_it":"Otaru","name_ru":"Отару","elevation":30.0,"timezone":"Asia/Tokyo","admin1_name":"Hokkaido"},{"name":"Iwamizawa","lat":43.20028,"lon":141.75972,"population":85107,"iso_a3":"JPN","country":"Japan","is_capital":false,"name_en":"Iwamizawa","name_es":"Iwamizawa","name_fr":"Iwamizawa","name_it":"Iwamizawa","name_ru":"Ивамидзава","elevation":17.0,"timezone":"Asia/Tokyo","admin1_name":"Hokkaido"},{"name":"Ishikari","lat":43.23972,"lon":141.35389,"population":58755,"iso_a3":"JPN","country":"Japan","is_capital":false,"name_en":"Ishikari","name_es":"Ishikari","name_fr":"Ishikari","name_it":"Ishikari","name_ru":"Исикари","elevation":0.0,"timezone":"Asia/Tokyo","admin1_name":"Hokkaido"},{"name":"Takikawa","lat":43.55278,"lon":141.90639,"population":45131,"iso_a3":"JPN","country":"Japan","is_capital":false,"name_en":"Takikawa","name_es":"Takikawa","name_fr":"Takikawa","name_it":"Takikawa","name_ru":"Takikawa","elevation":31.0,"timezone":"Asia/Tokyo","admin1_name":"Hokkaido"}]