[{"name":"Victoria","lat":48.4359,"lon":-123.35155,"population":289625,"iso_a3":"CAN","country":"Canada","is_capital":false,"name_en":"Victoria","name_es":"Victoria","name_fr":"Victoria","name_it":"Victoria","name_ru":"Виктория","elevation":18.0,"timezone":"America/Vancouver","admin1_name":"British Columbia"},{"name":"Saanich","lat":48.54964,"lon":-123.36931,"population":117735,"iso_a3":"CAN","country":"Canada","is_capital":false,"name_en":"Saanich","name_es":"Saanich","name_fr":"Saanich","name_it":"Saanich","name_ru":"Санич","elevation":19.0,"timezone":"America/Vancouver","admin1_name":"British Columbia"},{"name":"Langford","lat":48.44963,"lon":-123.50261,"population":46584,"iso_a3":"CAN","country":"Canada","is_capital":false,"name_en":"Langford","name_es":"Langford","name_fr":"Langford","name_it":"Langford","name_ru":"Langford","elevation":80.0,"timezone":"America/Vancouver","admin1_name":"British Columbia"},{"name":"Tacoma","lat":47.25288,"lon":-122.44429,"population":222906,"iso_a3":"USA","country":"United States","is_capital":false,"name_en":"Tacoma","name_es":"Tacoma","name_fr":"Tacoma","name_it":"Tacoma","name_ru":"Такома","elevation":74.0,"timezone":"America/Los_Angeles","admin1_name":"Washington"},{"name":"Bellevue","lat":47.61038,"lon":-122.20068,"population":139820,"iso_a3":"USA","country":"United States","is_capital":false,"name_en":"Bellevue","name_es":"Bellevue","name_fr":"Bellevue","name_it":"Bellevue","name_ru":"Белвью","elevation":28.0,"timezone":"America/Los_Angeles","admin1_name":"Washington"},{"name":"Kent","lat":47.38093,"lon":-122.23484,"population":126952,"iso_a3":"USA","country":"United States","is_capital":false,"name_en":"Kent","name_es":"Kent","name_fr":"Kent","name_it":"Kent","name_ru":"Кент","elevation":14.0,"timezone":"America/Los_Angeles","admin1_name":"Washington"},{"name":"Everett","lat":47.97898,"lon":-122.20208,"population":108010,"iso_a3":"USA","country":"United States","is_capital":false,"name_en":"Everett","name_es":"Everett","name_fr":"Everett","name_it":"Everett","name_ru":"Эверетт","elevation":22.0,"timezone":"America/Los_Angeles","admin1_name":"Washington"},{"name":"Renton","lat":47.48288,"lon":-122.21707,"population":100242,"iso_a3":"USA","country":"United States","is_capital":false,"name_en":"Renton","name_es":"Renton","name_fr":"Renton","name_it":"Renton","name_ru":"Рентон","elevation":13.0,"timezone":"America/Los_Angeles","admin1_name":"Washington"},{"name":"Federal Way","lat":47.32232,"lon":-122.31262,"population":95171,"iso_a3":"USA","country":"United States","is_capital":false,"name_en":"Federal Way","name_es":"Federal Way","name_fr":"Federal Way","name_it":"Federal Way","name_ru":"Federal Way","elevation":142.0,"timezone":"America/Los_Angeles","admin1_name":"Washington"},{"name":"Kirkland","lat":47.68149,"lon":-122.20874,"population":87281,"iso_a3":"USA","country":"United States","is_capital":false,"name_en":"Kirkland","name_es":"Kirkland","name_fr":"Kirkland","name_it":"Kirkland","name_ru":"Kirkland","elevation":52.0,"timezone":"America/Los_Angeles","admin1_name":"Washington"},{"name":"Bellingham","lat":48.75955,"lon":-122.48822,"population":85146,"iso_a3":"USA","country":"United States","is_capital":false,"name_en":"Bellingham","name_es":"Bellingham","name_fr":"Bellingham","name_it":"Bellingham","name_ru":"Беллингхем","elevation":21.0,"timezone":"America/Los_Angeles","admin1_name":"Washington"},{"name":"Auburn","lat":47.30732,"lon":-122.22845,"population":77006,"iso_a3":"USA","country":"United States","is_capital":false,"name_en":"Auburn","name_es":"Auburn","name_fr":"Auburn","name_it":"Auburn","name_ru":"Auburn","elevation":25.0,"timezone":"America/Los_Angeles","admin1_name":"Washington"},{"name":"Marysville","lat":48.05176,"lon":-122.17708,"population":66773,"iso_a3":"USA","country":"United States","is_capital":false,"name_en":"Marysville","name_es":"Marysville","name_fr":"Marysville","name_it":"Marysville","name_ru":"Marysville","elevation":6.0,"timezone":"America/Los_Angeles","admin1_name":"Washington"},{"name":"Redmond","lat":47.67399,"lon":-122.12151,"population":60598,"iso_a3":"USA","country":"United States","is_capital":false,"name_en":"Redmond","name_es":"Redmond","name_fr":"Redmond","name_it":"Redmond","name_ru":"Редмонд","elevation":15.0,"timezone":"America/Los_Angeles","admin1_name":"Washington"},{"name":"Lakewood","lat":47.17176,"lon":-122.51846,"population":59829,"iso_a3":"USA","country":"United States","is_capital":false,"name_en":"Lakewood","name_es":"Lakewood","name_fr":"Lakewood","name_it":"Lakewood","name_ru":"Лейквуд","elevation":78.0,"timezone":"America/Los_Angeles","admin1_name":"Washington"},{"name":"Olympia","lat":47.04491,"lon":-122.90169,"population":55733,"iso_a3":"USA","country":"United States","is_capital":false,"name_en":"Olympia","name_es":"Olympia","name_fr":"Olympia","name_it":"Olympia","name_ru":"Олимпия","elevation":8.0,"timezone":"America/Los_Angeles","admin1_name":"Washington"},{"name":"Shoreline","lat":47.75565,"lon":-122.34152,"population":55439,"iso_a3":"USA","country":"United States","is_capital":false,"name_en":"Shoreline","name_es":"Shoreline","name_fr":"Shoreline","name_it":"Shoreline","name_ru":"Шорлайн","elevation":146.0,"timezone":"America/Los_Angeles","admin1_name":"Washington"},{"name":"South Hill","lat":47.14121,"lon":-122.27012,"population":52431,"iso_a3":"USA","country":"United States","is_capital":false,"name_en":"South Hill","name_es":"South Hill","name_fr":"South Hill","name_it":"South Hill","name_ru":"South Hill","elevation":165.0,"timezone":"America/Los_Angeles","admin1_name":"Washington"},{"name":"Burien","lat":47.47038,"lon":-122.34679,"population":50467,"iso_a3":"USA","country":"United States","is_capital":false,"name_en":"Burien","name_es":"Burien","name_fr":"Burien","name_it":"Burien","name_ru":"Burien","elevation":114.0,"timezone":"America/Los_Angeles","admin1_name":"Washington"},{"name":"City of Sammamish","lat":47.60444,"lon":-122.03768,"population":45780,"iso_a3":"USA","country":"United States","is_capital":false,"name_en":"City of Sammamish","name_es":"City of Sammamish","name_fr":"City of Sammamish","name_it":"City of Sammamish","name_ru":"City of Sammamish","elevation":144.0,"timezone":"America/Los_Angeles","admin1_name":"Washington"},{"name":"Bothell","lat":47.76232,"lon":-122.2054,"population":42939,"iso_a3":"USA","country":"United States","is_capital":false,"name_en":"Bothell","name_es":"Bothell","name_fr":"Bothell","name_it":"Bothell","name_ru":"Bothell","elevation":24.0,"timezone":"America/Los_Angeles","admin1_name":"Washington"},{"name":"Edmonds","lat":47.81065,"lon":-122.37736,"population":41375,"iso_a3":"USA","country":"United States","is_capital":false,"name_en":"Edmonds","name_es":"Edmonds","name_fr":"Edmonds","name_it":"Edmonds","name_ru":"Эдмондс","elevation":19.0,"timezone":"America/Los_Angeles","admin1_name":"Washington"},{"name":"Puyallup","lat":47.18538,"lon":-122.2929,"population":39659,"iso_a3":"USA","country":"United States","is_capital":false,"name_en":"Puyallup","name_es":"Puyallup","name_fr":"Puyallup","name_it":"Puyallup","name_ru":"Пуйаллап","elevation":11.0,"timezone":"America/Los_Angeles","admin1_name":"Washington"},{"name":"Bremerton","lat":47.56732,"lon":-122.63264,"population":39520,"iso_a3":"USA","country":"United States","is_capital":false,"name_en":"Bremerton","name_es":"Bremerton","name_fr":"Bremerton","name_it":"Bremerton","name_ru":"Бремертон","elevation":9.0,"timezone":"America/Los_Angeles","admin1_name":"Washington"},{"name":"Issaquah","lat":47.5301,"lon":-122.03262,"population":36081,"iso_a3":"USA","country":"United States","is_capital":false,"name_en":"Issaquah","name_es":"Issaquah","name_fr":"Issaquah","name_it":"Issaquah","name_ru":"Issaquah","elevation":33.0,"timezone":"America/Los_Angeles","admin1_name":"Washington"},{"name":"Parkland","lat":47.15538,"lon":-122.43401,"population":35803,"iso_a3":"USA","country":"United States","is_capital":false,"name_en":"Parkland","name_es":"Parkland","name_fr":"Parkland","name_it":"Parkland","name_ru":"Parkland","elevation":114.0,"timezone":"America/Los_Angeles","admin1_name":"Washington"},{"name":"Mount Vernon","lat":48.42122,"lon":-122.33405,"population":34053,"iso_a3":"USA","country":"United States","is_capital":false,"name_en":"Mount Vernon","name_es":"Mount Vernon","name_fr":"Mount Vernon","name_it":"Mount Vernon","name_ru":"Маунт-Вернон","elevation":27.0,"timezone":"America/Los_Angeles","admin1_name":"Washington"},{"name":"West Lake Sammamish","lat":47.5776,"lon":-122.10123,"population":33929,"iso_a3":"USA","country":"United States","is_capital":false,"name_en":"West Lake Sammamish","name_es":"West Lake Sammamish","name_fr":"West Lake Sammamish","name_it":"West Lake Sammamish","name_ru":"West Lake Sammamish","elevation":5.0,"timezone":"America/Los_Angeles","admin1_name":"Washington"},{"name":"University Place","lat":47.23565,"lon":-122.5504,"population":32842,"iso_a3":"USA","country":"United States","is_capital":false,"name_en":"University Place","name_es":"University Place","name_fr":"University Place","name_it":"University Place","name_ru":"University Place","elevation":59.0,"timezone":"America/Los_Angeles","admin1_name":"Washington"},{"name":"Des Moines","lat":47.40177,"lon":-122.32429,"population":31221,"iso_a3":"USA","country":"United States","is_capital":false,"name_en":"DesMoines","name_es":"Des Moines","name_fr":"Des Moines","name_it":"Des Moines","name_ru":"Де-Мойн","elevation":27.0,"timezone":"America/Los_Angeles","admin1_name":"Washington"},{"name":"Lake Stevens","lat":48.0151,"lon":-122.06374,"population":30886,"iso_a3":"USA","country":"United States","is_capital":false,"name_en":"Lake Stevens","name_es":"Lake Stevens","name_fr":"Lake Stevens","name_it":"Lake Stevens","name_ru":"Lake Stevens","elevation":67.0,"timezone":"America/Los_Angeles","admin1_name":"Washington"}]