[{"name":"Oakland","lat":37.80437,"lon":-122.2708,"population":419267,"iso_a3":"USA","country":"United States","is_capital":false,"name_en":"Oakland","name_es":"Oakland","name_fr":"Oakland","name_it":"Oakland","name_ru":"Окленд","elevation":24.0,"timezone":"America/Los_Angeles","admin1_name":"California"},{"name":"Stockton","lat":37.9577,"lon":-121.29078,"population":305658,"iso_a3":"USA","country":"United States","is_capital":false,"name_en":"Stockton","name_es":"Stockton","name_fr":"Stockton","name_it":"Stockton","name_ru":"Стоктон","elevation":6.0,"timezone":"America/Los_Angeles","admin1_name":"California"},{"name":"Fremont","lat":37.54827,"lon":-121.98857,"population":232206,"iso_a3":"USA","country":"United States","is_capital":false,"name_en":"Fremont","name_es":"Fremont","name_fr":"Fremont","name_it":"Fremont","name_ru":"Фримонт","elevation":18.0,"timezone":"America/Los_Angeles","admin1_name":"California"},{"name":"Modesto","lat":37.6391,"lon":-120.99688,"population":211266,"iso_a3":"USA","country":"United States","is_capital":false,"name_en":"Modesto","name_es":"Modesto","name_fr":"Modesto","name_it":"Modesto","name_ru":"Модесто","elevation":29.0,"timezone":"America/Los_Angeles","admin1_name":"California"},{"name":"Santa Rosa","lat":38.44047,"lon":-122.71443,"population":178127,"iso_a3":"USA","country":"United States","is_capital":false,"name_en":"Santa Rosa","name_es":"Santa Rosa","name_fr":"Santa Rosa","name_it":"Santa Rosa","name_ru":"Санта-Роза","elevation":55.0,"timezone":"America/Los_Angeles","admin1_name":"California"},{"name":"Elk Grove","lat":38.4088,"lon":-121.37162,"population":166913,"iso_a3":"USA","country":"United States","is_capital":false,"name_en":"Elk Grove","name_es":"Elk Grove","name_fr":"Elk Grove","name_it":"Elk Grove","name_ru":"Элк-Гров","elevation":17.0,"timezone":"America/Los_Angeles","admin1_name":"California"},{"name":"Hayward","lat":37.66882,"lon":-122.0808,"population":158289,"iso_a3":"USA","country":"United States","is_capital":false,"name_en":"Hayward","name_es":"Hayward","name_fr":"Hayward","name_it":"Hayward","name_ru":"Хейвард","elevation":32.0,"timezone":"America/Los_Angeles","admin1_name":"California"},{"name":"Salinas","lat":36.67774,"lon":-121.6555,"population":157380,"iso_a3":"USA","country":"United States","is_capital":false,"name_en":"Salinas","name_es":"Salinas","name_fr":"Salinas","name_it":"Salinas","name_ru":"Салинас","elevation":17.0,"timezone":"America/Los_Angeles","admin1_name":"California"},{"name":"Sunnyvale","lat":37.36883,"lon":-122.03635,"population":155805,"iso_a3":"USA","country":"United States","is_capital":false,"name_en":"Sunnyvale","name_es":"Sunnyvale","name_fr":"Sunnyvale","name_it":"Sunnyvale","name_ru":"Саннивейл","elevation":37.0,"timezone":"America/Los_Angeles","admin1_name":"California"},{"name":"Roseville","lat":38.75212,"lon":-121.28801,"population":130269,"iso_a3":"USA","country":"United States","is_capital":false,"name_en":"Roseville","name_es":"Roseville","name_fr":"Roseville","name_it":"Roseville","name_ru":"Розвелл","elevation":51.0,"timezone":"America/Los_Angeles","admin1_name":"California"},{"name":"Concord","lat":37.97798,"lon":-122.03107,"population":128667,"iso_a3":"USA","country":"United States","is_capital":false,"name_en":"Concord","name_es":"Concord","name_fr":"Concord","name_it":"Concord","name_ru":"Конкорд","elevation":25.0,"timezone":"America/Los_Angeles","admin1_name":"California"},{"name":"Santa Clara","lat":37.35411,"lon":-121.95524,"population":126215,"iso_a3":"USA","country":"United States","is_capital":false,"name_en":"Santa Clara","name_es":"Santa Clara","name_fr":"Santa Clara","name_it":"Santa Clara","name_ru":"Санта-Клара","elevation":22.0,"timezone":"America/Los_Angeles","admin1_name":"California"},{"name":"Vallejo","lat":38.10409,"lon":-122.25664,"population":121692,"iso_a3":"USA","country":"United States","is_capital":false,"name_en":"Vallejo","name_es":"Vallejo","name_fr":"Vallejo","name_it":"Vallejo","name_ru":"Вальехо","elevation":22.0,"timezone":"America/Los_Angeles","admin1_name":"California"},{"name":"Berkeley","lat":37.87159,"lon":-122.27275,"population":120972,"iso_a3":"USA","country":"United States","is_capital":false,"name_en":"Berkeley","name_es":"Berkeley","name_fr":"Berkeley","name_it":"Berkeley","name_ru":"Беркли","elevation":55.0,"timezone":"America/Los_Angeles","admin1_name":"California"},{"name":"Fairfield","lat":38.24936,"lon":-122.03997,"population":112970,"iso_a3":"USA","country":"United States","is_capital":false,"name_en":"Fairfield","name_es":"Fairfield","name_fr":"Fairfield","name_it":"Fairfield","name_ru":"Фэрфилд","elevation":4.0,"timezone":"America/Los_Angeles","admin1_name":"California"},{"name":"Antioch","lat":38.00492,"lon":-121.80579,"population":110542,"iso_a3":"USA","country":"United States","is_capital":false,"name_en":"Antioch","name_es":"Antioch","name_fr":"Antioch","name_it":"Antioch","name_ru":"Антиок","elevation":13.0,"timezone":"America/Los_Angeles","admin1_name":"California"},{"name":"Richmond","lat":37.93576,"lon":-122.34775,"population":109708,"iso_a3":"USA","country":"United States","is_capital":false,"name_en":"Richmond","name_es":"Richmond","name_fr":"Richmond","name_it":"Richmond","name_ru":"Ричмонд","elevation":12.0,"timezone":"America/Los_Angeles","admin1_name":"California"},{"name":"Daly City","lat":37.70577,"lon":-122.46192,"population":106562,"iso_a3":"USA","country":"United States","is_capital":false,"name_en":"Daly City","name_es":"Daly City","name_fr":"Daly City","name_it":"Daly City","name_ru":"Дейли-Сити","elevation":123.0,"timezone":"America/Los_Angeles","admin1_name":"California"},{"name":"San Mateo","lat":37.56299,"lon":-122.32553,"population":103536,"iso_a3":"USA","country":"United States","is_capital":false,"name_en":"San Mateo","name_es":"San Mateo","name_fr":"San Mateo","name_it":"San Mateo","name_ru":"Сан-Матео","elevation":13.0,"timezone":"America/Los_Angeles","admin1_name":"California"},{"name":"Vacaville","lat":38.35658,"lon":-121.98774,"population":96803,"iso_a3":"USA","country":"United States","is_capital":false,"name_en":"Vacaville","name_es":"Vacaville","name_fr":"Vacaville","name_it":"Vacaville","name_ru":"Vacaville","elevation":55.0,"timezone":"America/Los_Angeles","admin1_name":"California"},{"name":"Arden-Arcade","lat":38.6025,"lon":-121.37854,"population":92186,"iso_a3":"USA","country":"United States","is_capital":false,"name_en":"Arden-Arcade","name_es":"Arden-Arcade","name_fr":"Arden-Arcade","name_it":"Arden-Arcade","name_ru":"Arden-Arcade","elevation":23.0,"timezone":"America/Los_Angeles","admin1_name":"California"},{"name":"San Leandro","lat":37.72493,"lon":-122.15608,"population":90712,"iso_a3":"USA","country":"United States","is_capital":false,"name_en":"San Leandro","name_es":"San Leandro","name_fr":"San Leandro","name_it":"San Leandro","name_ru":"Сан Леандро","elevation":19.0,"timezone":"America/Los_Angeles","admin1_name":"California"},{"name":"Livermore","lat":37.68187,"lon":-121.76801,"population":88126,"iso_a3":"USA","country":"United States","is_capital":false,"name_en":"Livermore","name_es":"Livermore","name_fr":"Livermore","name_it":"Livermore","name_ru":"Ливермор","elevation":150.0,"timezone":"America/Los_Angeles","admin1_name":"California"},{"name":"Tracy","lat":37.73987,"lon":-121.42618,"population":87075,"iso_a3":"USA","country":"United States","is_capital":false,"name_en":"Tracy","name_es":"Tracy","name_fr":"Tracy","name_it":"Tracy","name_ru":"Трейси","elevation":17.0,"timezone":"America/Los_Angeles","admin1_name":"California"},{"name":"Citrus Heights","lat":38.70712,"lon":-121.28106,"population":87056,"iso_a3":"USA","country":"United States","is_capital":false,"name_en":"Citrus Heights","name_es":"Citrus Heights","name_fr":"Citrus Heights","name_it":"Citrus Heights","name_ru":"Citrus Heights","elevation":52.0,"timezone":"America/Los_Angeles","admin1_name":"California"},{"name":"Redwood City","lat":37.48522,"lon":-122.23635,"population":85288,"iso_a3":"USA","country":"United States","is_capital":false,"name_en":"Redwood City","name_es":"Redwood City","name_fr":"Redwood City","name_it":"Redwood City","name_ru":"Редвуд Сити","elevation":8.0,"timezone":"America/Los_Angeles","admin1_name":"California"},{"name":"Napa","lat":38.29714,"lon":-122.28553,"population":80434,"iso_a3":"USA","country":"United States","is_capital":false,"name_en":"Napa","name_es":"Napa","name_fr":"Napa","name_it":"Napa","name_ru":"Напа","elevation":9.0,"timezone":"America/Los_Angeles","admin1_name":"California"},{"name":"Pleasanton","lat":37.66243,"lon":-121.87468,"population":79510,"iso_a3":"USA","country":"United States","is_capital":false,"name_en":"Pleasanton","name_es":"Pleasanton","name_fr":"Pleasanton","name_it":"Pleasanton","name_ru":"Плезантон","elevation":107.0,"timezone":"America/Los_Angeles","admin1_name":"California"},{"name":"Milpitas","lat":37.42827,"lon":-121.90662,"population":77604,"iso_a3":"USA","country":"United States","is_capital":false,"name_en":"Milpitas","name_es":"Milpitas","name_fr":"Milpitas","name_it":"Milpitas","name_ru":"Milpitas","elevation":5.0,"timezone":"America/Los_Angeles","admin1_name":"California"},{"name":"Folsom","lat":38.67796,"lon":-121.17606,"population":76375,"iso_a3":"USA","country":"United States","is_capital":false,"name_en":"Folsom","name_es":"Folsom","name_fr":"Folsom","name_it":"Folsom","name_ru":"Folsom","elevation":66.0,"timezone":"America/Los_Angeles","admin1_name":"California"},{"name":"San Ramon","lat":37.77993,"lon":-121.97802,"population":76134,"iso_a3":"USA","country":"United States","is_capital":false,"name_en":"San Ramon","name_es":"San Ramón","name_fr":"San Ramon","name_it":"San Ramon","name_ru":"Сан-Рамон","elevation":146.0,"timezone":"America/Los_Angeles","admin1_name":"California"},{"name":"Manteca","lat":37.79743,"lon":-121.21605,"population":75448,"iso_a3":"USA","country":"United States","is_capital":false,"name_en":"Manteca","name_es":"Manteca","name_fr":"Manteca","name_it":"Manteca","name_ru":"Мантика","elevation":14.0,"timezone":"America/Los_Angeles","admin1_name":"California"},{"name":"Union City","lat":37.59577,"lon":-122.01913,"population":74494,"iso_a3":"USA","country":"United States","is_capital":false,"name_en":"Union City","name_es":"Union City","name_fr":"Union City","name_it":"Union City","name_ru":"Union City","elevation":19.0,"timezone":"America/Los_Angeles","admin1_name":"California"},{"name":"Rancho Cordova","lat":38.58907,"lon":-121.30273,"population":71017,"iso_a3":"USA","country":"United States","is_capital":false,"name_en":"Rancho Cordova","name_es":"Rancho Cordova","name_fr":"Rancho Cordova","name_it":"Rancho Cordova","name_ru":"Rancho Cordova","elevation":28.0,"timezone":"America/Los_Angeles","admin1_name":"California"},{"name":"Pittsburg","lat":38.02798,"lon":-121.88468,"population":69424,"iso_a3":"USA","country":"United States","is_capital":false,"name_en":"Pittsburg","name_es":"Pittsburg","name_fr":"Pittsburg","name_it":"Pittsburg","name_ru":"Питтсбург","elevation":8.0,"timezone":"America/Los_Angeles","admin1_name":"California"},{"name":"Walnut Creek","lat":37.90631,"lon":-122.06496,"population":68910,"iso_a3":"USA","country":"United States","is_capital":false,"name_en":"Walnut Creek","name_es":"Walnut Creek","name_fr":"Walnut Creek","name_it":"Walnut Creek","name_ru":"Уолнат-Крик","elevation":54.0,"timezone":"America/Los_Angeles","admin1_name":"California"},{"name":"Davis","lat":38.54491,"lon":-121.74052,"population":67666,"iso_a3":"USA","country":"United States","is_capital":false,"name_en":"Davis","name_es":"Davis","name_fr":"Davis","name_it":"Davis","name_ru":"Дейвис","elevation":17.0,"timezone":"America/Los_Angeles","admin1_name":"California"},{"name":"South San Francisco","lat":37.65466,"lon":-122.40775,"population":67271,"iso_a3":"USA","country":"United States","is_capital":false,"name_en":"South San Francisco","name_es":"South San Francisco","name_fr":"South San Francisco","name_it":"South San Francisco","name_ru":"South San Francisco","elevation":5.0,"timezone":"America/Los_Angeles","admin1_name":"California"},{"name":"Palo Alto","lat":37.44188,"lon":-122.14302,"population":66853,"iso_a3":"USA","country":"United States","is_capital":false,"name_en":"Palo Alto","name_es":"Palo Alto","name_fr":"Palo Alto","name_it":"Palo Alto","name_ru":"Пало Альто","elevation":10.0,"timezone":"America/Los_Angeles","admin1_name":"California"},{"name":"Lodi","lat":38.1302,"lon":-121.27245,"population":64596,"iso_a3":"USA","country":"United States","is_capital":false,"name_en":"Lodi","name_es":"Lodi","name_fr":"Lodi","name_it":"Lodi","name_ru":"Лоди","elevation":15.0,"timezone":"America/Los_Angeles","admin1_name":"California"},{"name":"Santa Cruz","lat":36.97412,"lon":-122.0308,"population":64220,"iso_a3":"USA","country":"United States","is_capital":false,"name_en":"Santa Cruz","name_es":"Santa Cruz","name_fr":"Santa Cruz","name_it":"Santa Cruz","name_ru":"Санта-Крус","elevation":8.0,"timezone":"America/Los_Angeles","admin1_name":"California"},{"name":"Rocklin","lat":38.79073,"lon":-121.23578,"population":61213,"iso_a3":"USA","country":"United States","is_capital":false,"name_en":"Rocklin","name_es":"Rocklin","name_fr":"Rocklin","name_it":"Rocklin","name_ru":"Роклин","elevation":76.0,"timezone":"America/Los_Angeles","admin1_name":"California"},{"name":"Cupertino","lat":37.323,"lon":-122.03218,"population":60572,"iso_a3":"USA","country":"United States","is_capital":false,"name_en":"Cupertino","name_es":"Cupertino","name_fr":"Cupertino","name_it":"Cupertino","name_ru":"Купертино","elevation":72.0,"timezone":"America/Los_Angeles","admin1_name":"California"},{"name":"Petaluma","lat":38.23242,"lon":-122.63665,"population":60438,"iso_a3":"USA","country":"United States","is_capital":false,"name_en":"Petaluma","name_es":"Petaluma","name_fr":"Petaluma","name_it":"Petaluma","name_ru":"Петалума","elevation":4.0,"timezone":"America/Los_Angeles","admin1_name":"California"},{"name":"San Rafael","lat":37.97353,"lon":-122.53109,"population":59162,"iso_a3":"USA","country":"United States","is_capital":false,"name_en":"San Rafael","name_es":"San Rafael","name_fr":"San Rafael","name_it":"San Rafael","name_ru":"Сан-Рафел","elevation":13.0,"timezone":"America/Los_Angeles","admin1_name":"California"},{"name":"Brentwood","lat":37.93187,"lon":-121.69579,"population":58968,"iso_a3":"USA","country":"United States","is_capital":false,"name_en":"Brentwood","name_es":"Brentwood","name_fr":"Brentwood","name_it":"Brentwood","name_ru":"Брентвуд","elevation":23.0,"timezone":"America/Los_Angeles","admin1_name":"California"},{"name":"Woodland","lat":38.67852,"lon":-121.7733,"population":58567,"iso_a3":"USA","country":"United States","is_capital":false,"name_en":"Woodland","name_es":"Woodland","name_fr":"Woodland","name_it":"Woodland","name_ru":"Woodland","elevation":21.0,"timezone":"America/Los_Angeles","admin1_name":"California"},{"name":"Dublin","lat":37.70215,"lon":-121.93579,"population":57721,"iso_a3":"USA","country":"United States","is_capital":false,"name_en":"Dublin","name_es":"Dublin","name_fr":"Dublin","name_it":"Dublin","name_ru":"Дублин","elevation":108.0,"timezone":"America/Los_Angeles","admin1_name":"California"},{"name":"Novato","lat":38.10742,"lon":-122.5697,"population":55530,"iso_a3":"USA","country":"United States","is_capital":false,"name_en":"Novato","name_es":"Novato","name_fr":"Novato","name_it":"Novato","name_ru":"Новато","elevation":6.0,"timezone":"America/Los_Angeles","admin1_name":"California"},{"name":"Watsonville","lat":36.91023,"lon":-121.75689,"population":53628,"iso_a3":"USA","country":"United States","is_capital":false,"name_en":"Watsonville","name_es":"Watsonville","name_fr":"Watsonville","name_it":"Watsonville","name_ru":"Watsonville","elevation":10.0,"timezone":"America/Los_Angeles","admin1_name":"California"},{"name":"Gilroy","lat":37.00578,"lon":-121.56828,"population":53231,"iso_a3":"USA","country":"United States","is_capital":false,"name_en":"Gilroy","name_es":"Gilroy","name_fr":"Gilroy","name_it":"Gilroy","name_ru":"Gilroy","elevation":60.0,"timezone":"America/Los_Angeles","admin1_name":"California"},{"name":"Ceres","lat":37.59493,"lon":-120.95771,"population":47963,"iso_a3":"USA","country":"United States","is_capital":false,"name_en":"Ceres","name_es":"Ceres","name_fr":"Ceres","name_it":"Ceres","name_ru":"Церера","elevation":28.0,"timezone":"America/Los_Angeles","admin1_name":"California"},{"name":"Florin","lat":38.49602,"lon":-121.40884,"population":47513,"iso_a3":"USA","country":"United States","is_capital":false,"name_en":"Florin","name_es":"Florín","name_fr":"Florin","name_it":"Florin","name_ru":"Флорин","elevation":10.0,"timezone":"America/Los_Angeles","admin1_name":"California"},{"name":"Newark","lat":37.52966,"lon":-122.04024,"population":45336,"iso_a3":"USA","country":"United States","is_capital":false,"name_en":"Newark","name_es":"Newark","name_fr":"Newark","name_it":"Newark","name_ru":"Ньюарк","elevation":5.0,"timezone":"America/Los_Angeles","admin1_name":"California"},{"name":"Danville","lat":37.82159,"lon":-121.99996,"population":44400,"iso_a3":"USA","country":"United States","is_capital":false,"name_en":"Danville","name_es":"Danville","name_fr":"Danville","name_it":"Danville","name_ru":"Дэнвилл","elevation":111.0,"timezone":"America/Los_Angeles","admin1_name":"California"},{"name":"Morgan Hill","lat":37.1305,"lon":-121.65439,"population":42948,"iso_a3":"USA","country":"United States","is_capital":false,"name_en":"Morgan Hill","name_es":"Morgan Hill","name_fr":"Morgan Hill","name_it":"Morgan Hill","name_ru":"Morgan Hill","elevation":107.0,"timezone":"America/Los_Angeles","admin1_name":"California"},{"name":"North Highlands","lat":38.68574,"lon":-121.37217,"population":42694,"iso_a3":"USA","country":"United States","is_capital":false,"name_en":"North Highlands","name_es":"North Highlands","name_fr":"North Highlands","name_it":"North Highlands","name_ru":"North Highlands","elevation":30.0,"timezone":"America/Los_Angeles","admin1_name":"California"},{"name":"Rohnert Park","lat":38.33964,"lon":-122.7011,"population":42407,"iso_a3":"USA","country":"United States","is_capital":false,"name_en":"Rohnert Park","name_es":"Rohnert Park","name_fr":"Rohnert Park","name_it":"Rohnert Park","name_ru":"Rohnert Park","elevation":31.0,"timezone":"America/Los_Angeles","admin1_name":"California"},{"name":"El Dorado Hills","lat":38.68574,"lon":-121.08217,"population":42108,"iso_a3":"USA","country":"United States","is_capital":false,"name_en":"El Dorado Hills","name_es":"El Dorado Hills","name_fr":"El Dorado Hills","name_it":"El Dorado Hills","name_ru":"El Dorado Hills","elevation":238.0,"timezone":"America/Los_Angeles","admin1_name":"California"},{"name":"Campbell","lat":37.28717,"lon":-121.94996,"population":41117,"iso_a3":"USA","country":"United States","is_capital":false,"name_en":"Campbell","name_es":"Campbell","name_fr":"Campbell","name_it":"Campbell","name_ru":"Кэмпбелл","elevation":57.0,"timezone":"America/Los_Angeles","admin1_name":"California"},{"name":"Oakley","lat":37.99742,"lon":-121.71245,"population":39813,"iso_a3":"USA","country":"United States","is_capital":false,"name_en":"Oakley","name_es":"Oakley","name_fr":"Oakley","name_it":"Oakley","name_ru":"Окли","elevation":5.0,"timezone":"America/Los_Angeles","admin1_name":"California"},{"name":"Pacifica","lat":37.61383,"lon":-122.48692,"population":39260,"iso_a3":"USA","country":"United States","is_capital":false,"name_en":"Pacifica","name_es":"Pacífica","name_fr":"Pacifica","name_it":"Pacifica","name_ru":"Pacifica","elevation":25.0,"timezone":"America/Los_Angeles","admin1_name":"California"},{"name":"Martinez","lat":38.01937,"lon":-122.13413,"population":38137,"iso_a3":"USA","country":"United States","is_capital":false,"name_en":"Martinez","name_es":"Martínez","name_fr":"Martinez","name_it":"Martinez","name_ru":"Мартинес","elevation":19.0,"timezone":"America/Los_Angeles","admin1_name":"California"},{"name":"Hollister","lat":36.85245,"lon":-121.4016,"population":37462,"iso_a3":"USA","country":"United States","is_capital":false,"name_en":"Hollister","name_es":"Hollister","name_fr":"Hollister","name_it":"Hollister","name_ru":"Hollister","elevation":85.0,"timezone":"America/Los_Angeles","admin1_name":"California"},{"name":"Bayview-Hunters Point","lat":37.72855,"lon":-122.38107,"population":34835,"iso_a3":"USA","country":"United States","is_capital":false,"name_en":"Bayview-Hunters Point","name_es":"Bayview-Hunters Point","name_fr":"Bayview-Hunters Point","name_it":"Bayview-Hunters Point","name_ru":"Bayview-Hunters Point","elevation":10.0,"timezone":"America/Los_Angeles","admin1_name":"California"},{"name":"Seaside","lat":36.61107,"lon":-121.85162,"population":33025,"iso_a3":"USA","country":"United States","is_capital":false,"name_en":"Seaside","name_es":"Seaside","name_fr":"Seaside","name_it":"Seaside","name_ru":"Сисайд","elevation":3.0,"timezone":"America/Los_Angeles","admin1_name":"California"},{"name":"Saratoga","lat":37.26383,"lon":-122.02301,"population":30968,"iso_a3":"USA","country":"United States","is_capital":false,"name_en":"Saratoga","name_es":"Saratoga","name_fr":"Saratoga","name_it":"Saratoga","name_ru":"Saratoga","elevation":128.0,"timezone":"America/Los_Angeles","admin1_name":"California"},{"name":"Fair Oaks","lat":38.64463,"lon":-121.27217,"population":30912,"iso_a3":"USA","country":"United States","is_capital":false,"name_en":"Fair Oaks","name_es":"Fair Oaks","name_fr":"Fair Oaks","name_it":"Fair Oaks","name_ru":"Fair Oaks","elevation":58.0,"timezone":"America/Los_Angeles","admin1_name":"California"},{"name":"Los Gatos","lat":37.22661,"lon":-121.97468,"population":30705,"iso_a3":"USA","country":"United States","is_capital":false,"name_en":"Los Gatos","name_es":"Los Gatos","name_fr":"Los Gatos","name_it":"Los Gatos","name_ru":"Los Gatos","elevation":102.0,"timezone":"America/Los_Angeles","admin1_name":"California"},{"name":"Los Altos","lat":37.38522,"lon":-122.11413,"population":30671,"iso_a3":"USA","country":"United States","is_capital":false,"name_en":"Los Altos","name_es":"Los Altos","name_fr":"Los Altos","name_it":"Los Altos","name_ru":"Лос-Альтос","elevation":47.0,"timezone":"America/Los_Angeles","admin1_name":"California"}]