[{"name":"Bakersfield","lat":35.37329,"lon":-119.01871,"population":373640,"iso_a3":"USA","country":"United States","is_capital":false,"name_en":"Bakersfield","name_es":"Bakersfield","name_fr":"Bakersfield","name_it":"Bakersfield","name_ru":"Бейкерсфилд","elevation":130.0,"timezone":"America/Los_Angeles","admin1_name":"California"},{"name":"Santa Clarita","lat":34.39166,"lon":-118.54259,"population":182371,"iso_a3":"USA","country":"United States","is_capital":false,"name_en":"Santa Clarita","name_es":"Santa Clarita","name_fr":"Santa Clarita","name_it":"Santa Clarita","name_ru":"Санта-Кларита","elevation":368.0,"timezone":"America/Los_Angeles","admin1_name":"California"},{"name":"Lancaster","lat":34.69804,"lon":-118.13674,"population":161103,"iso_a3":"USA","country":"United States","is_capital":false,"name_en":"Lancaster","name_es":"Lancaster","name_fr":"Lancaster","name_it":"Lancaster","name_ru":"Ланкастер","elevation":718.0,"timezone":"America/Los_Angeles","admin1_name":"California"},{"name":"Valencia","lat":34.44361,"lon":-118.60953,"population":148456,"iso_a3":"USA","country":"United States","is_capital":false,"name_en":"Valencia","name_es":"Valencia","name_fr":"Valencia","name_it":"Valencia","name_ru":"Valencia","elevation":312.0,"timezone":"America/Los_Angeles","admin1_name":"California"},{"name":"Visalia","lat":36.33023,"lon":-119.29206,"population":130104,"iso_a3":"USA","country":"United States","is_capital":false,"name_en":"Visalia","name_es":"Visalia","name_fr":"Visalia","name_it":"Visalia","name_ru":"Висейлия","elevation":110.0,"timezone":"America/Los_Angeles","admin1_name":"California"},{"name":"Santa Maria","lat":34.95303,"lon":-120.43572,"population":105093,"iso_a3":"USA","country":"United States","is_capital":false,"name_en":"Santa Maria","name_es":"Santa María","name_fr":"Santa Maria","name_it":"Santa Maria","name_ru":"Санта-Мария","elevation":68.0,"timezone":"America/Los_Angeles","admin1_name":"California"},{"name":"Santa Barbara","lat":34.42083,"lon":-119.69819,"population":91842,"iso_a3":"USA","country":"United States","is_capital":false,"name_en":"Santa Barbara","name_es":"Santa Bárbara","name_fr":"Santa Barbara","name_it":"Santa Barbara","name_ru":"Санта-Барбара","elevation":16.0,"timezone":"America/Los_Angeles","admin1_name":"California"},{"name":"Tulare","lat":36.20773,"lon":-119.34734,"population":62315,"iso_a3":"USA","country":"United States","is_capital":false,"name_en":"Tulare","name_es":"Tulare","name_fr":"Tulare","name_it":"Tulare","name_ru":"Тулар","elevation":91.0,"timezone":"America/Los_Angeles","admin1_name":"California"},{"name":"Porterville","lat":36.06523,"lon":-119.01677,"population":56058,"iso_a3":"USA","country":"United States","is_capital":false,"name_en":"Porterville","name_es":"Porterville","name_fr":"Porterville","name_it":"Porterville","name_ru":"Porterville","elevation":144.0,"timezone":"America/Los_Angeles","admin1_name":"California"},{"name":"Hanford","lat":36.32745,"lon":-119.64568,"population":55659,"iso_a3":"USA","country":"United States","is_capital":false,"name_en":"Hanford","name_es":"Hanford","name_fr":"Hanford","name_it":"Hanford","name_ru":"Хэнфорд","elevation":80.0,"timezone":"America/Los_Angeles","admin1_name":"California"},{"name":"Delano","lat":35.76884,"lon":-119.24705,"population":52733,"iso_a3":"USA","country":"United States","is_capital":false,"name_en":"Delano","name_es":"Delano","name_fr":"Delano","name_it":"Delano","name_ru":"Делано","elevation":100.0,"timezone":"America/Los_Angeles","admin1_name":"California"},{"name":"San Luis Obispo","lat":35.28275,"lon":-120.65962,"population":47339,"iso_a3":"USA","country":"United States","is_capital":false,"name_en":"San Luis Obispo","name_es":"San Luis Obispo","name_fr":"San Luis Obispo","name_it":"San Luis Obispo","name_ru":"Сан Луис Обиспо","elevation":74.0,"timezone":"America/Los_Angeles","admin1_name":"California"},{"name":"Lompoc","lat":34.63915,"lon":-120.45794,"population":44164,"iso_a3":"USA","country":"United States","is_capital":false,"name_en":"Lompoc","name_es":"Lompoc","name_fr":"Lompoc","name_it":"Lompoc","name_ru":"Ломпок","elevation":34.0,"timezone":"America/Los_Angeles","admin1_name":"California"},{"name":"Oildale","lat":35.41968,"lon":-119.01955,"population":32684,"iso_a3":"USA","country":"United States","is_capital":false,"name_en":"Oildale","name_es":"Oildale","name_fr":"Oildale","name_it":"Oildale","name_ru":"Oildale","elevation":147.0,"timezone":"America/Los_Angeles","admin1_name":"California"},{"name":"Goleta","lat":34.43583,"lon":-119.82764,"population":30944,"iso_a3":"USA","country":"United States","is_capital":false,"name_en":"Goleta","name_es":"Goleta","name_fr":"Goélette","name_it":"Schooner","name_ru":"Шхуна","elevation":7.0,"timezone":"America/Los_Angeles","admin1_name":"California"},{"name":"Santa Paula","lat":34.35417,"lon":-119.05927,"population":30546,"iso_a3":"USA","country":"United States","is_capital":false,"name_en":"Santa Paula","name_es":"Santa Paula","name_fr":"Santa Paula","name_it":"Santa Paula","name_ru":"Санта-Паула","elevation":87.0,"timezone":"America/Los_Angeles","admin1_name":"California"}]