[{"name":"Ciudad Obregón","lat":27.48642,"lon":-109.94079,"population":329404,"iso_a3":"MEX","country":"Mexico","is_capital":false,"name_en":"Ciudad Obregón","name_es":"Ciudad Obregón","name_fr":"Ciudad Obregón","name_it":"Ciudad Obregón","name_ru":"Сьюдад-Обрегон","elevation":38.0,"timezone":"America/Hermosillo","admin1_name":"Sonora"},{"name":"Heroica Guaymas","lat":27.91989,"lon":-110.89888,"population":117253,"iso_a3":"MEX","country":"Mexico","is_capital":false,"name_en":"Guaymas","name_es":"Guaymas","name_fr":"Guaymas","name_it":"Guaymas","name_ru":"Гуаймас","elevation":18.0,"timezone":"America/Hermosillo","admin1_name":"Sonora"},{"name":"Empalme","lat":27.96166,"lon":-110.81411,"population":42516,"iso_a3":"MEX","country":"Mexico","is_capital":false,"name_en":"Empalme","name_es":"Empalme","name_fr":"Empalme","name_it":"Empalme","name_ru":"Empalme","elevation":7.0,"timezone":"America/Hermosillo","admin1_name":"Sonora"},{"name":"Esperanza","lat":27.58046,"lon":-109.93119,"population":38969,"iso_a3":"MEX","country":"Mexico","is_capital":false,"name_en":"Esperanza","name_es":"Esperanza","name_fr":"Esperanza","name_it":"Esperanza","name_ru":"Esperanza","elevation":46.0,"timezone":"America/Hermosillo","admin1_name":"Sonora"},{"name":"Miguel Alemán (La Doce)","lat":28.84028,"lon":-111.4775,"population":30869,"iso_a3":"MEX","country":"Mexico","is_capital":false,"name_en":"Miguel Alemán (La Doce)","name_es":"Miguel Alemán (La Doce)","name_fr":"Miguel Alemán (La Doce)","name_it":"Miguel Alemán (La Doce)","name_ru":"Miguel Alemán (La Doce)","elevation":65.0,"timezone":"America/Hermosillo","admin1_name":"Sonora"}]