[{"name":"Mesa","lat":33.42227,"lon":-111.82264,"population":471825,"iso_a3":"USA","country":"United States","is_capital":false,"name_en":"Mesa","name_es":"Mesa","name_fr":"Mesa","name_it":"Mesa","name_ru":"Меса","elevation":380.0,"timezone":"America/Phoenix","admin1_name":"Arizona"},{"name":"Chandler","lat":33.30616,"lon":-111.84125,"population":260828,"iso_a3":"USA","country":"United States","is_capital":false,"name_en":"Chandler","name_es":"Chandler","name_fr":"Chandler","name_it":"Chandler","name_ru":"Чандлер","elevation":368.0,"timezone":"America/Phoenix","admin1_name":"Arizona"},{"name":"Gilbert","lat":33.35283,"lon":-111.78903,"population":247542,"iso_a3":"USA","country":"United States","is_capital":false,"name_en":"Gilbert","name_es":"Gilbert","name_fr":"Gilbert","name_it":"Gilbert","name_ru":"Гилберт","elevation":377.0,"timezone":"America/Phoenix","admin1_name":"Arizona"},{"name":"Glendale","lat":33.53865,"lon":-112.18599,"population":240126,"iso_a3":"USA","country":"United States","is_capital":false,"name_en":"Glendale","name_es":"Glendale","name_fr":"Glendale","name_it":"Glendale","name_ru":"Глендейл","elevation":350.0,"timezone":"America/Phoenix","admin1_name":"Arizona"},{"name":"Scottsdale","lat":33.50921,"lon":-111.89903,"population":236839,"iso_a3":"USA","country":"United States","is_capital":false,"name_en":"Scottsdale","name_es":"Scottsdale","name_fr":"Scottsdale","name_it":"Scottsdale","name_ru":"Скоттсдейл","elevation":382.0,"timezone":"America/Phoenix","admin1_name":"Arizona"},{"name":"Peoria","lat":33.5806,"lon":-112.23738,"population":190985,"iso_a3":"USA","country":"United States","is_capital":false,"name_en":"Peoria","name_es":"Peoria","name_fr":"Peoria","name_it":"Peoria","name_ru":"Пеория","elevation":347.0,"timezone":"America/Phoenix","admin1_name":"Arizona"},{"name":"Tempe","lat":33.41477,"lon":-111.90931,"population":175826,"iso_a3":"USA","country":"United States","is_capital":false,"name_en":"Tempe","name_es":"Tempe","name_fr":"Tempe","name_it":"Tempe","name_ru":"Темпе","elevation":360.0,"timezone":"America/Phoenix","admin1_name":"Arizona"},{"name":"Surprise","lat":33.63059,"lon":-112.33322,"population":143148,"iso_a3":"USA","country":"United States","is_capital":false,"name_en":"Surprise","name_es":"Surprise","name_fr":"Surprise","name_it":"Surprise","name_ru":"Сюрприз","elevation":357.0,"timezone":"America/Phoenix","admin1_name":"Arizona"},{"name":"San Tan Valley","lat":33.1911,"lon":-111.528,"population":81321,"iso_a3":"USA","country":"United States","is_capital":false,"name_en":"San Tan Valley","name_es":"San Tan Valley","name_fr":"San Tan Valley","name_it":"San Tan Valley","name_ru":"San Tan Valley","elevation":461.0,"timezone":"America/Phoenix","admin1_name":"Arizona"},{"name":"Avondale","lat":33.4356,"lon":-112.3496,"population":80684,"iso_a3":"USA","country":"United States","is_capital":false,"name_en":"Avondale","name_es":"Avondale","name_fr":"Avondale","name_it":"Avondale","name_ru":"Эвондейл","elevation":295.0,"timezone":"America/Phoenix","admin1_name":"Arizona"},{"name":"Casas Adobes","lat":32.32341,"lon":-110.9951,"population":66795,"iso_a3":"USA","country":"United States","is_capital":false,"name_en":"Casas Adobes","name_es":"Casas Adobes","name_fr":"Casas Adobes","name_it":"Casas Adobes","name_ru":"Casas Adobes","elevation":733.0,"timezone":"America/Phoenix","admin1_name":"Arizona"},{"name":"Casa Grande","lat":32.8795,"lon":-111.75735,"population":51460,"iso_a3":"USA","country":"United States","is_capital":false,"name_en":"Casa Grande","name_es":"Casa Grande","name_fr":"Casa Grande","name_it":"Casa Grande","name_ru":"Каса-Гранде","elevation":423.0,"timezone":"America/Phoenix","admin1_name":"Arizona"},{"name":"Catalina Foothills","lat":32.29785,"lon":-110.9187,"population":50796,"iso_a3":"USA","country":"United States","is_capital":false,"name_en":"Catalina Foothills","name_es":"Catalina Foothills","name_fr":"Catalina Foothills","name_it":"Catalina Foothills","name_ru":"Catalina Foothills","elevation":777.0,"timezone":"America/Phoenix","admin1_name":"Arizona"},{"name":"Maricopa","lat":33.05811,"lon":-112.04764,"population":48602,"iso_a3":"USA","country":"United States","is_capital":false,"name_en":"Maricopa","name_es":"Maricopa","name_fr":"Maricopa","name_it":"Maricopa","name_ru":"Марикопа","elevation":356.0,"timezone":"America/Phoenix","admin1_name":"Arizona"},{"name":"Oro Valley","lat":32.39091,"lon":-110.96649,"population":45303,"iso_a3":"USA","country":"United States","is_capital":false,"name_en":"Oro Valley","name_es":"Oro Valley","name_fr":"Oro Valley","name_it":"Oro Valley","name_ru":"Oro Valley","elevation":774.0,"timezone":"America/Phoenix","admin1_name":"Arizona"},{"name":"Marana","lat":32.43674,"lon":-111.22538,"population":41315,"iso_a3":"USA","country":"United States","is_capital":false,"name_en":"Marana","name_es":"Marana","name_fr":"Marana","name_it":"Marana","name_ru":"Marana","elevation":603.0,"timezone":"America/Phoenix","admin1_name":"Arizona"},{"name":"Apache Junction","lat":33.41505,"lon":-111.54958,"population":38074,"iso_a3":"USA","country":"United States","is_capital":false,"name_en":"Apache Junction","name_es":"Apache Junction","name_fr":"Apache Junction","name_it":"Apache Junction","name_ru":"Апачи-Джанкшен","elevation":526.0,"timezone":"America/Phoenix","admin1_name":"Arizona"},{"name":"Queen Creek","lat":33.24866,"lon":-111.6343,"population":34614,"iso_a3":"USA","country":"United States","is_capital":false,"name_en":"Queen Creek","name_es":"Queen Creek","name_fr":"Queen Creek","name_it":"Queen Creek","name_ru":"Queen Creek","elevation":428.0,"timezone":"America/Phoenix","admin1_name":"Arizona"},{"name":"Florence","lat":33.03145,"lon":-111.38734,"population":31110,"iso_a3":"USA","country":"United States","is_capital":false,"name_en":"Florence","name_es":"Florence","name_fr":"Florence","name_it":"Florence","name_ru":"Флоренция","elevation":453.0,"timezone":"America/Phoenix","admin1_name":"Arizona"}]