[{"name":"Ciudad Apodaca","lat":25.78195,"lon":-100.18839,"population":467157,"iso_a3":"MEX","country":"Mexico","is_capital":false,"name_en":"Apodaca","name_es":"Ciudad Apodaca","name_fr":"Apodaca","name_it":"Apodaca","name_ru":"Аподака","elevation":431.0,"timezone":"America/Monterrey","admin1_name":"Nuevo León"},{"name":"Ciudad General Escobedo","lat":25.79698,"lon":-100.31791,"population":454967,"iso_a3":"MEX","country":"Mexico","is_capital":false,"name_en":"General Escobedo","name_es":"General Escobedo","name_fr":"General Escobedo","name_it":"General Escobedo","name_ru":"General Escobedo","elevation":499.0,"timezone":"America/Monterrey","admin1_name":"Nuevo León"},{"name":"San Nicolás de los Garza","lat":25.74167,"lon":-100.30222,"population":412199,"iso_a3":"MEX","country":"Mexico","is_capital":false,"name_en":"San Nicolás de los Garza","name_es":"San Nicolás de los Garza","name_fr":"San Nicolás de los Garza","name_it":"San Nicolás de los Garza","name_ru":"San Nicolás de los Garza","elevation":510.0,"timezone":"America/Monterrey","admin1_name":"Nuevo León"},{"name":"Ciudad Benito Juárez","lat":25.64724,"lon":-100.09582,"population":308285,"iso_a3":"MEX","country":"Mexico","is_capital":false,"name_en":"Ciudad Benito Juárez","name_es":"Ciudad Benito Juárez","name_fr":"Ciudad Benito Juárez","name_it":"Ciudad Benito Juárez","name_ru":"Ciudad Benito Juárez","elevation":388.0,"timezone":"America/Monterrey","admin1_name":"Nuevo León"},{"name":"Santa Catarina","lat":25.67325,"lon":-100.45813,"population":304052,"iso_a3":"MEX","country":"Mexico","is_capital":false,"name_en":"Santa Catarina","name_es":"Ciudad Santa Catarina","name_fr":"Santa Catarina","name_it":"Santa Catarina","name_ru":"Santa Catarina","elevation":675.0,"timezone":"America/Monterrey","admin1_name":"Nuevo León"},{"name":"San Pedro Garza García","lat":25.6604,"lon":-100.40651,"population":132128,"iso_a3":"MEX","country":"Mexico","is_capital":false,"name_en":"San Pedro","name_es":"San Pedro Garza García","name_fr":"San Pedro","name_it":"San Pedro","name_ru":"San Pedro","elevation":658.0,"timezone":"America/Monterrey","admin1_name":"Nuevo León"},{"name":"García","lat":25.81201,"lon":-100.59874,"population":93641,"iso_a3":"MEX","country":"Mexico","is_capital":false,"name_en":"García","name_es":"García","name_fr":"García","name_it":"García","name_ru":"Вилья-де-Гарсиа","elevation":719.0,"timezone":"America/Monterrey","admin1_name":"Nuevo León"},{"name":"Linares","lat":24.85798,"lon":-99.56768,"population":70378,"iso_a3":"MEX","country":"Mexico","is_capital":false,"name_en":"Linares","name_es":"Linares","name_fr":"Linares","name_it":"Linares","name_ru":"Линарес","elevation":357.0,"timezone":"America/Monterrey","admin1_name":"Nuevo León"},{"name":"Cadereyta Jiménez","lat":25.58896,"lon":-100.00156,"population":68111,"iso_a3":"MEX","country":"Mexico","is_capital":false,"name_en":"Cadereyta Jiménez","name_es":"Cadereyta Jiménez","name_fr":"Cadereyta Jiménez","name_it":"Cadereyta Jiménez","name_ru":"Cadereyta Jiménez","elevation":330.0,"timezone":"America/Monterrey","admin1_name":"Nuevo León"},{"name":"Montemorelos","lat":25.18909,"lon":-99.82865,"population":67428,"iso_a3":"MEX","country":"Mexico","is_capital":false,"name_en":"Montemorelos","name_es":"Montemorelos","name_fr":"Montemorelos","name_it":"Montemorelos","name_ru":"Montemorelos","elevation":422.0,"timezone":"America/Monterrey","admin1_name":"Nuevo León"},{"name":"Ramos Arizpe","lat":25.53928,"lon":-100.94742,"population":66554,"iso_a3":"MEX","country":"Mexico","is_capital":false,"name_en":"Ramos Arizpe","name_es":"Ramos Arizpe","name_fr":"Ramos Arizpe","name_it":"Ramos Arizpe","name_ru":"Рамос-Ариспе","elevation":1413.0,"timezone":"America/Monterrey","admin1_name":"Coahuila"},{"name":"Jardines de la Silla","lat":25.62944,"lon":-100.18778,"population":53742,"iso_a3":"MEX","country":"Mexico","is_capital":false,"name_en":"Jardines de la Silla","name_es":"Jardines de la Silla","name_fr":"Jardines de la Silla","name_it":"Jardines de la Silla","name_ru":"Jardines de la Silla","elevation":512.0,"timezone":"America/Monterrey","admin1_name":"Nuevo León"},{"name":"Santiago","lat":25.42533,"lon":-100.15205,"population":36840,"iso_a3":"MEX","country":"Mexico","is_capital":false,"name_en":"Santiago","name_es":"Santiago","name_fr":"Santiago","name_it":"Santiago","name_ru":"Сантьяго","elevation":490.0,"timezone":"America/Monterrey","admin1_name":"Nuevo León"},{"name":"Fraccionamiento Real Palmas","lat":25.90417,"lon":-100.15972,"population":34636,"iso_a3":"MEX","country":"Mexico","is_capital":false,"name_en":"Fraccionamiento Real Palmas","name_es":"Fraccionamiento Real Palmas","name_fr":"Fraccionamiento Real Palmas","name_it":"Fraccionamiento Real Palmas","name_ru":"Fraccionamiento Real Palmas","elevation":389.0,"timezone":"America/Monterrey","admin1_name":"Nuevo León"},{"name":"Ciudad Sabinas Hidalgo","lat":26.50358,"lon":-100.18187,"population":33068,"iso_a3":"MEX","country":"Mexico","is_capital":false,"name_en":"Ciudad Sabinas Hidalgo","name_es":"Ciudad Sabinas Hidalgo","name_fr":"Ciudad Sabinas Hidalgo","name_it":"Ciudad Sabinas Hidalgo","name_ru":"Ciudad Sabinas Hidalgo","elevation":308.0,"timezone":"America/Monterrey","admin1_name":"Nuevo León"}]