[{"name":"Ciudad López Mateos","lat":19.55793,"lon":-99.25675,"population":489160,"iso_a3":"MEX","country":"Mexico","is_capital":false,"name_en":"Ciudad López Mateos","name_es":"Adolfo López Mateos","name_fr":"Ciudad López Mateos","name_it":"Ciudad López Mateos","name_ru":"Сьюдад-Лопес-Матеус","elevation":2302.0,"timezone":"America/Mexico_City","admin1_name":"México"},{"name":"Azcapotzalco","lat":19.48698,"lon":-99.18594,"population":414711,"iso_a3":"MEX","country":"Mexico","is_capital":false,"name_en":"Azcapotzalco","name_es":"Azcapotzalco","name_fr":"Azcapotzalco","name_it":"Azcapotzalco","name_ru":"Azcapotzalco","elevation":2249.0,"timezone":"America/Mexico_City","admin1_name":"Mexico City"},{"name":"Ojo de Agua","lat":19.68028,"lon":-99.01,"population":386290,"iso_a3":"MEX","country":"Mexico","is_capital":false,"name_en":"Ojo de Agua","name_es":"Ojo de Agua","name_fr":"Ojo de Agua","name_it":"Ojo de Agua","name_ru":"Ojo de Agua","elevation":2250.0,"timezone":"America/Mexico_City","admin1_name":"México"},{"name":"Miguel Hidalgo","lat":19.43411,"lon":-99.20024,"population":372889,"iso_a3":"MEX","country":"Mexico","is_capital":false,"name_en":"Miguel Hidalgo","name_es":"Delegación Miguel Hidalgo","name_fr":"Miguel Hidalgo","name_it":"Miguel Hidalgo","name_ru":"Miguel Hidalgo","elevation":2267.0,"timezone":"America/Mexico_City","admin1_name":"Mexico City"},{"name":"Celaya","lat":20.52353,"lon":-100.8157,"population":340387,"iso_a3":"MEX","country":"Mexico","is_capital":false,"name_en":"Celaya","name_es":"Celaya","name_fr":"Celaya","name_it":"Celaya","name_ru":"Селая","elevation":1762.0,"timezone":"America/Mexico_City","admin1_name":"Guanajuato"},{"name":"Ixtapaluca","lat":19.31556,"lon":-98.88284,"population":322271,"iso_a3":"MEX","country":"Mexico","is_capital":false,"name_en":"Ixtapaluca","name_es":"Iztapaluca","name_fr":"Ixtapaluca","name_it":"Ixtapaluca","name_ru":"Ixtapaluca","elevation":2253.0,"timezone":"America/Mexico_City","admin1_name":"México"},{"name":"Nicolás Romero","lat":19.64177,"lon":-99.3068,"population":281799,"iso_a3":"MEX","country":"Mexico","is_capital":false,"name_en":"Ciudad Nicolás Romero","name_es":"Ciudad Nicolás Romero","name_fr":"Ciudad Nicolás Romero","name_it":"Ciudad Nicolás Romero","name_ru":"Ciudad Nicolás Romero","elevation":2404.0,"timezone":"America/Mexico_City","admin1_name":"México"},{"name":"Zumpango","lat":19.7967,"lon":-99.09946,"population":280455,"iso_a3":"MEX","country":"Mexico","is_capital":false,"name_en":"Zumpango de Ocampo","name_es":"Zumpango de Ocampo","name_fr":"Zumpango de Ocampo","name_it":"Zumpango de Ocampo","name_ru":"Зумпанго-де-Окампо","elevation":2258.0,"timezone":"America/Mexico_City","admin1_name":"México"},{"name":"Coacalco","lat":19.62923,"lon":-99.10689,"population":277959,"iso_a3":"MEX","country":"Mexico","is_capital":false,"name_en":"Coacalco","name_es":"Coacalco","name_fr":"Coacalco","name_it":"Coacalco","name_ru":"Coacalco","elevation":2266.0,"timezone":"America/Mexico_City","admin1_name":"México"},{"name":"Pachuca de Soto","lat":20.11697,"lon":-98.73329,"population":256584,"iso_a3":"MEX","country":"Mexico","is_capital":false,"name_en":"Pachuca","name_es":"Pachuca","name_fr":"Pachuca","name_it":"Pachuca","name_ru":"Пачука-де-Сото","elevation":2393.0,"timezone":"America/Mexico_City","admin1_name":"Hidalgo"},{"name":"Magdalena Contreras","lat":19.33212,"lon":-99.21118,"population":238431,"iso_a3":"MEX","country":"Mexico","is_capital":false,"name_en":"Magdalena Contreras","name_es":"Magdalena Contreras","name_fr":"Magdalena Contreras","name_it":"Magdalena Contreras","name_ru":"Magdalena Contreras","elevation":2348.0,"timezone":"America/Mexico_City","admin1_name":"Mexico City"},{"name":"Buenavista","lat":19.60833,"lon":-99.16944,"population":216776,"iso_a3":"MEX","country":"Mexico","is_capital":false,"name_en":"Buenavista","name_es":"Buenavista","name_fr":"Buenavista","name_it":"Buenavista","name_ru":"Buenavista","elevation":2333.0,"timezone":"America/Mexico_City","admin1_name":"México"},{"name":"Cuautitlán","lat":19.67052,"lon":-99.17989,"population":178847,"iso_a3":"MEX","country":"Mexico","is_capital":false,"name_en":"Cuautitlán","name_es":"Cuautitlán","name_fr":"Cuautitlán","name_it":"Cuautitlán","name_ru":"Куаутитлан","elevation":2262.0,"timezone":"America/Mexico_City","admin1_name":"México"},{"name":"San Miguel de Allende","lat":20.91528,"lon":-100.74389,"population":174615,"iso_a3":"MEX","country":"Mexico","is_capital":false,"name_en":"San Miguel de Allende","name_es":"San Miguel de Allende","name_fr":"San Miguel de Allende","name_it":"San Miguel de Allende","name_ru":"Сан-Мигель-де-Альенде","elevation":1917.0,"timezone":"America/Mexico_City","admin1_name":"Guanajuato"},{"name":"Chicoloapan","lat":19.41687,"lon":-98.90202,"population":172919,"iso_a3":"MEX","country":"Mexico","is_capital":false,"name_en":"Chicoloapan","name_es":"San Vicente Chicoloapan","name_fr":"Chicoloapan","name_it":"Chicoloapan","name_ru":"Chicoloapan","elevation":2250.0,"timezone":"America/Mexico_City","admin1_name":"México"},{"name":"Salamanca","lat":20.57196,"lon":-101.19154,"population":160682,"iso_a3":"MEX","country":"Mexico","is_capital":false,"name_en":"Salamanca","name_es":"Salamanca","name_fr":"Salamanca","name_it":"Salamanca","name_ru":"Саламанка","elevation":1714.0,"timezone":"America/Mexico_City","admin1_name":"Guanajuato"},{"name":"Delegación Cuajimalpa de Morelos","lat":19.3692,"lon":-99.29089,"population":160491,"iso_a3":"MEX","country":"Mexico","is_capital":false,"name_en":"Delegación Cuajimalpa de Morelos","name_es":"Cuajimalpa de Morelos","name_fr":"Delegación Cuajimalpa de Morelos","name_it":"Delegación Cuajimalpa de Morelos","name_ru":"Delegación Cuajimalpa de Morelos","elevation":2655.0,"timezone":"America/Mexico_City","admin1_name":"Mexico City"},{"name":"San Juan del Río","lat":20.38897,"lon":-99.99637,"population":138878,"iso_a3":"MEX","country":"Mexico","is_capital":false,"name_en":"San Juan del Río","name_es":"San Juan del Río","name_fr":"San Juan del Río","name_it":"San Juan del Río","name_ru":"San Juan del Río","elevation":1923.0,"timezone":"America/Mexico_City","admin1_name":"Querétaro"},{"name":"Huixquilucan","lat":19.35985,"lon":-99.35016,"population":124846,"iso_a3":"MEX","country":"Mexico","is_capital":false,"name_en":"Huixquilucan","name_es":"Huixquilucan","name_fr":"Huixquilucan","name_it":"Huixquilucan","name_ru":"Huixquilucan","elevation":2712.0,"timezone":"America/Mexico_City","admin1_name":"México"},{"name":"Texcoco de Mora","lat":19.51194,"lon":-98.88293,"population":105165,"iso_a3":"MEX","country":"Mexico","is_capital":false,"name_en":"Texcoco","name_es":"Texcoco","name_fr":"Texcoco","name_it":"Texcoco","name_ru":"Texcoco","elevation":2257.0,"timezone":"America/Mexico_City","admin1_name":"México"},{"name":"Tepexpan","lat":19.61387,"lon":-98.9364,"population":102667,"iso_a3":"MEX","country":"Mexico","is_capital":false,"name_en":"Tepexpan","name_es":"Tepexpan","name_fr":"Tepexpan","name_it":"Tepexpan","name_ru":"Tepexpan","elevation":2260.0,"timezone":"America/Mexico_City","admin1_name":"México"},{"name":"Los Reyes Acaquilpan","lat":19.36357,"lon":-98.97707,"population":85359,"iso_a3":"MEX","country":"Mexico","is_capital":false,"name_en":"Los Reyes Acaquilpan","name_es":"Los Reyes La Paz","name_fr":"Los Reyes Acaquilpan","name_it":"Los Reyes Acaquilpan","name_ru":"Los Reyes Acaquilpan","elevation":2240.0,"timezone":"America/Mexico_City","admin1_name":"México"},{"name":"Heróica Zitácuaro","lat":19.43657,"lon":-100.35639,"population":84307,"iso_a3":"MEX","country":"Mexico","is_capital":false,"name_en":"Heróica Zitácuaro","name_es":"Heróica Zitácuaro","name_fr":"Heróica Zitácuaro","name_it":"Heróica Zitácuaro","name_ru":"Heróica Zitácuaro","elevation":1958.0,"timezone":"America/Mexico_City","admin1_name":"Michoacán"},{"name":"Tepeji del Río de Ocampo","lat":19.90481,"lon":-99.34379,"population":80612,"iso_a3":"MEX","country":"Mexico","is_capital":false,"name_en":"Tepeji del Río de Ocampo","name_es":"Tepeji del Rio de Ocampo","name_fr":"Tepeji del Río de Ocampo","name_it":"Tepeji del Río de Ocampo","name_ru":"Tepeji del Río de Ocampo","elevation":2161.0,"timezone":"America/Mexico_City","admin1_name":"Hidalgo"},{"name":"El Pueblito","lat":20.54006,"lon":-100.44093,"population":71254,"iso_a3":"MEX","country":"Mexico","is_capital":false,"name_en":"El Pueblito","name_es":"Corregidora","name_fr":"El Pueblito","name_it":"El Pueblito","name_ru":"El Pueblito","elevation":1878.0,"timezone":"America/Mexico_City","admin1_name":"Querétaro"},{"name":"Santa María Chimalhuacán","lat":19.42155,"lon":-98.95038,"population":70519,"iso_a3":"MEX","country":"Mexico","is_capital":false,"name_en":"Santa María Chimalhuacán","name_es":"Santa María Chimalhuacán","name_fr":"Santa María Chimalhuacán","name_it":"Santa María Chimalhuacán","name_ru":"Santa María Chimalhuacán","elevation":2249.0,"timezone":"America/Mexico_City","admin1_name":"México"},{"name":"Valle de Santiago","lat":20.3914,"lon":-101.19222,"population":68058,"iso_a3":"MEX","country":"Mexico","is_capital":false,"name_en":"Valle de Santiago","name_es":"Valle de Santiago","name_fr":"Valle de Santiago","name_it":"Valle de Santiago","name_ru":"Валье-де-Сантьяго","elevation":1752.0,"timezone":"America/Mexico_City","admin1_name":"Guanajuato"},{"name":"Dolores Hidalgo","lat":21.15611,"lon":-100.9325,"population":67101,"iso_a3":"MEX","country":"Mexico","is_capital":false,"name_en":"Dolores Hidalgo","name_es":"Dolores Hidalgo","name_fr":"Dolores Hidalgo","name_it":"Dolores Hidalgo","name_ru":"Долорес-Идальго","elevation":1918.0,"timezone":"America/Mexico_City","admin1_name":"Guanajuato"},{"name":"Cortazar","lat":20.48362,"lon":-100.96237,"population":61658,"iso_a3":"MEX","country":"Mexico","is_capital":false,"name_en":"Cortazar","name_es":"Cortazar","name_fr":"Cortazar","name_it":"Cortazar","name_ru":"Кортасар","elevation":1739.0,"timezone":"America/Mexico_City","admin1_name":"Guanajuato"},{"name":"Ciudad Hidalgo","lat":19.68957,"lon":-100.55502,"population":60542,"iso_a3":"MEX","country":"Mexico","is_capital":false,"name_en":"Ciudad Hidalgo","name_es":"Ciudad Hidalgo","name_fr":"Ciudad Hidalgo","name_it":"Ciudad Hidalgo","name_ru":"Сьюдад-Идальго","elevation":2027.0,"timezone":"America/Mexico_City","admin1_name":"Michoacán"},{"name":"Acámbaro","lat":20.03085,"lon":-100.72194,"population":57972,"iso_a3":"MEX","country":"Mexico","is_capital":false,"name_en":"Acámbaro","name_es":"Acámbaro","name_fr":"Acámbaro","name_it":"Acámbaro","name_ru":"Акамбаро","elevation":1861.0,"timezone":"America/Mexico_City","admin1_name":"Guanajuato"},{"name":"Rioverde","lat":21.93115,"lon":-99.99488,"population":53128,"iso_a3":"MEX","country":"Mexico","is_capital":false,"name_en":"Rioverde","name_es":"Ríoverde","name_fr":"Rioverde","name_it":"Rioverde","name_ru":"Rioverde","elevation":995.0,"timezone":"America/Mexico_City","admin1_name":"San Luis Potosí"},{"name":"Uriangato","lat":20.14085,"lon":-101.18251,"population":51382,"iso_a3":"MEX","country":"Mexico","is_capital":false,"name_en":"Uriangato","name_es":"Uriangato","name_fr":"Uriangato","name_it":"Uriangato","name_ru":"Uriangato","elevation":1810.0,"timezone":"America/Mexico_City","admin1_name":"Guanajuato"},{"name":"Teoloyucan","lat":19.74423,"lon":-99.18113,"population":51255,"iso_a3":"MEX","country":"Mexico","is_capital":false,"name_en":"Teoloyucan","name_es":"Teoloyucan","name_fr":"Teoloyucan","name_it":"Teoloyucan","name_ru":"Teoloyucan","elevation":2268.0,"timezone":"America/Mexico_City","admin1_name":"México"},{"name":"San Luis de la Paz","lat":21.29771,"lon":-100.51736,"population":49914,"iso_a3":"MEX","country":"Mexico","is_capital":false,"name_en":"San Luis de la Paz","name_es":"San Luis de la Paz","name_fr":"San Luis de la Paz","name_it":"San Luis de la Paz","name_ru":"San Luis de la Paz","elevation":2019.0,"timezone":"America/Mexico_City","admin1_name":"Guanajuato"},{"name":"Tizayuca","lat":19.83721,"lon":-98.97607,"population":43250,"iso_a3":"MEX","country":"Mexico","is_capital":false,"name_en":"Tizayuca","name_es":"Tizayuca","name_fr":"Tizayuca","name_it":"Tizayuca","name_ru":"Tizayuca","elevation":2275.0,"timezone":"America/Mexico_City","admin1_name":"Hidalgo"},{"name":"Juventino Rosas","lat":20.64337,"lon":-100.99286,"population":42264,"iso_a3":"MEX","country":"Mexico","is_capital":false,"name_en":"Juventino Rosas","name_es":"Santa Cruz de Juventino Rosas","name_fr":"Juventino Rosas","name_it":"Juventino Rosas","name_ru":"Санта-Крус-де-Хувентино-Росас","elevation":1756.0,"timezone":"America/Mexico_City","admin1_name":"Guanajuato"},{"name":"Melchor Ocampo","lat":19.70186,"lon":-99.14485,"population":38599,"iso_a3":"MEX","country":"Mexico","is_capital":false,"name_en":"Melchor Ocampo","name_es":"Melchor Ocampo","name_fr":"Melchor Ocampo","name_it":"Melchor Ocampo","name_ru":"Melchor Ocampo","elevation":2262.0,"timezone":"America/Mexico_City","admin1_name":"México"},{"name":"Tepotzotlán","lat":19.72116,"lon":-99.22391,"population":38119,"iso_a3":"MEX","country":"Mexico","is_capital":false,"name_en":"Tepotzotlán","name_es":"Tepotzotlán","name_fr":"Tepotzotlán","name_it":"Tepotzotlán","name_ru":"Tepotzotlán","elevation":2317.0,"timezone":"America/Mexico_City","admin1_name":"México"},{"name":"Salvatierra","lat":20.21322,"lon":-100.88023,"population":37203,"iso_a3":"MEX","country":"Mexico","is_capital":false,"name_en":"Salvatierra","name_es":"Salvatierra","name_fr":"Salvatierra","name_it":"Salvatierra","name_ru":"Сальватьерра","elevation":1761.0,"timezone":"America/Mexico_City","admin1_name":"Guanajuato"},{"name":"Santa Teresa","lat":19.845,"lon":-99.23333,"population":36845,"iso_a3":"MEX","country":"Mexico","is_capital":false,"name_en":"Santa Teresa","name_es":"Santa Teresa","name_fr":"Santa Teresa","name_it":"Santa Teresa","name_ru":"Santa Teresa","elevation":2286.0,"timezone":"America/Mexico_City","admin1_name":"México"},{"name":"San Pablo Autopan","lat":19.35638,"lon":-99.65724,"population":35141,"iso_a3":"MEX","country":"Mexico","is_capital":false,"name_en":"San Pablo Autopan","name_es":"San Pablo Autopan","name_fr":"San Pablo Autopan","name_it":"San Pablo Autopan","name_ru":"San Pablo Autopan","elevation":2613.0,"timezone":"America/Mexico_City","admin1_name":"México"},{"name":"Ixmiquilpan","lat":20.47841,"lon":-99.21697,"population":34814,"iso_a3":"MEX","country":"Mexico","is_capital":false,"name_en":"Ixmiquilpan","name_es":"Ixmiquilpan","name_fr":"Ixmiquilpan","name_it":"Ixmiquilpan","name_ru":"Ixmiquilpan","elevation":1711.0,"timezone":"America/Mexico_City","admin1_name":"Hidalgo"},{"name":"Maravatío de Ocampo","lat":19.8919,"lon":-100.44192,"population":34381,"iso_a3":"MEX","country":"Mexico","is_capital":false,"name_en":"Maravatío de Ocampo","name_es":"Maravatío de Ocampo","name_fr":"Maravatío de Ocampo","name_it":"Maravatío de Ocampo","name_ru":"Maravatío de Ocampo","elevation":2057.0,"timezone":"America/Mexico_City","admin1_name":"Michoacán"},{"name":"Calpulalpan","lat":19.58867,"lon":-98.56972,"population":33263,"iso_a3":"MEX","country":"Mexico","is_capital":false,"name_en":"Calpulalpan","name_es":"Calpulalpan","name_fr":"Calpulalpan","name_it":"Calpulalpan","name_ru":"Кальпулальпане","elevation":2592.0,"timezone":"America/Mexico_City","admin1_name":"Tlaxcala"},{"name":"Actopan","lat":20.26961,"lon":-98.94377,"population":32276,"iso_a3":"MEX","country":"Mexico","is_capital":false,"name_en":"Actopan","name_es":"Actopan","name_fr":"Actopan","name_it":"Actopan","name_ru":"Актопан","elevation":2008.0,"timezone":"America/Mexico_City","admin1_name":"Hidalgo"},{"name":"San José Guadalupe Otzacatipan","lat":19.34472,"lon":-99.59194,"population":31299,"iso_a3":"MEX","country":"Mexico","is_capital":false,"name_en":"San José Guadalupe Otzacatipan","name_es":"San José Guadalupe Otzacatipan","name_fr":"San José Guadalupe Otzacatipan","name_it":"San José Guadalupe Otzacatipan","name_ru":"San José Guadalupe Otzacatipan","elevation":2591.0,"timezone":"America/Mexico_City","admin1_name":"México"}]