[{"name":"Arlington","lat":32.73569,"lon":-97.10807,"population":388125,"iso_a3":"USA","country":"United States","is_capital":false,"name_en":"Arlington","name_es":"Arlington","name_fr":"Arlington","name_it":"Arlington","name_ru":"Арлингтон","elevation":190.0,"timezone":"America/Chicago","admin1_name":"Texas"},{"name":"Plano","lat":33.01984,"lon":-96.69889,"population":283558,"iso_a3":"USA","country":"United States","is_capital":false,"name_en":"Plano","name_es":"Plano","name_fr":"Plano","name_it":"Plano","name_ru":"Планом","elevation":207.0,"timezone":"America/Chicago","admin1_name":"Texas"},{"name":"Garland","lat":32.91262,"lon":-96.63888,"population":236897,"iso_a3":"USA","country":"United States","is_capital":false,"name_en":"Garland","name_es":"Garland","name_fr":"Garland","name_it":"Garland","name_ru":"Гирлянда","elevation":174.0,"timezone":"America/Chicago","admin1_name":"Texas"},{"name":"Irving","lat":32.81402,"lon":-96.94889,"population":236607,"iso_a3":"USA","country":"United States","is_capital":false,"name_en":"Irving","name_es":"Irving","name_fr":"Irving","name_it":"Irving","name_ru":"Ирвинг","elevation":151.0,"timezone":"America/Chicago","admin1_name":"Texas"},{"name":"Grand Prairie","lat":32.74596,"lon":-96.99778,"population":187809,"iso_a3":"USA","country":"United States","is_capital":false,"name_en":"Grand Prairie","name_es":"Grand Prairie","name_fr":"Grand Prairie","name_it":"Grand Prairie","name_ru":"Гранд-Прери","elevation":162.0,"timezone":"America/Chicago","admin1_name":"Texas"},{"name":"McKinney","lat":33.19762,"lon":-96.61527,"population":162898,"iso_a3":"USA","country":"United States","is_capital":false,"name_en":"McKinney","name_es":"McKinney","name_fr":"McKinney","name_it":"McKinney","name_ru":"Мак-Кинни","elevation":197.0,"timezone":"America/Chicago","admin1_name":"Texas"},{"name":"Frisco","lat":33.15067,"lon":-96.82361,"population":154407,"iso_a3":"USA","country":"United States","is_capital":false,"name_en":"Frisco","name_es":"Frisco","name_fr":"Frisco","name_it":"Frisco","name_ru":"Фриско","elevation":216.0,"timezone":"America/Chicago","admin1_name":"Texas"},{"name":"Mesquite","lat":32.7668,"lon":-96.59916,"population":144788,"iso_a3":"USA","country":"United States","is_capital":false,"name_en":"Mesquite","name_es":"Mesquite","name_fr":"Mesquite","name_it":"Mesquite","name_ru":"Мескит","elevation":155.0,"timezone":"America/Chicago","admin1_name":"Texas"},{"name":"Carrollton","lat":32.95373,"lon":-96.89028,"population":133168,"iso_a3":"USA","country":"United States","is_capital":false,"name_en":"Carrollton","name_es":"Carrollton","name_fr":"Carrollton","name_it":"Carrollton","name_ru":"Карролтон","elevation":163.0,"timezone":"America/Chicago","admin1_name":"Texas"},{"name":"Denton","lat":33.21484,"lon":-97.13307,"population":131044,"iso_a3":"USA","country":"United States","is_capital":false,"name_en":"Denton","name_es":"Denton","name_fr":"Denton","name_it":"Denton","name_ru":"Дентон","elevation":206.0,"timezone":"America/Chicago","admin1_name":"Texas"},{"name":"Richardson","lat":32.94818,"lon":-96.72972,"population":110815,"iso_a3":"USA","country":"United States","is_capital":false,"name_en":"Richardson","name_es":"Richardson","name_fr":"Richardson","name_it":"Richardson","name_ru":"Ричардсон","elevation":195.0,"timezone":"America/Chicago","admin1_name":"Texas"},{"name":"Lewisville","lat":33.04623,"lon":-96.99417,"population":104039,"iso_a3":"USA","country":"United States","is_capital":false,"name_en":"Lewisville","name_es":"Lewisville","name_fr":"Lewisville","name_it":"Lewisville","name_ru":"Льюисвилл","elevation":161.0,"timezone":"America/Chicago","admin1_name":"Texas"},{"name":"Allen","lat":33.10317,"lon":-96.67055,"population":98143,"iso_a3":"USA","country":"United States","is_capital":false,"name_en":"Allen","name_es":"Allen","name_fr":"Allen","name_it":"Allen","name_ru":"Аллен","elevation":205.0,"timezone":"America/Chicago","admin1_name":"Texas"},{"name":"Flower Mound","lat":33.01457,"lon":-97.09696,"population":71253,"iso_a3":"USA","country":"United States","is_capital":false,"name_en":"Flower Mound","name_es":"Flower Mound","name_fr":"Flower Mound","name_it":"Flower Mound","name_ru":"Flower Mound","elevation":186.0,"timezone":"America/Chicago","admin1_name":"Texas"},{"name":"North Richland Hills","lat":32.8343,"lon":-97.2289,"population":69204,"iso_a3":"USA","country":"United States","is_capital":false,"name_en":"North Richland Hills","name_es":"North Richland Hills","name_fr":"North Richland Hills","name_it":"North Richland Hills","name_ru":"North Richland Hills","elevation":188.0,"timezone":"America/Chicago","admin1_name":"Texas"},{"name":"Mansfield","lat":32.56319,"lon":-97.14168,"population":64274,"iso_a3":"USA","country":"United States","is_capital":false,"name_en":"Mansfield","name_es":"Mansfield","name_fr":"Mansfield","name_it":"Mansfield","name_ru":"Мэнсфилд","elevation":188.0,"timezone":"America/Chicago","admin1_name":"Texas"},{"name":"Rowlett","lat":32.9029,"lon":-96.56388,"population":60236,"iso_a3":"USA","country":"United States","is_capital":false,"name_en":"Rowlett","name_es":"Rowlett","name_fr":"Rowlett","name_it":"Rowlett","name_ru":"Rowlett","elevation":155.0,"timezone":"America/Chicago","admin1_name":"Texas"},{"name":"Euless","lat":32.83707,"lon":-97.08195,"population":54219,"iso_a3":"USA","country":"United States","is_capital":false,"name_en":"Euless","name_es":"Euless","name_fr":"Euless","name_it":"Euless","name_ru":"Euless","elevation":184.0,"timezone":"America/Chicago","admin1_name":"Texas"},{"name":"DeSoto","lat":32.58986,"lon":-96.85695,"population":52486,"iso_a3":"USA","country":"United States","is_capital":false,"name_en":"DeSoto","name_es":"DeSoto","name_fr":"DeSoto","name_it":"DeSoto","name_ru":"Сото","elevation":205.0,"timezone":"America/Chicago","admin1_name":"Texas"},{"name":"Grapevine","lat":32.93429,"lon":-97.07807,"population":51404,"iso_a3":"USA","country":"United States","is_capital":false,"name_en":"Grapevine","name_es":"Grapevine","name_fr":"Grapevine","name_it":"Grapevine","name_ru":"Грейпвайн","elevation":199.0,"timezone":"America/Chicago","admin1_name":"Texas"},{"name":"Bedford","lat":32.84402,"lon":-97.14307,"population":49337,"iso_a3":"USA","country":"United States","is_capital":false,"name_en":"Bedford","name_es":"Bedford","name_fr":"Bedford","name_it":"Bedford","name_ru":"Бедфорд","elevation":187.0,"timezone":"America/Chicago","admin1_name":"Texas"},{"name":"Cedar Hill","lat":32.58847,"lon":-96.95612,"population":48507,"iso_a3":"USA","country":"United States","is_capital":false,"name_en":"Cedar Hill","name_es":"Cedar Hill","name_fr":"Cedar Hill","name_it":"Cedar Hill","name_ru":"Cedar Hill","elevation":258.0,"timezone":"America/Chicago","admin1_name":"Texas"},{"name":"Wylie","lat":33.01512,"lon":-96.53888,"population":46708,"iso_a3":"USA","country":"United States","is_capital":false,"name_en":"Wylie","name_es":"Wylie","name_fr":"Wylie","name_it":"Wylie","name_ru":"Wylie","elevation":174.0,"timezone":"America/Chicago","admin1_name":"Texas"},{"name":"Keller","lat":32.93457,"lon":-97.25168,"population":45758,"iso_a3":"USA","country":"United States","is_capital":false,"name_en":"Keller","name_es":"Keller","name_fr":"Keller","name_it":"Keller","name_ru":"Келлер","elevation":220.0,"timezone":"America/Chicago","admin1_name":"Texas"},{"name":"Haltom City","lat":32.79957,"lon":-97.26918,"population":44206,"iso_a3":"USA","country":"United States","is_capital":false,"name_en":"Haltom City","name_es":"Haltom City","name_fr":"Haltom City","name_it":"Haltom City","name_ru":"Haltom City","elevation":166.0,"timezone":"America/Chicago","admin1_name":"Texas"},{"name":"Burleson","lat":32.54208,"lon":-97.32085,"population":43625,"iso_a3":"USA","country":"United States","is_capital":false,"name_en":"Burleson","name_es":"Burleson","name_fr":"Burleson","name_it":"Burleson","name_ru":"Бурлесоне","elevation":220.0,"timezone":"America/Chicago","admin1_name":"Texas"},{"name":"Rockwall","lat":32.93123,"lon":-96.45971,"population":42566,"iso_a3":"USA","country":"United States","is_capital":false,"name_en":"Rockwall","name_es":"Rockwall","name_fr":"Rockwall","name_it":"Rockwall","name_ru":"Rockwall","elevation":184.0,"timezone":"America/Chicago","admin1_name":"Texas"},{"name":"The Colony","lat":33.08901,"lon":-96.88639,"population":41779,"iso_a3":"USA","country":"United States","is_capital":false,"name_en":"The Colony","name_es":"The Colony","name_fr":"The Colony","name_it":"The Colony","name_ru":"Колония","elevation":182.0,"timezone":"America/Chicago","admin1_name":"Texas"},{"name":"Coppell","lat":32.95457,"lon":-97.01501,"population":41159,"iso_a3":"USA","country":"United States","is_capital":false,"name_en":"Coppell","name_es":"Coppell","name_fr":"Coppell","name_it":"Coppell","name_ru":"Коппелл","elevation":169.0,"timezone":"America/Chicago","admin1_name":"Texas"},{"name":"Sherman","lat":33.63566,"lon":-96.60888,"population":40667,"iso_a3":"USA","country":"United States","is_capital":false,"name_en":"Sherman","name_es":"Sherman","name_fr":"Sherman","name_it":"Sherman","name_ru":"Шерман","elevation":231.0,"timezone":"America/Chicago","admin1_name":"Texas"},{"name":"Duncanville","lat":32.6518,"lon":-96.90834,"population":39826,"iso_a3":"USA","country":"United States","is_capital":false,"name_en":"Duncanville","name_es":"Duncanville","name_fr":"Duncanville","name_it":"Duncanville","name_ru":"Duncanville","elevation":224.0,"timezone":"America/Chicago","admin1_name":"Texas"},{"name":"Lancaster","lat":32.59208,"lon":-96.75611,"population":38801,"iso_a3":"USA","country":"United States","is_capital":false,"name_en":"Lancaster","name_es":"Lancaster","name_fr":"Lancaster","name_it":"Lancaster","name_ru":"Ланкастер","elevation":161.0,"timezone":"America/Chicago","admin1_name":"Texas"},{"name":"Little Elm","lat":33.16262,"lon":-96.93751,"population":38341,"iso_a3":"USA","country":"United States","is_capital":false,"name_en":"Little Elm","name_es":"Little Elm","name_fr":"Little Elm","name_it":"Little Elm","name_ru":"Литл-Элм","elevation":169.0,"timezone":"America/Chicago","admin1_name":"Texas"},{"name":"Waxahachie","lat":32.38653,"lon":-96.84833,"population":33384,"iso_a3":"USA","country":"United States","is_capital":false,"name_en":"Waxahachie","name_es":"Waxahachie","name_fr":"Waxahachie","name_it":"Waxahachie","name_ru":"Waxahachie","elevation":174.0,"timezone":"America/Chicago","admin1_name":"Texas"},{"name":"Cleburne","lat":32.34764,"lon":-97.38668,"population":30020,"iso_a3":"USA","country":"United States","is_capital":false,"name_en":"Cleburne","name_es":"Cleburne","name_fr":"Cleburne","name_it":"Cleburne","name_ru":"Cleburne","elevation":240.0,"timezone":"America/Chicago","admin1_name":"Texas"}]