[{"name":"Brooklyn Park","lat":45.09413,"lon":-93.35634,"population":79149,"iso_a3":"USA","country":"United States","is_capital":false,"name_en":"Brooklyn Park","name_es":"Brooklyn Park","name_fr":"Brooklyn Park","name_it":"Brooklyn Park","name_ru":"Бруклин-Парк","elevation":263.0,"timezone":"America/Chicago","admin1_name":"Minnesota"},{"name":"Saint Cloud","lat":45.5608,"lon":-94.16249,"population":65842,"iso_a3":"USA","country":"United States","is_capital":false,"name_en":"Saint Cloud","name_es":"Saint Cloud","name_fr":"Saint Cloud","name_it":"Saint Cloud","name_ru":"Saint Cloud","elevation":318.0,"timezone":"America/Chicago","admin1_name":"Minnesota"},{"name":"West Coon Rapids","lat":45.15969,"lon":-93.34967,"population":62528,"iso_a3":"USA","country":"United States","is_capital":false,"name_en":"West Coon Rapids","name_es":"West Coon Rapids","name_fr":"West Coon Rapids","name_it":"West Coon Rapids","name_ru":"West Coon Rapids","elevation":257.0,"timezone":"America/Chicago","admin1_name":"Minnesota"},{"name":"Coon Rapids","lat":45.11997,"lon":-93.28773,"population":62240,"iso_a3":"USA","country":"United States","is_capital":false,"name_en":"Coon Rapids","name_es":"Coon Rapids","name_fr":"Coon Rapids","name_it":"Coon Rapids","name_ru":"Кун-Рапидс","elevation":263.0,"timezone":"America/Chicago","admin1_name":"Minnesota"},{"name":"Blaine","lat":45.1608,"lon":-93.23495,"population":62124,"iso_a3":"USA","country":"United States","is_capital":false,"name_en":"Blaine","name_es":"Blaine","name_fr":"Blaine","name_it":"Blaine","name_ru":"Blaine","elevation":273.0,"timezone":"America/Chicago","admin1_name":"Minnesota"},{"name":"Andover","lat":45.2333,"lon":-93.29134,"population":32213,"iso_a3":"USA","country":"United States","is_capital":false,"name_en":"Andover","name_es":"Andover","name_fr":"Andover","name_it":"Andover","name_ru":"Андовер","elevation":269.0,"timezone":"America/Chicago","admin1_name":"Minnesota"}]