[{"name":"St. Louis","lat":38.62727,"lon":-90.19789,"population":279695,"iso_a3":"USA","country":"United States","is_capital":false,"name_en":"St Louis","name_es":"San Luis","name_fr":"Saint-Louis","name_it":"Saint Louis","name_ru":"Сент-Луис","elevation":149.0,"timezone":"America/Chicago","admin1_name":"Missouri"},{"name":"O'Fallon","lat":38.81061,"lon":-90.69985,"population":85040,"iso_a3":"USA","country":"United States","is_capital":false,"name_en":"O'Fallon","name_es":"O'Fallon","name_fr":"O'Fallon","name_it":"O'Fallon","name_ru":"O'Fallon","elevation":164.0,"timezone":"America/Chicago","admin1_name":"Missouri"},{"name":"Saint Charles","lat":38.78394,"lon":-90.48123,"population":65794,"iso_a3":"USA","country":"United States","is_capital":false,"name_en":"Saint Charles","name_es":"St. Charles","name_fr":"Saint Charles","name_it":"Saint Charles","name_ru":"Сент-Чарльз","elevation":150.0,"timezone":"America/Chicago","admin1_name":"Missouri"},{"name":"Saint Peters","lat":38.80033,"lon":-90.62651,"population":52575,"iso_a3":"USA","country":"United States","is_capital":false,"name_en":"City of Saint Peters","name_es":"City of Saint Peters","name_fr":"City of Saint Peters","name_it":"City of Saint Peters","name_ru":"Сейнт Питерс","elevation":133.0,"timezone":"America/Chicago","admin1_name":"Missouri"},{"name":"Florissant","lat":38.78922,"lon":-90.32261,"population":52268,"iso_a3":"USA","country":"United States","is_capital":false,"name_en":"Florissant","name_es":"Florissant","name_fr":"Florissant","name_it":"Florissant","name_ru":"Флориссент","elevation":176.0,"timezone":"America/Chicago","admin1_name":"Missouri"},{"name":"Chesterfield","lat":38.66311,"lon":-90.57707,"population":47864,"iso_a3":"USA","country":"United States","is_capital":false,"name_en":"Chesterfield","name_es":"Chesterfield","name_fr":"Chesterfield","name_it":"Chesterfield","name_ru":"Chesterfield","elevation":140.0,"timezone":"America/Chicago","admin1_name":"Missouri"},{"name":"Jefferson City","lat":38.5767,"lon":-92.17352,"population":42595,"iso_a3":"USA","country":"United States","is_capital":false,"name_en":"Jefferson City","name_es":"Jefferson City","name_fr":"Jefferson City","name_it":"Jefferson City","name_ru":"Джефферсон-Сити","elevation":195.0,"timezone":"America/Chicago","admin1_name":"Missouri"},{"name":"Oakville","lat":38.47005,"lon":-90.30456,"population":36143,"iso_a3":"USA","country":"United States","is_capital":false,"name_en":"Oakville","name_es":"Oakville","name_fr":"Oakville","name_it":"Oakville","name_ru":"Oakville","elevation":181.0,"timezone":"America/Chicago","admin1_name":"Missouri"},{"name":"Wildwood","lat":38.58283,"lon":-90.6629,"population":35899,"iso_a3":"USA","country":"United States","is_capital":false,"name_en":"Wildwood","name_es":"Wildwood","name_fr":"Wildwood","name_it":"Wildwood","name_ru":"Wildwood","elevation":235.0,"timezone":"America/Chicago","admin1_name":"Missouri"},{"name":"Wentzville","lat":38.81144,"lon":-90.85291,"population":35603,"iso_a3":"USA","country":"United States","is_capital":false,"name_en":"Wentzville","name_es":"Wentzville","name_fr":"Wentzville","name_it":"Wentzville","name_ru":"Wentzville","elevation":187.0,"timezone":"America/Chicago","admin1_name":"Missouri"},{"name":"University City","lat":38.65588,"lon":-90.30928,"population":35058,"iso_a3":"USA","country":"United States","is_capital":false,"name_en":"University City","name_es":"University City","name_fr":"University City","name_it":"University City","name_ru":"University City","elevation":160.0,"timezone":"America/Chicago","admin1_name":"Missouri"},{"name":"Ballwin","lat":38.59505,"lon":-90.54623,"population":30577,"iso_a3":"USA","country":"United States","is_capital":false,"name_en":"Ballwin","name_es":"Ballwin","name_fr":"Ballwin","name_it":"Ballwin","name_ru":"Ballwin","elevation":194.0,"timezone":"America/Chicago","admin1_name":"Missouri"}]