[{"name":"New Orleans","lat":29.95465,"lon":-90.07507,"population":362701,"iso_a3":"USA","country":"United States","is_capital":false,"name_en":"New Orleans","name_es":"Nueva Orleans","name_fr":"New Orleans","name_it":"New Orleans","name_ru":"Новый Орлеан","elevation":18.0,"timezone":"America/Chicago","admin1_name":"Louisiana"},{"name":"Baton Rouge","lat":30.44332,"lon":-91.18747,"population":227470,"iso_a3":"USA","country":"United States","is_capital":false,"name_en":"Baton Rouge","name_es":"Baton Rouge","name_fr":"Bâton-Rouge","name_it":"Baton Rouge","name_ru":"Батон-Руж","elevation":20.0,"timezone":"America/Chicago","admin1_name":"Louisiana"},{"name":"Metairie","lat":29.98409,"lon":-90.15285,"population":138481,"iso_a3":"USA","country":"United States","is_capital":false,"name_en":"Metairie","name_es":"Metairie","name_fr":"Metairie","name_it":"Metairie","name_ru":"Metairie","elevation":9.0,"timezone":"America/Chicago","admin1_name":"Louisiana"},{"name":"Lafayette","lat":30.22409,"lon":-92.01984,"population":121374,"iso_a3":"USA","country":"United States","is_capital":false,"name_en":"Lafayette","name_es":"Lafayette","name_fr":"Lafayette","name_it":"Lafayette","name_ru":"Лафайет","elevation":15.0,"timezone":"America/Chicago","admin1_name":"Louisiana"},{"name":"Kenner","lat":29.99409,"lon":-90.24174,"population":67091,"iso_a3":"USA","country":"United States","is_capital":false,"name_en":"Kenner","name_es":"Kenner","name_fr":"Kenner","name_it":"Kenner","name_ru":"Кеннер","elevation":5.0,"timezone":"America/Chicago","admin1_name":"Louisiana"},{"name":"Alexandria","lat":31.31129,"lon":-92.44514,"population":47889,"iso_a3":"USA","country":"United States","is_capital":false,"name_en":"Alexandria","name_es":"Alexandria","name_fr":"Alexandria","name_it":"Alexandria","name_ru":"Александрия","elevation":27.0,"timezone":"America/Chicago","admin1_name":"Louisiana"},{"name":"Houma","lat":29.59577,"lon":-90.71953,"population":34287,"iso_a3":"USA","country":"United States","is_capital":false,"name_en":"Houma","name_es":"Houma","name_fr":"Houma","name_it":"Houma","name_ru":"Houma","elevation":5.0,"timezone":"America/Chicago","admin1_name":"Louisiana"},{"name":"Marrero","lat":29.89937,"lon":-90.10035,"population":33141,"iso_a3":"USA","country":"United States","is_capital":false,"name_en":"Marrero","name_es":"Marrero","name_fr":"Marrero","name_it":"Marrero","name_ru":"Марреро","elevation":4.0,"timezone":"America/Chicago","admin1_name":"Louisiana"},{"name":"New Iberia","lat":30.00354,"lon":-91.81873,"population":30754,"iso_a3":"USA","country":"United States","is_capital":false,"name_en":"New Iberia","name_es":"Nueva Iberia","name_fr":"La Nouvelle-Ibérie","name_it":"New Iberia","name_ru":"New Iberia","elevation":10.0,"timezone":"America/Chicago","admin1_name":"Louisiana"}]