[{"name":"San Cristóbal de las Casas","lat":16.73006,"lon":-92.63825,"population":215874,"iso_a3":"MEX","country":"Mexico","is_capital":false,"name_en":"San Cristóbal de las Casas","name_es":"San Cristóbal de las Casas","name_fr":"San Cristóbal de las Casas","name_it":"San Cristóbal de las Casas","name_ru":"San Cristóbal de las Casas","elevation":2183.0,"timezone":"America/Merida","admin1_name":"Chiapas"},{"name":"Ciudad del Carmen","lat":18.64592,"lon":-91.82991,"population":191238,"iso_a3":"MEX","country":"Mexico","is_capital":false,"name_en":"Ciudad del Carmen","name_es":"Ciudad del Carmen","name_fr":"Ciudad del Carmen","name_it":"Ciudad del Carmen","name_ru":"Сьюдад-дель-Кармен","elevation":6.0,"timezone":"America/Merida","admin1_name":"Campeche"},{"name":"Palenque","lat":17.50914,"lon":-91.98125,"population":42947,"iso_a3":"MEX","country":"Mexico","is_capital":false,"name_en":"Palenque/Temp","name_es":"Ruinas de Palenque","name_fr":"Palenque","name_it":"Palenque","name_ru":"Паленке","elevation":94.0,"timezone":"America/Merida","admin1_name":"Chiapas"},{"name":"Ocosingo","lat":16.90634,"lon":-92.09349,"population":41878,"iso_a3":"MEX","country":"Mexico","is_capital":false,"name_en":"Ocosingo","name_es":"Ocosingo","name_fr":"Ocosingo","name_it":"Ocosingo","name_ru":"Ocosingo","elevation":882.0,"timezone":"America/Mexico_City","admin1_name":"Chiapas"},{"name":"Tenosique","lat":17.4729,"lon":-91.4236,"population":32579,"iso_a3":"MEX","country":"Mexico","is_capital":false,"name_en":"Tenosique","name_es":"Tenosique","name_fr":"Tenosique","name_it":"Tenosique","name_ru":"Tenosique","elevation":33.0,"timezone":"America/Mexico_City","admin1_name":"Tabasco"},{"name":"Macuspana","lat":17.76052,"lon":-92.59539,"population":32225,"iso_a3":"MEX","country":"Mexico","is_capital":false,"name_en":"Macuspana","name_es":"Macuspana","name_fr":"Macuspana","name_it":"Macuspana","name_ru":"Сан-Франциско Макушпана","elevation":15.0,"timezone":"America/Mexico_City","admin1_name":"Tabasco"}]