[{"name":"Peoria","lat":40.69365,"lon":-89.58899,"population":115070,"iso_a3":"USA","country":"United States","is_capital":false,"name_en":"Peoria","name_es":"Peoria","name_fr":"Peoria","name_it":"Peoria","name_ru":"Пеория","elevation":165.0,"timezone":"America/Chicago","admin1_name":"Illinois"},{"name":"Springfield","lat":39.80172,"lon":-89.64371,"population":114394,"iso_a3":"USA","country":"United States","is_capital":false,"name_en":"Springfield","name_es":"Springfield","name_fr":"Springfield","name_it":"Springfield","name_ru":"Спрингфилд","elevation":184.0,"timezone":"America/Chicago","admin1_name":"Illinois"},{"name":"Bloomington","lat":40.4842,"lon":-88.99369,"population":78292,"iso_a3":"USA","country":"United States","is_capital":false,"name_en":"Bloomington","name_es":"Bloomington","name_fr":"Bloomington","name_it":"Bloomington","name_ru":"Блумингтон","elevation":246.0,"timezone":"America/Chicago","admin1_name":"Illinois"},{"name":"Decatur","lat":39.84031,"lon":-88.9548,"population":73254,"iso_a3":"USA","country":"United States","is_capital":false,"name_en":"Decatur","name_es":"Decatur","name_fr":"Decatur","name_it":"Decatur","name_ru":"Декейтер","elevation":206.0,"timezone":"America/Chicago","admin1_name":"Illinois"},{"name":"Terre Haute","lat":39.4667,"lon":-87.41391,"population":60825,"iso_a3":"USA","country":"United States","is_capital":false,"name_en":"Terre Haute","name_es":"Terre Haute","name_fr":"Terre Haute","name_it":"Terre Haute","name_ru":"Терре-Хот","elevation":152.0,"timezone":"America/Indiana/Indianapolis","admin1_name":"Indiana"},{"name":"Urbana","lat":40.11059,"lon":-88.20727,"population":42311,"iso_a3":"USA","country":"United States","is_capital":false,"name_en":"Urbana","name_es":"Urbana","name_fr":"Urbana","name_it":"Urbana","name_ru":"Урбана","elevation":229.0,"timezone":"America/Chicago","admin1_name":"Illinois"},{"name":"Pekin","lat":40.56754,"lon":-89.64066,"population":33223,"iso_a3":"USA","country":"United States","is_capital":false,"name_en":"Pekin","name_es":"Pekin","name_fr":"Pekin","name_it":"Pekin","name_ru":"Пекин","elevation":155.0,"timezone":"America/Chicago","admin1_name":"Illinois"},{"name":"Danville","lat":40.12448,"lon":-87.63002,"population":32108,"iso_a3":"USA","country":"United States","is_capital":false,"name_en":"Danville","name_es":"Danville","name_fr":"Danville","name_it":"Danville","name_ru":"Данвилл","elevation":189.0,"timezone":"America/Chicago","admin1_name":"Illinois"}]