[{"name":"Mobile","lat":30.69436,"lon":-88.04305,"population":183289,"iso_a3":"USA","country":"United States","is_capital":false,"name_en":"Mobile","name_es":"Mobile","name_fr":"Mobile","name_it":"Mobile","name_ru":"Мобил","elevation":12.0,"timezone":"America/Chicago","admin1_name":"Alabama"},{"name":"Gulfport","lat":30.36742,"lon":-89.09282,"population":71856,"iso_a3":"USA","country":"United States","is_capital":false,"name_en":"Gulfport","name_es":"Gulfport","name_fr":"Gulfport","name_it":"Gulfport","name_ru":"Галфпорта","elevation":12.0,"timezone":"America/Chicago","admin1_name":"Mississippi"},{"name":"Pensacola","lat":30.42131,"lon":-87.21691,"population":53724,"iso_a3":"USA","country":"United States","is_capital":false,"name_en":"Pensacola","name_es":"Pensacola","name_fr":"Pensacola","name_it":"Pensacola","name_ru":"Пенсакола","elevation":24.0,"timezone":"America/Chicago","admin1_name":"Florida"},{"name":"Hattiesburg","lat":31.32712,"lon":-89.29034,"population":46805,"iso_a3":"USA","country":"United States","is_capital":false,"name_en":"Hattiesburg","name_es":"Hattiesburg","name_fr":"Hattiesburg","name_it":"Hattiesburg","name_ru":"Hattiesburg","elevation":54.0,"timezone":"America/Chicago","admin1_name":"Mississippi"},{"name":"Biloxi","lat":30.39603,"lon":-88.88531,"population":45637,"iso_a3":"USA","country":"United States","is_capital":false,"name_en":"Biloxi","name_es":"Biloxi","name_fr":"Biloxi","name_it":"Biloxi","name_ru":"Билокси","elevation":7.0,"timezone":"America/Chicago","admin1_name":"Mississippi"}]