[{"name":"Huntsville","lat":34.7304,"lon":-86.58594,"population":215006,"iso_a3":"USA","country":"United States","is_capital":false,"name_en":"Huntsville","name_es":"Huntsville","name_fr":"Huntsville","name_it":"Huntsville","name_ru":"Хантсвилл","elevation":200.0,"timezone":"America/Chicago","admin1_name":"Alabama"},{"name":"Chattanooga","lat":35.04563,"lon":-85.30968,"population":181099,"iso_a3":"USA","country":"United States","is_capital":false,"name_en":"Chattanooga","name_es":"Chattanooga","name_fr":"Chattanooga","name_it":"Chattanooga","name_ru":"Чаттануга","elevation":208.0,"timezone":"America/New_York","admin1_name":"Tennessee"},{"name":"Murfreesboro","lat":35.84562,"lon":-86.39027,"population":165430,"iso_a3":"USA","country":"United States","is_capital":false,"name_en":"Murfreesboro","name_es":"Murfreesboro","name_fr":"Murfreesboro","name_it":"Murfreesboro","name_ru":"Мерфрисборо","elevation":191.0,"timezone":"America/Chicago","admin1_name":"Tennessee"},{"name":"East Chattanooga","lat":35.06535,"lon":-85.24912,"population":154024,"iso_a3":"USA","country":"United States","is_capital":false,"name_en":"East Chattanooga","name_es":"East Chattanooga","name_fr":"East Chattanooga","name_it":"East Chattanooga","name_ru":"East Chattanooga","elevation":208.0,"timezone":"America/New_York","admin1_name":"Tennessee"},{"name":"Franklin","lat":35.92506,"lon":-86.86889,"population":72639,"iso_a3":"USA","country":"United States","is_capital":false,"name_en":"Franklin","name_es":"Franklin","name_fr":"Franklin","name_it":"Franklin","name_ru":"Франклин","elevation":201.0,"timezone":"America/Chicago","admin1_name":"Tennessee"},{"name":"Hendersonville","lat":36.30477,"lon":-86.62,"population":56018,"iso_a3":"USA","country":"United States","is_capital":false,"name_en":"Hendersonville","name_es":"Hendersonville","name_fr":"Hendersonville","name_it":"Hendersonville","name_ru":"Hendersonville","elevation":148.0,"timezone":"America/Chicago","admin1_name":"Tennessee"},{"name":"Decatur","lat":34.60593,"lon":-86.98334,"population":55437,"iso_a3":"USA","country":"United States","is_capital":false,"name_en":"Decatur","name_es":"Decatur","name_fr":"Decatur","name_it":"Decatur","name_ru":"Декейтер","elevation":175.0,"timezone":"America/Chicago","admin1_name":"Alabama"},{"name":"Madison","lat":34.69926,"lon":-86.74833,"population":46962,"iso_a3":"USA","country":"United States","is_capital":false,"name_en":"Madison","name_es":"Madison","name_fr":"Madison","name_it":"Madison","name_ru":"Мадисон","elevation":217.0,"timezone":"America/Chicago","admin1_name":"Alabama"},{"name":"Smyrna","lat":35.98284,"lon":-86.5186,"population":46607,"iso_a3":"USA","country":"United States","is_capital":false,"name_en":"Smyrna","name_es":"Smyrna","name_fr":"Smyrna","name_it":"Smyrna","name_ru":"Смирна","elevation":167.0,"timezone":"America/Chicago","admin1_name":"Tennessee"},{"name":"Cleveland","lat":35.15952,"lon":-84.87661,"population":43898,"iso_a3":"USA","country":"United States","is_capital":false,"name_en":"Cleveland","name_es":"Cleveland","name_fr":"Cleveland","name_it":"Cleveland","name_ru":"Кливленд","elevation":261.0,"timezone":"America/New_York","admin1_name":"Tennessee"},{"name":"Brentwood","lat":36.03312,"lon":-86.78278,"population":41763,"iso_a3":"USA","country":"United States","is_capital":false,"name_en":"Brentwood","name_es":"Brentwood","name_fr":"Brentwood","name_it":"Brentwood","name_ru":"Brentwood","elevation":231.0,"timezone":"America/Chicago","admin1_name":"Tennessee"},{"name":"Hermitage","lat":36.19617,"lon":-86.6225,"population":37814,"iso_a3":"USA","country":"United States","is_capital":false,"name_en":"Hermitage","name_es":"Hermitage","name_fr":"Hermitage","name_it":"Hermitage","name_ru":"Hermitage","elevation":149.0,"timezone":"America/Chicago","admin1_name":"Tennessee"},{"name":"Columbia","lat":35.61507,"lon":-87.03528,"population":36800,"iso_a3":"USA","country":"United States","is_capital":false,"name_en":"Columbia","name_es":"Columbia","name_fr":"Columbia","name_it":"Columbia","name_ru":"Колумбия","elevation":199.0,"timezone":"America/Chicago","admin1_name":"Tennessee"},{"name":"Spring Hill","lat":35.75118,"lon":-86.93,"population":36055,"iso_a3":"USA","country":"United States","is_capital":false,"name_en":"Spring Hill","name_es":"Spring Hill","name_fr":"Spring Hill","name_it":"Spring Hill","name_ru":"Спринг-Хилл","elevation":231.0,"timezone":"America/Chicago","admin1_name":"Tennessee"},{"name":"La Vergne","lat":36.01562,"lon":-86.58194,"population":34794,"iso_a3":"USA","country":"United States","is_capital":false,"name_en":"La Vergne","name_es":"La Vergne","name_fr":"La Vergne","name_it":"La Vergne","name_ru":"La Vergne","elevation":179.0,"timezone":"America/Chicago","admin1_name":"Tennessee"},{"name":"Gallatin","lat":36.38838,"lon":-86.44666,"population":34334,"iso_a3":"USA","country":"United States","is_capital":false,"name_en":"Gallatin","name_es":"Gallatin","name_fr":"Gallatin","name_it":"Gallatin","name_ru":"Gallatin","elevation":168.0,"timezone":"America/Chicago","admin1_name":"Tennessee"},{"name":"Dalton","lat":34.7698,"lon":-84.97022,"population":33853,"iso_a3":"USA","country":"United States","is_capital":false,"name_en":"Dalton","name_es":"Dalton","name_fr":"Dalton","name_it":"Dalton","name_ru":"Далтон","elevation":232.0,"timezone":"America/New_York","admin1_name":"Georgia"},{"name":"Cookeville","lat":36.16284,"lon":-85.50164,"population":32113,"iso_a3":"USA","country":"United States","is_capital":false,"name_en":"Cookeville","name_es":"Cookeville","name_fr":"Cookeville","name_it":"Cookeville","name_ru":"Cookeville","elevation":338.0,"timezone":"America/Chicago","admin1_name":"Tennessee"},{"name":"Mount Juliet","lat":36.20005,"lon":-86.51861,"population":31540,"iso_a3":"USA","country":"United States","is_capital":false,"name_en":"Mount Juliet","name_es":"Mount Juliet","name_fr":"Mount Juliet","name_it":"Mount Juliet","name_ru":"Mount Juliet","elevation":168.0,"timezone":"America/Chicago","admin1_name":"Tennessee"},{"name":"Lebanon","lat":36.20811,"lon":-86.2911,"population":30262,"iso_a3":"USA","country":"United States","is_capital":false,"name_en":"Lebanon","name_es":"Lebanon","name_fr":"Lebanon","name_it":"Lebanon","name_ru":"Lebanon","elevation":161.0,"timezone":"America/Chicago","admin1_name":"Tennessee"}]