[{"name":"Limón","lat":9.99074,"lon":-83.03596,"population":63081,"iso_a3":"CRI","country":"Costa Rica","is_capital":false,"name_en":"Puerto Limón","name_es":"Ciudad de Limón","name_fr":"Puerto Limón","name_it":"Limón","name_ru":"Пуэрто-Лимон","elevation":29.0,"timezone":"America/Costa_Rica","admin1_name":"Limón Province"},{"name":"Alajuela","lat":10.01723,"lon":-84.21275,"population":47494,"iso_a3":"CRI","country":"Costa Rica","is_capital":false,"name_en":"Alajuela","name_es":"Alajuela","name_fr":"Alajuela","name_it":"Alajuela","name_ru":"Алахуэла","elevation":955.0,"timezone":"America/Costa_Rica","admin1_name":"Alajuela Province"},{"name":"Paraíso","lat":9.83847,"lon":-83.86655,"population":39702,"iso_a3":"CRI","country":"Costa Rica","is_capital":false,"name_en":"Paraíso","name_es":"Paraíso","name_fr":"Paraíso","name_it":"Paraíso","name_ru":"Paraíso","elevation":1306.0,"timezone":"America/Costa_Rica","admin1_name":"Cartago Province"},{"name":"San Isidro","lat":9.3674,"lon":-83.69713,"population":34877,"iso_a3":"CRI","country":"Costa Rica","is_capital":false,"name_en":"San Isidro de El General","name_es":"San Isidro de El General","name_fr":"San Isidro de El General","name_it":"San Isidro de El General","name_ru":"San Isidro de El General","elevation":713.0,"timezone":"America/Costa_Rica","admin1_name":"San José"},{"name":"Curridabat","lat":9.9139,"lon":-84.03595,"population":34586,"iso_a3":"CRI","country":"Costa Rica","is_capital":false,"name_en":"Curridabat","name_es":"Curridabat","name_fr":"Curridabat","name_it":"Curridabat","name_ru":"Curridabat","elevation":1192.0,"timezone":"America/Costa_Rica","admin1_name":"San José"},{"name":"San Vicente de Moravia","lat":9.96164,"lon":-84.0488,"population":34447,"iso_a3":"CRI","country":"Costa Rica","is_capital":false,"name_en":"San Vicente de Moravia","name_es":"San Vicente de Moravia","name_fr":"San Vicente de Moravia","name_it":"San Vicente de Moravia","name_ru":"San Vicente de Moravia","elevation":1235.0,"timezone":"America/Costa_Rica","admin1_name":"San José"},{"name":"David","lat":8.42729,"lon":-82.43085,"population":81957,"iso_a3":"PAN","country":"Panama","is_capital":false,"name_en":"David","name_es":"David","name_fr":"David","name_it":"David","name_ru":"Дэвид","elevation":47.0,"timezone":"America/Panama","admin1_name":"Chiriquí Province"}]