[{"name":"Santa Clara","lat":22.40711,"lon":-79.96581,"population":250512,"iso_a3":"CUB","country":"Cuba","is_capital":false,"name_en":"Santa Clara","name_es":"Santa Clara","name_fr":"Santa Clara","name_it":"Santa Clara","name_ru":"Санта Клара","elevation":132.0,"timezone":"America/Havana","admin1_name":"Villa Clara Province"},{"name":"Cienfuegos","lat":22.14681,"lon":-80.4481,"population":186644,"iso_a3":"CUB","country":"Cuba","is_capital":false,"name_en":"Cienfuegos","name_es":"Cienfuegos","name_fr":"Cienfuegos","name_it":"Cienfuegos","name_ru":"Сьенфуэгос","elevation":18.0,"timezone":"America/Havana","admin1_name":"Cienfuegos Province"},{"name":"Cárdenas","lat":23.03661,"lon":-81.20596,"population":98515,"iso_a3":"CUB","country":"Cuba","is_capital":false,"name_en":"Cárdenas","name_es":"Cárdenas","name_fr":"Cárdenas","name_it":"Cárdenas","name_ru":"Карденас","elevation":9.0,"timezone":"America/Havana","admin1_name":"Matanzas Province"},{"name":"Colón","lat":22.72064,"lon":-80.90492,"population":63882,"iso_a3":"CUB","country":"Cuba","is_capital":false,"name_en":"Colón","name_es":"Colón","name_fr":"Colón","name_it":"Colón","name_ru":"Colón","elevation":60.0,"timezone":"America/Havana","admin1_name":"Matanzas Province"},{"name":"Sagua la Grande","lat":22.80667,"lon":-80.07556,"population":62073,"iso_a3":"CUB","country":"Cuba","is_capital":false,"name_en":"Sagua la Grande","name_es":"Sagua la Grande","name_fr":"Sagua la Grande","name_it":"Sagua la Grande","name_ru":"Sagua la Grande","elevation":13.0,"timezone":"America/Havana","admin1_name":"Villa Clara Province"},{"name":"Placetas","lat":22.31184,"lon":-79.6544,"population":55408,"iso_a3":"CUB","country":"Cuba","is_capital":false,"name_en":"Placetas","name_es":"Placetas","name_fr":"Placetas","name_it":"Placetas","name_ru":"Placetas","elevation":201.0,"timezone":"America/Havana","admin1_name":"Villa Clara Province"},{"name":"Jagüey Grande","lat":22.52694,"lon":-81.12861,"population":54363,"iso_a3":"CUB","country":"Cuba","is_capital":false,"name_en":"Jagüey Grande","name_es":"Jagüey Grande","name_fr":"Jagüey Grande","name_it":"Jagüey Grande","name_ru":"Jagüey Grande","elevation":16.0,"timezone":"America/Havana","admin1_name":"Matanzas Province"},{"name":"Corralillo","lat":22.98212,"lon":-80.58556,"population":51881,"iso_a3":"CUB","country":"Cuba","is_capital":false,"name_en":"Corralillo","name_es":"Corralillo","name_fr":"Corralillo","name_it":"Corralillo","name_ru":"Corralillo","elevation":27.0,"timezone":"America/Havana","admin1_name":"Villa Clara Province"},{"name":"Jovellanos","lat":22.80375,"lon":-81.19127,"population":47164,"iso_a3":"CUB","country":"Cuba","is_capital":false,"name_en":"Jovellanos","name_es":"Jovellanos","name_fr":"Jovellanos","name_it":"Jovellanos","name_ru":"Jovellanos","elevation":42.0,"timezone":"America/Havana","admin1_name":"Matanzas Province"},{"name":"Santo Domingo","lat":22.58677,"lon":-80.24261,"population":45476,"iso_a3":"CUB","country":"Cuba","is_capital":false,"name_en":"Santo Domingo","name_es":"Santo Domingo","name_fr":"Santo Domingo","name_it":"Santo Domingo","name_ru":"Santo Domingo","elevation":51.0,"timezone":"America/Havana","admin1_name":"Villa Clara Province"},{"name":"Cabaiguán","lat":22.07874,"lon":-79.49726,"population":44515,"iso_a3":"CUB","country":"Cuba","is_capital":false,"name_en":"Cabaiguán","name_es":"Cabaiguán","name_fr":"Cabaiguán","name_it":"Cabaiguán","name_ru":"Cabaiguán","elevation":133.0,"timezone":"America/Havana","admin1_name":"Sancti Spíritus Province"},{"name":"Ranchuelo","lat":22.37266,"lon":-80.15046,"population":43695,"iso_a3":"CUB","country":"Cuba","is_capital":false,"name_en":"Ranchuelo","name_es":"Ranchuelo","name_fr":"Ranchuelo","name_it":"Ranchuelo","name_ru":"Ranchuelo","elevation":108.0,"timezone":"America/Havana","admin1_name":"Villa Clara Province"},{"name":"Yaguajay","lat":22.32691,"lon":-79.23567,"population":42218,"iso_a3":"CUB","country":"Cuba","is_capital":false,"name_en":"Yaguajay","name_es":"Yaguajay","name_fr":"Yaguajay","name_it":"Yaguajay","name_ru":"Yaguajay","elevation":29.0,"timezone":"America/Havana","admin1_name":"Sancti Spíritus Province"},{"name":"Manicaragua","lat":22.15021,"lon":-79.97867,"population":41532,"iso_a3":"CUB","country":"Cuba","is_capital":false,"name_en":"Manicaragua","name_es":"Manicaragua","name_fr":"Manicaragua","name_it":"Manicaragua","name_ru":"Manicaragua","elevation":144.0,"timezone":"America/Havana","admin1_name":"Villa Clara Province"},{"name":"Cifuentes","lat":22.6493,"lon":-80.04935,"population":40142,"iso_a3":"CUB","country":"Cuba","is_capital":false,"name_en":"Cifuentes","name_es":"Cifuentes","name_fr":"Cifuentes","name_it":"Cifuentes","name_ru":"Cifuentes","elevation":63.0,"timezone":"America/Havana","admin1_name":"Villa Clara Province"},{"name":"Caibarién","lat":22.51996,"lon":-79.46599,"population":39140,"iso_a3":"CUB","country":"Cuba","is_capital":false,"name_en":"Caibarién","name_es":"Caibarién","name_fr":"Caibarién","name_it":"Caibarién","name_ru":"Caibarién","elevation":3.0,"timezone":"America/Havana","admin1_name":"Villa Clara Province"},{"name":"Cumanayagua","lat":22.15247,"lon":-80.20354,"population":38687,"iso_a3":"CUB","country":"Cuba","is_capital":false,"name_en":"Cumanayagua","name_es":"Cumanayagua","name_fr":"Cumanayagua","name_it":"Cumanayagua","name_ru":"Cumanayagua","elevation":60.0,"timezone":"America/Havana","admin1_name":"Cienfuegos Province"},{"name":"Remedios","lat":22.49502,"lon":-79.54548,"population":34108,"iso_a3":"CUB","country":"Cuba","is_capital":false,"name_en":"Remedios","name_es":"Remedios","name_fr":"Remedios","name_it":"Remedios","name_ru":"Ремедиос","elevation":22.0,"timezone":"America/Havana","admin1_name":"Villa Clara Province"},{"name":"Unión de Reyes","lat":22.79505,"lon":-81.53617,"population":33646,"iso_a3":"CUB","country":"Cuba","is_capital":false,"name_en":"Unión de Reyes","name_es":"Unión de Reyes","name_fr":"Unión de Reyes","name_it":"Unión de Reyes","name_ru":"Unión de Reyes","elevation":57.0,"timezone":"America/Havana","admin1_name":"Matanzas Province"}]