[{"name":"San Miguelito","lat":9.05032,"lon":-79.47068,"population":321501,"iso_a3":"PAN","country":"Panama","is_capital":false,"name_en":"San Miguelito","name_es":"San Miguelito","name_fr":"San Miguelito","name_it":"San Miguelito","name_ru":"San Miguelito","elevation":57.0,"timezone":"America/Panama","admin1_name":"Panamá"},{"name":"Arraiján","lat":8.9398,"lon":-79.64038,"population":76815,"iso_a3":"PAN","country":"Panama","is_capital":false,"name_en":"Arraiján","name_es":"Arraiján","name_fr":"Arraiján","name_it":"Arraiján","name_ru":"Arraiján","elevation":123.0,"timezone":"America/Panama","admin1_name":"Panamá Oeste Province"},{"name":"Colón","lat":9.36025,"lon":-79.90019,"population":76643,"iso_a3":"PAN","country":"Panama","is_capital":false,"name_en":"Colón","name_es":"Ciudad de Colón","name_fr":"Colón","name_it":"Colón","name_ru":"Колон","elevation":2.0,"timezone":"America/Panama","admin1_name":"Colón"},{"name":"La Chorrera","lat":8.87763,"lon":-79.78007,"population":61232,"iso_a3":"PAN","country":"Panama","is_capital":false,"name_en":"La Chorrera","name_es":"La Chorrera","name_fr":"La Chorrera","name_it":"La Chorrera","name_ru":"La Chorrera","elevation":70.0,"timezone":"America/Panama","admin1_name":"Panamá Oeste Province"},{"name":"Tocumen","lat":9.08939,"lon":-79.3831,"population":50844,"iso_a3":"PAN","country":"Panama","is_capital":false,"name_en":"Tocumen","name_es":"Tocumen","name_fr":"Tocumen","name_it":"Tocumen","name_ru":"Токумен","elevation":35.0,"timezone":"America/Panama","admin1_name":"Panamá"},{"name":"Chilibre","lat":9.15403,"lon":-79.62019,"population":33536,"iso_a3":"PAN","country":"Panama","is_capital":false,"name_en":"Chilibre","name_es":"Chilibre","name_fr":"Chilibre","name_it":"Chilibre","name_ru":"Chilibre","elevation":61.0,"timezone":"America/Panama","admin1_name":"Panamá"}]