[{"name":"Arlington","lat":38.88101,"lon":-77.10428,"population":207627,"iso_a3":"USA","country":"United States","is_capital":false,"name_en":"Arlington","name_es":"Arlington","name_fr":"Arlington","name_it":"Arlington","name_ru":"Арлингтон","elevation":83.0,"timezone":"America/New_York","admin1_name":"Virginia"},{"name":"Germantown","lat":39.17316,"lon":-77.27165,"population":86395,"iso_a3":"USA","country":"United States","is_capital":false,"name_en":"Germantown","name_es":"Germantown","name_fr":"Germantown","name_it":"Germantown","name_ru":"Джермантаун","elevation":137.0,"timezone":"America/New_York","admin1_name":"Maryland"},{"name":"Silver Spring","lat":38.99067,"lon":-77.02609,"population":71452,"iso_a3":"USA","country":"United States","is_capital":false,"name_en":"Silver Spring","name_es":"Silver Spring","name_fr":"Silver Spring","name_it":"Silver Spring","name_ru":"Силвер-Спринг","elevation":106.0,"timezone":"America/New_York","admin1_name":"Maryland"},{"name":"Centreville","lat":38.84039,"lon":-77.42888,"population":71135,"iso_a3":"USA","country":"United States","is_capital":false,"name_en":"Centreville","name_es":"Centreville","name_fr":"Centreville","name_it":"Centreville","name_ru":"Centreville","elevation":110.0,"timezone":"America/New_York","admin1_name":"Virginia"},{"name":"Frederick","lat":39.41427,"lon":-77.41054,"population":69479,"iso_a3":"USA","country":"United States","is_capital":false,"name_en":"Frederick","name_es":"Frederick","name_fr":"Frederick","name_it":"Frederick","name_ru":"Фредерик","elevation":90.0,"timezone":"America/New_York","admin1_name":"Maryland"},{"name":"Glen Burnie","lat":39.16261,"lon":-76.62469,"population":67639,"iso_a3":"USA","country":"United States","is_capital":false,"name_en":"Glen Burnie","name_es":"Glen Burnie","name_fr":"Glen Burnie","name_it":"Glen Burnie","name_ru":"Glen Burnie","elevation":19.0,"timezone":"America/New_York","admin1_name":"Maryland"},{"name":"Gaithersburg","lat":39.14344,"lon":-77.20137,"population":67456,"iso_a3":"USA","country":"United States","is_capital":false,"name_en":"Gaithersburg","name_es":"Gaithersburg","name_fr":"Gaithersburg","name_it":"Gaithersburg","name_ru":"Гейтерсберг","elevation":153.0,"timezone":"America/New_York","admin1_name":"Maryland"},{"name":"Rockville","lat":39.084,"lon":-77.15276,"population":66980,"iso_a3":"USA","country":"United States","is_capital":false,"name_en":"Rockville","name_es":"Rockville","name_fr":"Rockville","name_it":"Rockville","name_ru":"Роквилл","elevation":140.0,"timezone":"America/New_York","admin1_name":"Maryland"},{"name":"Ellicott City","lat":39.26733,"lon":-76.79831,"population":65834,"iso_a3":"USA","country":"United States","is_capital":false,"name_en":"Ellicott City","name_es":"Ellicott City","name_fr":"Ellicott City","name_it":"Ellicott City","name_ru":"Ellicott City","elevation":55.0,"timezone":"America/New_York","admin1_name":"Maryland"},{"name":"Dundalk","lat":39.25066,"lon":-76.52052,"population":63597,"iso_a3":"USA","country":"United States","is_capital":false,"name_en":"Dundalk","name_es":"Dundalk","name_fr":"Dundalk","name_it":"Dundalk","name_ru":"Дандолк","elevation":10.0,"timezone":"America/New_York","admin1_name":"Maryland"},{"name":"Bethesda","lat":38.98067,"lon":-77.10026,"population":60858,"iso_a3":"USA","country":"United States","is_capital":false,"name_en":"Bethesda","name_es":"Bethesda","name_fr":"Bethesda","name_it":"Bethesda","name_ru":"Бетесда","elevation":97.0,"timezone":"America/New_York","admin1_name":"Maryland"},{"name":"Lancaster","lat":40.03788,"lon":-76.30551,"population":59339,"iso_a3":"USA","country":"United States","is_capital":false,"name_en":"Lancaster","name_es":"Lancaster","name_fr":"Lancaster","name_it":"Lancaster","name_ru":"Ланкастер","elevation":116.0,"timezone":"America/New_York","admin1_name":"Pennsylvania"},{"name":"Reston","lat":38.96872,"lon":-77.3411,"population":58404,"iso_a3":"USA","country":"United States","is_capital":false,"name_en":"Reston","name_es":"Reston","name_fr":"Reston","name_it":"Reston","name_ru":"Рестон","elevation":102.0,"timezone":"America/New_York","admin1_name":"Virginia"},{"name":"Bowie","lat":38.94278,"lon":-76.73028,"population":58025,"iso_a3":"USA","country":"United States","is_capital":false,"name_en":"Bowie","name_es":"Bowie","name_fr":"Bowie","name_it":"Bowie","name_ru":"Боуи","elevation":43.0,"timezone":"America/New_York","admin1_name":"Maryland"},{"name":"Towson","lat":39.4015,"lon":-76.60191,"population":55197,"iso_a3":"USA","country":"United States","is_capital":false,"name_en":"Towson","name_es":"Towson","name_fr":"Towson","name_it":"Towson","name_ru":"Towson","elevation":148.0,"timezone":"America/New_York","admin1_name":"Maryland"},{"name":"Leesburg","lat":39.11566,"lon":-77.5636,"population":51209,"iso_a3":"USA","country":"United States","is_capital":false,"name_en":"Leesburg","name_es":"Leesburg","name_fr":"Leesburg","name_it":"Leesburg","name_ru":"Leesburg","elevation":103.0,"timezone":"America/New_York","admin1_name":"Virginia"},{"name":"Harrisburg","lat":40.2737,"lon":-76.88442,"population":50183,"iso_a3":"USA","country":"United States","is_capital":false,"name_en":"Harrisburg","name_es":"Harrisburg","name_fr":"Harrisburg","name_it":"Harrisburg","name_ru":"Гаррисберг","elevation":105.0,"timezone":"America/New_York","admin1_name":"Pennsylvania"},{"name":"Aspen Hill","lat":39.07955,"lon":-77.07303,"population":48759,"iso_a3":"USA","country":"United States","is_capital":false,"name_en":"Aspen Hill","name_es":"Aspen Hill","name_fr":"Aspen Hill","name_it":"Aspen Hill","name_ru":"Aspen Hill","elevation":99.0,"timezone":"America/New_York","admin1_name":"Maryland"},{"name":"McLean","lat":38.93428,"lon":-77.17748,"population":48115,"iso_a3":"USA","country":"United States","is_capital":false,"name_en":"McLean","name_es":"McLean","name_fr":"McLean","name_it":"McLean","name_ru":"Маклин","elevation":91.0,"timezone":"America/New_York","admin1_name":"Virginia"},{"name":"Bel Air South","lat":39.50506,"lon":-76.31977,"population":47709,"iso_a3":"USA","country":"United States","is_capital":false,"name_en":"Bel Air South","name_es":"Bel Air South","name_fr":"Bel Air South","name_it":"Bel Air South","name_ru":"Bel Air South","elevation":96.0,"timezone":"America/New_York","admin1_name":"Maryland"},{"name":"Gwynn Oak","lat":39.33261,"lon":-76.69275,"population":47092,"iso_a3":"USA","country":"United States","is_capital":false,"name_en":"Gwynn Oak","name_es":"Gwynn Oak","name_fr":"Gwynn Oak","name_it":"Gwynn Oak","name_ru":"Gwynn Oak","elevation":135.0,"timezone":"America/New_York","admin1_name":"Maryland"},{"name":"Altoona","lat":40.51868,"lon":-78.39474,"population":45344,"iso_a3":"USA","country":"United States","is_capital":false,"name_en":"Altoona","name_es":"Altoona","name_fr":"Altoona","name_it":"Altoona","name_ru":"Алтуна","elevation":359.0,"timezone":"America/New_York","admin1_name":"Pennsylvania"},{"name":"Potomac","lat":39.01817,"lon":-77.20859,"population":44965,"iso_a3":"USA","country":"United States","is_capital":false,"name_en":"Potomac","name_es":"Potomac","name_fr":"Potomac","name_it":"Potomac","name_ru":"Потомак","elevation":108.0,"timezone":"America/New_York","admin1_name":"Maryland"},{"name":"Severn","lat":39.13705,"lon":-76.6983,"population":44231,"iso_a3":"USA","country":"United States","is_capital":false,"name_en":"Severn","name_es":"Severn","name_fr":"Severn","name_it":"Severn","name_ru":"Северн","elevation":49.0,"timezone":"America/New_York","admin1_name":"Maryland"},{"name":"York","lat":39.9626,"lon":-76.72774,"population":43992,"iso_a3":"USA","country":"United States","is_capital":false,"name_en":"York","name_es":"York","name_fr":"York","name_it":"York","name_ru":"Йорк","elevation":123.0,"timezone":"America/New_York","admin1_name":"Pennsylvania"},{"name":"North Bethesda","lat":39.04455,"lon":-77.11887,"population":43828,"iso_a3":"USA","country":"United States","is_capital":false,"name_en":"North Bethesda","name_es":"North Bethesda","name_fr":"North Bethesda","name_it":"North Bethesda","name_ru":"Норт Бетесда","elevation":121.0,"timezone":"America/New_York","admin1_name":"Maryland"},{"name":"Ashburn","lat":39.04372,"lon":-77.48749,"population":43511,"iso_a3":"USA","country":"United States","is_capital":false,"name_en":"Ashburn","name_es":"Ashburn","name_fr":"Ashburn","name_it":"Ashburn","name_ru":"Ашберн","elevation":89.0,"timezone":"America/New_York","admin1_name":"Virginia"},{"name":"State College","lat":40.79339,"lon":-77.86,"population":42161,"iso_a3":"USA","country":"United States","is_capital":false,"name_en":"State College","name_es":"State College","name_fr":"State College","name_it":"State College","name_ru":"Стейт-Колледж","elevation":351.0,"timezone":"America/New_York","admin1_name":"Pennsylvania"},{"name":"Catonsville","lat":39.27205,"lon":-76.73192,"population":41567,"iso_a3":"USA","country":"United States","is_capital":false,"name_en":"Catonsville","name_es":"Catonsville","name_fr":"Catonsville","name_it":"Catonsville","name_ru":"Кейтонсвилл","elevation":146.0,"timezone":"America/New_York","admin1_name":"Maryland"},{"name":"Annandale","lat":38.83039,"lon":-77.19637,"population":41008,"iso_a3":"USA","country":"United States","is_capital":false,"name_en":"Annandale","name_es":"Annandale","name_fr":"Annandale","name_it":"Annandale","name_ru":"Annandale","elevation":110.0,"timezone":"America/New_York","admin1_name":"Virginia"},{"name":"Annapolis","lat":38.97859,"lon":-76.49184,"population":40812,"iso_a3":"USA","country":"United States","is_capital":false,"name_en":"Annapolis","name_es":"Annapolis","name_fr":"Annapolis","name_it":"Annapolis","name_ru":"Аннаполис","elevation":16.0,"timezone":"America/New_York","admin1_name":"Maryland"},{"name":"Hagerstown","lat":39.64176,"lon":-77.71999,"population":40432,"iso_a3":"USA","country":"United States","is_capital":false,"name_en":"Hagerstown","name_es":"Hagerstown","name_fr":"Hagerstown","name_it":"Hagerstown","name_ru":"Хейгерстаун","elevation":168.0,"timezone":"America/New_York","admin1_name":"Maryland"},{"name":"Essex","lat":39.30927,"lon":-76.47496,"population":39262,"iso_a3":"USA","country":"United States","is_capital":false,"name_en":"Essex","name_es":"Essex","name_fr":"Essex","name_it":"Essex","name_ru":"Эссекс","elevation":15.0,"timezone":"America/New_York","admin1_name":"Maryland"},{"name":"Hanover","lat":39.19289,"lon":-76.72414,"population":38088,"iso_a3":"USA","country":"United States","is_capital":false,"name_en":"Hanover","name_es":"Hanover","name_fr":"Hanover","name_it":"Hanover","name_ru":"Hanover","elevation":32.0,"timezone":"America/New_York","admin1_name":"Maryland"},{"name":"Severna Park","lat":39.07039,"lon":-76.54524,"population":37634,"iso_a3":"USA","country":"United States","is_capital":false,"name_en":"Severna Park","name_es":"Severna Park","name_fr":"Severna Park","name_it":"Severna Park","name_ru":"Severna Park","elevation":14.0,"timezone":"America/New_York","admin1_name":"Maryland"},{"name":"Odenton","lat":39.084,"lon":-76.70025,"population":37132,"iso_a3":"USA","country":"United States","is_capital":false,"name_en":"Odenton","name_es":"Odenton","name_fr":"Odenton","name_it":"Odenton","name_ru":"Odenton","elevation":47.0,"timezone":"America/New_York","admin1_name":"Maryland"},{"name":"Oakton","lat":38.88095,"lon":-77.30082,"population":34166,"iso_a3":"USA","country":"United States","is_capital":false,"name_en":"Oakton","name_es":"Oakton","name_fr":"Oakton","name_it":"Oakton","name_ru":"Oakton","elevation":128.0,"timezone":"America/New_York","admin1_name":"Virginia"},{"name":"Olney","lat":39.15316,"lon":-77.06692,"population":33844,"iso_a3":"USA","country":"United States","is_capital":false,"name_en":"Olney","name_es":"Olney","name_fr":"Olney","name_it":"Olney","name_ru":"Олни","elevation":162.0,"timezone":"America/New_York","admin1_name":"Maryland"},{"name":"Oak Hill","lat":38.9258,"lon":-77.40156,"population":33811,"iso_a3":"USA","country":"United States","is_capital":false,"name_en":"Oak Hill","name_es":"Oak Hill","name_fr":"Oak Hill","name_it":"Oak Hill","name_ru":"Oak Hill","elevation":106.0,"timezone":"America/New_York","admin1_name":"Virginia"},{"name":"Suitland-Silver Hill","lat":38.84685,"lon":-76.92591,"population":33515,"iso_a3":"USA","country":"United States","is_capital":false,"name_en":"Suitland-Silver Hill","name_es":"Silver Hill","name_fr":"Suitland-Silver Hill","name_it":"Suitland-Silver Hill","name_ru":"Suitland-Silver Hill","elevation":86.0,"timezone":"America/New_York","admin1_name":"Maryland"},{"name":"Randallstown","lat":39.36733,"lon":-76.79525,"population":32430,"iso_a3":"USA","country":"United States","is_capital":false,"name_en":"Randallstown","name_es":"Randallstown","name_fr":"Randallstown","name_it":"Randallstown","name_ru":"Рандалстаун","elevation":175.0,"timezone":"America/New_York","admin1_name":"Maryland"},{"name":"College Park","lat":38.98067,"lon":-76.93692,"population":32301,"iso_a3":"USA","country":"United States","is_capital":false,"name_en":"College Park","name_es":"College Park","name_fr":"College Park","name_it":"College Park","name_ru":"College Park","elevation":25.0,"timezone":"America/New_York","admin1_name":"Maryland"},{"name":"Pikesville","lat":39.37427,"lon":-76.72247,"population":30764,"iso_a3":"USA","country":"United States","is_capital":false,"name_en":"Pikesville","name_es":"Pikesville","name_fr":"Pikesville","name_it":"Pikesville","name_ru":"Пайксвилль","elevation":153.0,"timezone":"America/New_York","admin1_name":"Maryland"},{"name":"Parkville","lat":39.37733,"lon":-76.53969,"population":30734,"iso_a3":"USA","country":"United States","is_capital":false,"name_en":"Parkville","name_es":"Parkville","name_fr":"Parkville","name_it":"Parkville","name_ru":"Parkville","elevation":104.0,"timezone":"America/New_York","admin1_name":"Maryland"},{"name":"Owings Mills","lat":39.41955,"lon":-76.78025,"population":30622,"iso_a3":"USA","country":"United States","is_capital":false,"name_en":"Owings Mills","name_es":"Owings Mills","name_fr":"Owings Mills","name_it":"Owings Mills","name_ru":"Owings Mills","elevation":152.0,"timezone":"America/New_York","admin1_name":"Maryland"},{"name":"Bel Air North","lat":39.55429,"lon":-76.37309,"population":30568,"iso_a3":"USA","country":"United States","is_capital":false,"name_en":"Bel Air North","name_es":"Bel Air North","name_fr":"Bel Air North","name_it":"Bel Air North","name_ru":"Bel Air North","elevation":136.0,"timezone":"America/New_York","admin1_name":"Maryland"},{"name":"Eldersburg","lat":39.40371,"lon":-76.95026,"population":30531,"iso_a3":"USA","country":"United States","is_capital":false,"name_en":"Eldersburg","name_es":"Eldersburg","name_fr":"Eldersburg","name_it":"Eldersburg","name_ru":"Eldersburg","elevation":197.0,"timezone":"America/New_York","admin1_name":"Maryland"}]