[{"name":"Raleigh","lat":35.7721,"lon":-78.63861,"population":482295,"iso_a3":"USA","country":"United States","is_capital":false,"name_en":"Raleigh","name_es":"Raleigh","name_fr":"Raleigh","name_it":"Raleigh","name_ru":"Роли","elevation":99.0,"timezone":"America/New_York","admin1_name":"North Carolina"},{"name":"Greenville","lat":35.61266,"lon":-77.36635,"population":90597,"iso_a3":"USA","country":"United States","is_capital":false,"name_en":"Greenville","name_es":"Greenville","name_fr":"Greenville","name_it":"Greenville","name_ru":"Гринвилл","elevation":19.0,"timezone":"America/New_York","admin1_name":"North Carolina"},{"name":"Jacksonville","lat":34.75405,"lon":-77.43024,"population":67357,"iso_a3":"USA","country":"United States","is_capital":false,"name_en":"Jacksonville","name_es":"Jacksonville","name_fr":"Jacksonville","name_it":"Jacksonville","name_ru":"Джексонвилл","elevation":7.0,"timezone":"America/New_York","admin1_name":"North Carolina"},{"name":"Rocky Mount","lat":35.93821,"lon":-77.79053,"population":55806,"iso_a3":"USA","country":"United States","is_capital":false,"name_en":"Rocky Mount","name_es":"Rocky Mount","name_fr":"Rocky Mount","name_it":"Rocky Mount","name_ru":"Роки-Маунт","elevation":33.0,"timezone":"America/New_York","admin1_name":"North Carolina"},{"name":"Wilson","lat":35.72127,"lon":-77.91554,"population":49643,"iso_a3":"USA","country":"United States","is_capital":false,"name_en":"Wilson","name_es":"Wilson","name_fr":"Wilson","name_it":"Wilson","name_ru":"Уилсон","elevation":40.0,"timezone":"America/New_York","admin1_name":"North Carolina"},{"name":"Wake Forest","lat":35.97987,"lon":-78.50972,"population":38199,"iso_a3":"USA","country":"United States","is_capital":false,"name_en":"Wake Forest","name_es":"Wake Forest","name_fr":"Wake Forest","name_it":"Wake Forest","name_ru":"Wake Forest","elevation":120.0,"timezone":"America/New_York","admin1_name":"North Carolina"},{"name":"Goldsboro","lat":35.38488,"lon":-77.99277,"population":35826,"iso_a3":"USA","country":"United States","is_capital":false,"name_en":"Goldsboro","name_es":"Goldsboro","name_fr":"Goldsboro","name_it":"Goldsboro","name_ru":"Голдсборо","elevation":35.0,"timezone":"America/New_York","admin1_name":"North Carolina"},{"name":"New Bern","lat":35.10849,"lon":-77.04411,"population":30070,"iso_a3":"USA","country":"United States","is_capital":false,"name_en":"New Bern","name_es":"New Bern","name_fr":"New Bern","name_it":"New Bern","name_ru":"Нью-Берн","elevation":6.0,"timezone":"America/New_York","admin1_name":"North Carolina"}]