[{"name":"Pasto","lat":1.21456,"lon":-77.27846,"population":392930,"iso_a3":"COL","country":"Colombia","is_capital":false,"name_en":"Pasto","name_es":"Pasto","name_fr":"Pasto","name_it":"Pasto","name_ru":"Pasto","elevation":2569.0,"timezone":"America/Bogota","admin1_name":"Nariño"},{"name":"Popayán","lat":2.43823,"lon":-76.61316,"population":318059,"iso_a3":"COL","country":"Colombia","is_capital":false,"name_en":"Popayán","name_es":"Popayán","name_fr":"Popayán","name_it":"Popayán","name_ru":"Попаян","elevation":1725.0,"timezone":"America/Bogota","admin1_name":"Cauca Department"},{"name":"Pitalito","lat":1.85371,"lon":-76.05071,"population":135711,"iso_a3":"COL","country":"Colombia","is_capital":false,"name_en":"Pitalito","name_es":"Pitalito","name_fr":"Pitalito","name_it":"Pitalito","name_ru":"Питалито","elevation":1265.0,"timezone":"America/Bogota","admin1_name":"Huila Department"},{"name":"Ipiales","lat":0.82501,"lon":-77.63966,"population":77729,"iso_a3":"COL","country":"Colombia","is_capital":false,"name_en":"Ipiales","name_es":"Ipiales","name_fr":"Ipiales","name_it":"Ipiales","name_ru":"Ипьялес","elevation":2904.0,"timezone":"America/Bogota","admin1_name":"Nariño"},{"name":"Orito","lat":0.66749,"lon":-76.87297,"population":57774,"iso_a3":"COL","country":"Colombia","is_capital":false,"name_en":"Orito","name_es":"Orito","name_fr":"Orito","name_it":"Orito","name_ru":"Orito","elevation":349.0,"timezone":"America/Bogota","admin1_name":"Putumayo Department"},{"name":"Mocoa","lat":1.15284,"lon":-76.65208,"population":56398,"iso_a3":"COL","country":"Colombia","is_capital":false,"name_en":"Mocoa","name_es":"Mocoa","name_fr":"Mocoa","name_it":"Mocoa","name_ru":"Мокоа","elevation":612.0,"timezone":"America/Bogota","admin1_name":"Putumayo Department"},{"name":"Samaniego","lat":1.33849,"lon":-77.5957,"population":49085,"iso_a3":"COL","country":"Colombia","is_capital":false,"name_en":"Samaniego","name_es":"Samaniego","name_fr":"Samaniego","name_it":"Samaniego","name_ru":"Samaniego","elevation":1459.0,"timezone":"America/Bogota","admin1_name":"Nariño"},{"name":"Piendamo","lat":2.63918,"lon":-76.53055,"population":44000,"iso_a3":"COL","country":"Colombia","is_capital":false,"name_en":"Piendamo","name_es":"Piendamo","name_fr":"Piendamo","name_it":"Piendamo","name_ru":"Piendamo","elevation":1868.0,"timezone":"America/Bogota","admin1_name":"Cauca Department"},{"name":"Túquerres","lat":1.08647,"lon":-77.61858,"population":40038,"iso_a3":"COL","country":"Colombia","is_capital":false,"name_en":"Túquerres","name_es":"Túquerres","name_fr":"Túquerres","name_it":"Túquerres","name_ru":"Túquerres","elevation":3048.0,"timezone":"America/Bogota","admin1_name":"Nariño"},{"name":"Patía","lat":2.06895,"lon":-77.05273,"population":37781,"iso_a3":"COL","country":"Colombia","is_capital":false,"name_en":"Patía","name_es":"Patía","name_fr":"Patía","name_it":"Patía","name_ru":"Patía","elevation":619.0,"timezone":"America/Bogota","admin1_name":"Cauca Department"},{"name":"Belalcázar","lat":2.64644,"lon":-75.97269,"population":36977,"iso_a3":"COL","country":"Colombia","is_capital":false,"name_en":"Belalcázar","name_es":"Páez","name_fr":"Belalcázar","name_it":"Belalcázar","name_ru":"Belalcázar","elevation":1441.0,"timezone":"America/Bogota","admin1_name":"Cauca Department"},{"name":"Ibarra","lat":0.34881,"lon":-78.12462,"population":221149,"iso_a3":"ECU","country":"Ecuador","is_capital":false,"name_en":"Ibarra","name_es":"Ibarra","name_fr":"Ibarra","name_it":"Ibarra","name_ru":"Ибарра","elevation":2192.0,"timezone":"America/Guayaquil","admin1_name":"Imbabura"},{"name":"Tulcán","lat":0.8124,"lon":-77.71709,"population":86498,"iso_a3":"ECU","country":"Ecuador","is_capital":false,"name_en":"Tulcán","name_es":"Tulcán","name_fr":"Tulcán","name_it":"Tulcán","name_ru":"Тулькан","elevation":2962.0,"timezone":"America/Guayaquil","admin1_name":"Carchi"},{"name":"Otavalo","lat":0.23457,"lon":-78.26248,"population":32330,"iso_a3":"ECU","country":"Ecuador","is_capital":false,"name_en":"Otavalo","name_es":"Otavalo","name_fr":"Otavalo","name_it":"Otavalo","name_ru":"Отавало","elevation":2532.0,"timezone":"America/Guayaquil","admin1_name":"Imbabura"}]