[{"name":"Cajamarca","lat":-7.16378,"lon":-78.50027,"population":201329,"iso_a3":"PER","country":"Peru","is_capital":false,"name_en":"Cajamarca","name_es":"Cajamarca","name_fr":"Cajamarca","name_it":"Cajamarca","name_ru":"Кахамарка","elevation":2684.0,"timezone":"America/Lima","admin1_name":"Cajamarca Department"},{"name":"Moyobamba","lat":-6.03441,"lon":-76.97423,"population":50073,"iso_a3":"PER","country":"Peru","is_capital":false,"name_en":"Moyobamba","name_es":"Moyobamba","name_fr":"Moyobamba","name_it":"Moyobamba","name_ru":"Мойобамба","elevation":741.0,"timezone":"America/Lima","admin1_name":"San Martín Department"},{"name":"Yurimaguas","lat":-5.90181,"lon":-76.12234,"population":41827,"iso_a3":"PER","country":"Peru","is_capital":false,"name_en":"Yurimaguas","name_es":"Yurimaguas","name_fr":"Yurimaguas","name_it":"Yurimaguas","name_ru":"Юримагуас","elevation":143.0,"timezone":"America/Lima","admin1_name":"Loreto"},{"name":"Juanjuí","lat":-7.17697,"lon":-76.72774,"population":37715,"iso_a3":"PER","country":"Peru","is_capital":false,"name_en":"Juanjuí","name_es":"Juanjuí","name_fr":"Juanjuí","name_it":"Juanjuí","name_ru":"Хуанхуи","elevation":278.0,"timezone":"America/Lima","admin1_name":"San Martín Department"},{"name":"Chachapoyas","lat":-6.23169,"lon":-77.86903,"population":32026,"iso_a3":"PER","country":"Peru","is_capital":false,"name_en":"Chachapoyas","name_es":"Chachapoyas","name_fr":"Chachapoyas","name_it":"Chachapoyas","name_ru":"Чачапояс","elevation":2360.0,"timezone":"America/Lima","admin1_name":"Amazonas"}]