[{"name":"Huancayo","lat":-12.06866,"lon":-75.21027,"population":456250,"iso_a3":"PER","country":"Peru","is_capital":false,"name_en":"Huancayo","name_es":"Huancayo","name_fr":"Huancayo","name_it":"Huancayo","name_ru":"Уанкайо","elevation":3596.0,"timezone":"America/Lima","admin1_name":"Junin"},{"name":"Ayacucho","lat":-13.1638,"lon":-74.22345,"population":140033,"iso_a3":"PER","country":"Peru","is_capital":false,"name_en":"Ayacucho","name_es":"Ayacucho","name_fr":"Ayacucho","name_it":"Ayacucho","name_ru":"Аякучо","elevation":2805.0,"timezone":"America/Lima","admin1_name":"Ayacucho"},{"name":"Tarma","lat":-11.41899,"lon":-75.68992,"population":51350,"iso_a3":"PER","country":"Peru","is_capital":false,"name_en":"Tarma","name_es":"Tarma","name_fr":"Tarma","name_it":"Tarma","name_ru":"Тарма","elevation":3055.0,"timezone":"America/Lima","admin1_name":"Junin"},{"name":"Huancavelica","lat":-12.78691,"lon":-74.97298,"population":49570,"iso_a3":"PER","country":"Peru","is_capital":false,"name_en":"Huancavelica","name_es":"Huancavelica","name_fr":"Huancavelica","name_it":"Huancavelica","name_ru":"Уанкавелика","elevation":3990.0,"timezone":"America/Lima","admin1_name":"Huancavelica"},{"name":"La Oroya","lat":-11.51893,"lon":-75.89935,"population":33345,"iso_a3":"PER","country":"Peru","is_capital":false,"name_en":"La Oroya","name_es":"La Oroya","name_fr":"La Oroya","name_it":"La Oroya","name_ru":"Ла-Оройа","elevation":3765.0,"timezone":"America/Lima","admin1_name":"Junin"}]