[{"name":"Puerto Plata","lat":19.79344,"lon":-70.6884,"population":146000,"iso_a3":"DOM","country":"Dominican Republic","is_capital":false,"name_en":"Puerto Plata","name_es":"San Felipe de Puerto Plata","name_fr":"Puerto Plata","name_it":"San Felipe de Puerto Plata","name_ru":"Сан-Фелипе-де-Пуэрто-Плата","elevation":34.0,"timezone":"America/Santo_Domingo","admin1_name":"Puerto Plata"},{"name":"Moca","lat":19.39289,"lon":-70.52347,"population":61834,"iso_a3":"DOM","country":"Dominican Republic","is_capital":false,"name_en":"Moca","name_es":"Moca","name_fr":"Moca","name_it":"Moca","name_ru":"Moca","elevation":185.0,"timezone":"America/Santo_Domingo","admin1_name":"Espaillat Province"},{"name":"Mao","lat":19.54908,"lon":-71.07808,"population":48297,"iso_a3":"DOM","country":"Dominican Republic","is_capital":false,"name_en":"Mao","name_es":"Mao","name_fr":"Mao","name_it":"Mao","name_ru":"Мао","elevation":76.0,"timezone":"America/Santo_Domingo","admin1_name":"Valverde Province"},{"name":"Salcedo","lat":19.37766,"lon":-70.41719,"population":45299,"iso_a3":"DOM","country":"Dominican Republic","is_capital":false,"name_en":"Salcedo","name_es":"Salcedo","name_fr":"Salcedo","name_it":"Salcedo","name_ru":"Salcedo","elevation":179.0,"timezone":"America/Santo_Domingo","admin1_name":"Hermanas Mirabal"},{"name":"Esperanza","lat":19.58469,"lon":-70.98489,"population":42169,"iso_a3":"DOM","country":"Dominican Republic","is_capital":false,"name_en":"Esperanza","name_es":"Esperanza","name_fr":"Esperanza","name_it":"Esperanza","name_ru":"Esperanza","elevation":113.0,"timezone":"America/Santo_Domingo","admin1_name":"Valverde Province"},{"name":"Villa Bisonó","lat":19.56378,"lon":-70.87582,"population":33137,"iso_a3":"DOM","country":"Dominican Republic","is_capital":false,"name_en":"Villa Bisonó","name_es":"Villa Bisonó","name_fr":"Villa Bisonó","name_it":"Villa Bisonó","name_ru":"Villa Bisonó","elevation":131.0,"timezone":"America/Santo_Domingo","admin1_name":"Santiago Province"},{"name":"Port-de-Paix","lat":19.93984,"lon":-72.83037,"population":306217,"iso_a3":"HTI","country":"Haiti","is_capital":false,"name_en":"Port-de-Paix","name_es":"Port-de-Paix","name_fr":"Port-de-Paix","name_it":"Port-de-Paix","name_ru":"Пор-де-Пе","elevation":11.0,"timezone":"America/Port-au-Prince","admin1_name":"Nord-Ouest"},{"name":"Cap-Haïtien","lat":19.75938,"lon":-72.19815,"population":134815,"iso_a3":"HTI","country":"Haiti","is_capital":false,"name_en":"Cap-Haïtien","name_es":"Cabo Haitiano","name_fr":"Cap-Haïtien","name_it":"Cap-Haïtien","name_ru":"Кап-Аитьене","elevation":7.0,"timezone":"America/Port-au-Prince","admin1_name":"Nord"},{"name":"Saint-Michel de l'Atalaye","lat":19.37084,"lon":-72.33472,"population":95216,"iso_a3":"HTI","country":"Haiti","is_capital":false,"name_en":"Saint-Michel de l'Atalaye","name_es":"Saint-Michel de l'Atalaye","name_fr":"Saint-Michel de l'Atalaye","name_it":"Saint-Michel de l'Atalaye","name_ru":"Saint-Michel de l'Atalaye","elevation":430.0,"timezone":"America/Port-au-Prince","admin1_name":"Artibonite"},{"name":"Gonaïves","lat":19.44755,"lon":-72.68928,"population":84961,"iso_a3":"HTI","country":"Haiti","is_capital":false,"name_en":"Gonaïves","name_es":"Gonaïves","name_fr":"Les Gonaïves","name_it":"Gonaïves","name_ru":"Гонаив","elevation":5.0,"timezone":"America/Port-au-Prince","admin1_name":"Artibonite"},{"name":"Saint-Raphaël","lat":19.43877,"lon":-72.1991,"population":37739,"iso_a3":"HTI","country":"Haiti","is_capital":false,"name_en":"Saint-Raphaël","name_es":"Saint-Raphaël","name_fr":"Saint-Raphaël","name_it":"Saint-Raphaël","name_ru":"Saint-Raphaël","elevation":377.0,"timezone":"America/Port-au-Prince","admin1_name":"Nord"},{"name":"Lenbe","lat":19.70603,"lon":-72.40336,"population":32645,"iso_a3":"HTI","country":"Haiti","is_capital":false,"name_en":"Lenbe","name_es":"Lenbe","name_fr":"Lenbe","name_it":"Lenbe","name_ru":"Лимбе","elevation":34.0,"timezone":"America/Port-au-Prince","admin1_name":"Nord"}]