[{"name":"Tabatinga","lat":-4.23116,"lon":-69.93858,"population":72283,"iso_a3":"BRA","country":"Brazil","is_capital":false,"name_en":"Tabatinga","name_es":"Tabatinga","name_fr":"Tabatinga","name_it":"Tabatinga","name_ru":"Tabatinga","elevation":80.0,"timezone":"America/Manaus","admin1_name":"Amazonas"},{"name":"Benjamin Constant","lat":-4.37555,"lon":-70.03179,"population":40509,"iso_a3":"BRA","country":"Brazil","is_capital":false,"name_en":"Benjamin Constant","name_es":"Benjamin Constant","name_fr":"Benjamin Constant","name_it":"Benjamin Constant","name_ru":"Бенжамин-Констант","elevation":68.0,"timezone":"America/Eirunepe","admin1_name":"Amazonas"},{"name":"São Paulo de Olivença","lat":-3.37833,"lon":-68.8725,"population":35196,"iso_a3":"BRA","country":"Brazil","is_capital":false,"name_en":"São Paulo de Olivença","name_es":"São Paulo de Olivença","name_fr":"São Paulo de Olivença","name_it":"São Paulo de Olivença","name_ru":"São Paulo de Olivença","elevation":73.0,"timezone":"America/Manaus","admin1_name":"Amazonas"},{"name":"Santo Antônio do Içá","lat":-3.10222,"lon":-67.93972,"population":30448,"iso_a3":"BRA","country":"Brazil","is_capital":false,"name_en":"Santo Antônio do Içá","name_es":"Santo Antônio do Içá","name_fr":"Santo Antônio do Içá","name_it":"Santo Antônio do Içá","name_ru":"Santo Antônio do Içá","elevation":68.0,"timezone":"America/Manaus","admin1_name":"Amazonas"},{"name":"Leticia","lat":-4.21079,"lon":-69.93944,"population":48144,"iso_a3":"COL","country":"Colombia","is_capital":false,"name_en":"Leticia","name_es":"Leticia","name_fr":"Leticia","name_it":"Leticia","name_ru":"Летиция","elevation":84.0,"timezone":"America/Bogota","admin1_name":"Amazonas Department"}]