[{"name":"Manacapuru","lat":-3.29972,"lon":-60.62056,"population":110691,"iso_a3":"BRA","country":"Brazil","is_capital":false,"name_en":"Manacapuru","name_es":"Manacapuru","name_fr":"Manacapuru","name_it":"Manacapuru","name_ru":"Манакапуру","elevation":34.0,"timezone":"America/Manaus","admin1_name":"Amazonas"},{"name":"Iranduba","lat":-3.28472,"lon":-60.18611,"population":67114,"iso_a3":"BRA","country":"Brazil","is_capital":false,"name_en":"Iranduba","name_es":"Iranduba","name_fr":"Iranduba","name_it":"Iranduba","name_ru":"Iranduba","elevation":29.0,"timezone":"America/Manaus","admin1_name":"Amazonas"},{"name":"Autazes","lat":-3.57972,"lon":-59.13056,"population":45328,"iso_a3":"BRA","country":"Brazil","is_capital":false,"name_en":"Autazes","name_es":"Autazes","name_fr":"Autazes","name_it":"Autazes","name_ru":"Autazes","elevation":23.0,"timezone":"America/Manaus","admin1_name":"Amazonas"},{"name":"Borba","lat":-4.39143,"lon":-59.58864,"population":34879,"iso_a3":"BRA","country":"Brazil","is_capital":false,"name_en":"Borba","name_es":"Borba","name_fr":"Borba","name_it":"Borba","name_ru":"Борба","elevation":30.0,"timezone":"America/Manaus","admin1_name":"Amazonas"},{"name":"Careiro","lat":-3.76806,"lon":-60.36917,"population":32442,"iso_a3":"BRA","country":"Brazil","is_capital":false,"name_en":"Careiro","name_es":"Careiro","name_fr":"Careiro","name_it":"Careiro","name_ru":"Careiro","elevation":25.0,"timezone":"America/Manaus","admin1_name":"Amazonas"}]