[{"name":"Guarapuava","lat":-25.39048,"lon":-51.46541,"population":182093,"iso_a3":"BRA","country":"Brazil","is_capital":false,"name_en":"Guarapuava","name_es":"Guarapuava","name_fr":"Guarapuava","name_it":"Guarapuava","name_ru":"Гуарапуава","elevation":1090.0,"timezone":"America/Sao_Paulo","admin1_name":"Paraná"},{"name":"Francisco Beltrão","lat":-26.08111,"lon":-53.055,"population":96666,"iso_a3":"BRA","country":"Brazil","is_capital":false,"name_en":"Francisco Beltrão","name_es":"Francisco Beltrão","name_fr":"Francisco Beltrão","name_it":"Francisco Beltrão","name_ru":"Белтран-Франциско","elevation":567.0,"timezone":"America/Sao_Paulo","admin1_name":"Paraná"},{"name":"Pato Branco","lat":-26.22861,"lon":-52.67056,"population":91836,"iso_a3":"BRA","country":"Brazil","is_capital":false,"name_en":"Pato Branco","name_es":"Pato Branco","name_fr":"Pato Branco","name_it":"Pato Branco","name_ru":"Пату-Бранку","elevation":769.0,"timezone":"America/Sao_Paulo","admin1_name":"Paraná"},{"name":"Caçador","lat":-26.77528,"lon":-51.015,"population":73720,"iso_a3":"BRA","country":"Brazil","is_capital":false,"name_en":"Caçador","name_es":"Caçador","name_fr":"Caçador","name_it":"Caçador","name_ru":"Касадор","elevation":916.0,"timezone":"America/Sao_Paulo","admin1_name":"Santa Catarina"},{"name":"Irati","lat":-25.46722,"lon":-50.65111,"population":59250,"iso_a3":"BRA","country":"Brazil","is_capital":false,"name_en":"Irati","name_es":"Irati","name_fr":"Irati","name_it":"Irati","name_ru":"Irati","elevation":848.0,"timezone":"America/Sao_Paulo","admin1_name":"Paraná"},{"name":"Videira","lat":-27.00833,"lon":-51.15167,"population":55466,"iso_a3":"BRA","country":"Brazil","is_capital":false,"name_en":"Videira","name_es":"Videira","name_fr":"Videira","name_it":"Videira","name_ru":"Видейра","elevation":747.0,"timezone":"America/Sao_Paulo","admin1_name":"Santa Catarina"},{"name":"União da Vitória","lat":-26.23,"lon":-51.08639,"population":55033,"iso_a3":"BRA","country":"Brazil","is_capital":false,"name_en":"União da Vitória","name_es":"União da Vitória","name_fr":"União da Vitória","name_it":"União da Vitória","name_ru":"Униан-да-Витория","elevation":759.0,"timezone":"America/Sao_Paulo","admin1_name":"Paraná"},{"name":"Xanxerê","lat":-26.87694,"lon":-52.40417,"population":51607,"iso_a3":"BRA","country":"Brazil","is_capital":false,"name_en":"Xanxerê","name_es":"Xanxerê","name_fr":"Xanxerê","name_it":"Xanxerê","name_ru":"Xanxerê","elevation":796.0,"timezone":"America/Sao_Paulo","admin1_name":"Santa Catarina"},{"name":"Prudentópolis","lat":-25.21306,"lon":-50.97778,"population":49393,"iso_a3":"BRA","country":"Brazil","is_capital":false,"name_en":"Prudentópolis","name_es":"Prudentópolis","name_fr":"Prudentópolis","name_it":"Prudentópolis","name_ru":"Prudentópolis","elevation":765.0,"timezone":"America/Sao_Paulo","admin1_name":"Paraná"},{"name":"Palmas","lat":-26.48417,"lon":-51.99056,"population":48247,"iso_a3":"BRA","country":"Brazil","is_capital":false,"name_en":"Palmas","name_es":"Palmas","name_fr":"Palmas","name_it":"Palmas","name_ru":"Пальмас","elevation":1075.0,"timezone":"America/Sao_Paulo","admin1_name":"Paraná"},{"name":"Dois Vizinhos","lat":-25.73361,"lon":-53.05722,"population":44869,"iso_a3":"BRA","country":"Brazil","is_capital":false,"name_en":"Dois Vizinhos","name_es":"Dois Vizinhos","name_fr":"Dois Vizinhos","name_it":"Dois Vizinhos","name_ru":"Дойс-Визиньюс","elevation":562.0,"timezone":"America/Sao_Paulo","admin1_name":"Paraná"},{"name":"Pitanga","lat":-24.75722,"lon":-51.76139,"population":33567,"iso_a3":"BRA","country":"Brazil","is_capital":false,"name_en":"Pitanga","name_es":"Pitanga","name_fr":"Pitanga","name_it":"Pitanga","name_ru":"Питанга","elevation":889.0,"timezone":"America/Sao_Paulo","admin1_name":"Paraná"},{"name":"Fraiburgo","lat":-27.02611,"lon":-50.92139,"population":33481,"iso_a3":"BRA","country":"Brazil","is_capital":false,"name_en":"Fraiburgo","name_es":"Fraiburgo","name_fr":"Fraiburgo","name_it":"Fraiburgo","name_ru":"Fraiburgo","elevation":1034.0,"timezone":"America/Sao_Paulo","admin1_name":"Santa Catarina"},{"name":"Laranjeiras do Sul","lat":-25.40778,"lon":-52.41611,"population":32227,"iso_a3":"BRA","country":"Brazil","is_capital":false,"name_en":"Laranjeiras do Sul","name_es":"Laranjeiras do Sul","name_fr":"Laranjeiras do Sul","name_it":"Laranjeiras do Sul","name_ru":"Laranjeiras do Sul","elevation":846.0,"timezone":"America/Sao_Paulo","admin1_name":"Paraná"},{"name":"Xaxim","lat":-26.96167,"lon":-52.53472,"population":31918,"iso_a3":"BRA","country":"Brazil","is_capital":false,"name_en":"Xaxim","name_es":"Xaxim","name_fr":"Xaxim","name_it":"Xaxim","name_ru":"Xaxim","elevation":767.0,"timezone":"America/Sao_Paulo","admin1_name":"Santa Catarina"},{"name":"Quedas do Iguaçu","lat":-25.45303,"lon":-52.90464,"population":30738,"iso_a3":"BRA","country":"Brazil","is_capital":false,"name_en":"Quedas do Iguaçu","name_es":"Quedas do Iguaçu","name_fr":"Quedas do Iguaçu","name_it":"Quedas do Iguaçu","name_ru":"Quedas do Iguaçu","elevation":564.0,"timezone":"America/Sao_Paulo","admin1_name":"Paraná"}]