[{"name":"Ananindeua","lat":-1.36556,"lon":-48.37222,"population":433956,"iso_a3":"BRA","country":"Brazil","is_capital":false,"name_en":"Ananindeua","name_es":"Ananindeua","name_fr":"Ananindeua","name_it":"Ananindeua","name_ru":"Ананиндеуа","elevation":19.0,"timezone":"America/Belem","admin1_name":"Pará"},{"name":"Castanhal","lat":-1.29389,"lon":-47.92639,"population":192256,"iso_a3":"BRA","country":"Brazil","is_capital":false,"name_en":"Castanhal","name_es":"Castanhal","name_fr":"Castanhal","name_it":"Castanhal","name_ru":"Кастаньял","elevation":46.0,"timezone":"America/Belem","admin1_name":"Pará"},{"name":"Abaetetuba","lat":-1.71806,"lon":-48.8825,"population":158188,"iso_a3":"BRA","country":"Brazil","is_capital":false,"name_en":"Abaetetuba","name_es":"Abaetetuba","name_fr":"Abaetetuba","name_it":"Abaetetuba","name_ru":"Abaetetuba","elevation":9.0,"timezone":"America/Belem","admin1_name":"Pará"},{"name":"Cametá","lat":-2.24444,"lon":-49.49583,"population":134184,"iso_a3":"BRA","country":"Brazil","is_capital":false,"name_en":"Cametá","name_es":"Cametá","name_fr":"Cametá","name_it":"Cametá","name_ru":"Cametá","elevation":11.0,"timezone":"America/Belem","admin1_name":"Pará"},{"name":"Barcarena","lat":-1.50583,"lon":-48.62583,"population":126650,"iso_a3":"BRA","country":"Brazil","is_capital":false,"name_en":"Barcarena","name_es":"Barcarena","name_fr":"Barcarena","name_it":"Barcarena","name_ru":"Barcarena","elevation":9.0,"timezone":"America/Belem","admin1_name":"Pará"},{"name":"Breves","lat":-1.68222,"lon":-50.48028,"population":106968,"iso_a3":"BRA","country":"Brazil","is_capital":false,"name_en":"Breves","name_es":"Breves","name_fr":"Breves","name_it":"Breves","name_ru":"Breves","elevation":7.0,"timezone":"America/Belem","admin1_name":"Pará"},{"name":"Moju","lat":-1.88389,"lon":-48.76889,"population":84094,"iso_a3":"BRA","country":"Brazil","is_capital":false,"name_en":"Moju","name_es":"Moju","name_fr":"Moju","name_it":"Moju","name_ru":"Moju","elevation":9.0,"timezone":"America/Belem","admin1_name":"Pará"},{"name":"Santa Isabel do Pará","lat":-1.29861,"lon":-48.16056,"population":73019,"iso_a3":"BRA","country":"Brazil","is_capital":false,"name_en":"Santa Isabel do Pará","name_es":"Santa Isabel do Pará","name_fr":"Santa Isabel do Pará","name_it":"Santa Isabel do Pará","name_ru":"Santa Isabel do Pará","elevation":32.0,"timezone":"America/Belem","admin1_name":"Pará"},{"name":"Tomé-Açu","lat":-2.41889,"lon":-48.15222,"population":67585,"iso_a3":"BRA","country":"Brazil","is_capital":false,"name_en":"Tomé-Açu","name_es":"Tomé-Açu","name_fr":"Tomé-Açu","name_it":"Tomé-Açu","name_ru":"Tomé-Açu","elevation":21.0,"timezone":"America/Belem","admin1_name":"Pará"},{"name":"Igarapé Miri","lat":-1.975,"lon":-48.95972,"population":64831,"iso_a3":"BRA","country":"Brazil","is_capital":false,"name_en":"Igarapé Miri","name_es":"Igarapé Miri","name_fr":"Igarapé Miri","name_it":"Igarapé Miri","name_ru":"Igarapé Miri","elevation":9.0,"timezone":"America/Belem","admin1_name":"Pará"},{"name":"Benevides","lat":-1.36139,"lon":-48.24472,"population":63567,"iso_a3":"BRA","country":"Brazil","is_capital":false,"name_en":"Benevides","name_es":"Benevides","name_fr":"Benevides","name_it":"Benevides","name_ru":"Benevides","elevation":31.0,"timezone":"America/Belem","admin1_name":"Pará"},{"name":"Acará","lat":-1.96083,"lon":-48.19667,"population":59023,"iso_a3":"BRA","country":"Brazil","is_capital":false,"name_en":"Acará","name_es":"Acará","name_fr":"Acará","name_it":"Acará","name_ru":"Acará","elevation":6.0,"timezone":"America/Belem","admin1_name":"Pará"},{"name":"Baião","lat":-2.79056,"lon":-49.67167,"population":51641,"iso_a3":"BRA","country":"Brazil","is_capital":false,"name_en":"Baião","name_es":"Baião","name_fr":"Baião","name_it":"Baião","name_ru":"Baião","elevation":31.0,"timezone":"America/Belem","admin1_name":"Pará"},{"name":"Vigia","lat":-0.85833,"lon":-48.14167,"population":50832,"iso_a3":"BRA","country":"Brazil","is_capital":false,"name_en":"Vigia","name_es":"Vigia","name_fr":"Vigia","name_it":"Vigia","name_ru":"Vigia","elevation":6.0,"timezone":"America/Belem","admin1_name":"Pará"},{"name":"Muaná","lat":-1.52833,"lon":-49.21667,"population":45368,"iso_a3":"BRA","country":"Brazil","is_capital":false,"name_en":"Muaná","name_es":"Muaná","name_fr":"Muaná","name_it":"Muaná","name_ru":"Muaná","elevation":7.0,"timezone":"America/Belem","admin1_name":"Pará"},{"name":"Curuçá","lat":-0.72889,"lon":-47.84806,"population":41262,"iso_a3":"BRA","country":"Brazil","is_capital":false,"name_en":"Curuçá","name_es":"Curuçá","name_fr":"Curuçá","name_it":"Curuçá","name_ru":"Curuçá","elevation":15.0,"timezone":"America/Belem","admin1_name":"Pará"},{"name":"Afuá","lat":-0.15667,"lon":-50.38667,"population":37765,"iso_a3":"BRA","country":"Brazil","is_capital":false,"name_en":"Afuá","name_es":"Afuá","name_fr":"Afuá","name_it":"Afuá","name_ru":"Afuá","elevation":1.0,"timezone":"America/Belem","admin1_name":"Pará"},{"name":"Curralinho","lat":-1.81361,"lon":-49.79528,"population":33903,"iso_a3":"BRA","country":"Brazil","is_capital":false,"name_en":"Curralinho","name_es":"Curralinho","name_fr":"Curralinho","name_it":"Curralinho","name_ru":"Curralinho","elevation":6.0,"timezone":"America/Belem","admin1_name":"Pará"},{"name":"Oeiras do Pará","lat":-2.00306,"lon":-49.85444,"population":33844,"iso_a3":"BRA","country":"Brazil","is_capital":false,"name_en":"Oeiras do Pará","name_es":"Oeiras do Pará","name_fr":"Oeiras do Pará","name_it":"Oeiras do Pará","name_ru":"Oeiras do Pará","elevation":6.0,"timezone":"America/Belem","admin1_name":"Pará"},{"name":"Bagre","lat":-1.89969,"lon":-50.20821,"population":31892,"iso_a3":"BRA","country":"Brazil","is_capital":false,"name_en":"Bagre","name_es":"Bagre","name_fr":"Bagre","name_it":"Bagre","name_ru":"Bagre","elevation":0.0,"timezone":"America/Belem","admin1_name":"Pará"}]