[{"name":"São José","lat":-27.61528,"lon":-48.6275,"population":270299,"iso_a3":"BRA","country":"Brazil","is_capital":false,"name_en":"São José","name_es":"São José","name_fr":"São José","name_it":"São José","name_ru":"Сан-Жозе","elevation":18.0,"timezone":"America/Sao_Paulo","admin1_name":"Santa Catarina"},{"name":"São José","lat":-28.21344,"lon":-49.16383,"population":200000,"iso_a3":"BRA","country":"Brazil","is_capital":false,"name_en":"São José","name_es":"São José","name_fr":"São José","name_it":"São José","name_ru":"São José","elevation":164.0,"timezone":"America/Sao_Paulo","admin1_name":"Santa Catarina"},{"name":"Palhoça","lat":-27.64528,"lon":-48.66778,"population":175272,"iso_a3":"BRA","country":"Brazil","is_capital":false,"name_en":"Palhoça","name_es":"Palhoça","name_fr":"Palhoça","name_it":"Palhoça","name_ru":"Пальоса","elevation":5.0,"timezone":"America/Sao_Paulo","admin1_name":"Santa Catarina"},{"name":"Lages","lat":-27.81611,"lon":-50.32611,"population":164676,"iso_a3":"BRA","country":"Brazil","is_capital":false,"name_en":"Lages","name_es":"Lages","name_fr":"Lages","name_it":"Lages","name_ru":"Лажис","elevation":917.0,"timezone":"America/Sao_Paulo","admin1_name":"Santa Catarina"},{"name":"Criciúma","lat":-28.6775,"lon":-49.36972,"population":161954,"iso_a3":"BRA","country":"Brazil","is_capital":false,"name_en":"Criciúma","name_es":"Criciúma","name_fr":"Criciúma","name_it":"Criciúma","name_ru":"Крисиума","elevation":50.0,"timezone":"America/Sao_Paulo","admin1_name":"Santa Catarina"},{"name":"Brusque","lat":-27.09795,"lon":-48.91281,"population":141385,"iso_a3":"BRA","country":"Brazil","is_capital":false,"name_en":"Brusque","name_es":"Brusque","name_fr":"Brusque","name_it":"Brusque","name_ru":"Бруски","elevation":22.0,"timezone":"America/Sao_Paulo","admin1_name":"Santa Catarina"},{"name":"Tubarão","lat":-28.46667,"lon":-49.00694,"population":110088,"iso_a3":"BRA","country":"Brazil","is_capital":false,"name_en":"Tubarão","name_es":"Tubarão","name_fr":"Tubarão","name_it":"Tubarão","name_ru":"Тубаран","elevation":7.0,"timezone":"America/Sao_Paulo","admin1_name":"Santa Catarina"},{"name":"Biguaçu","lat":-27.49417,"lon":-48.65556,"population":76773,"iso_a3":"BRA","country":"Brazil","is_capital":false,"name_en":"Biguaçu","name_es":"Biguaçu","name_fr":"Biguaçu","name_it":"Biguaçu","name_ru":"Biguaçu","elevation":6.0,"timezone":"America/Sao_Paulo","admin1_name":"Santa Catarina"},{"name":"Itapema","lat":-27.09028,"lon":-48.61139,"population":75940,"iso_a3":"BRA","country":"Brazil","is_capital":false,"name_en":"Itapema","name_es":"Itapema","name_fr":"Itapema","name_it":"Itapema","name_ru":"Итапема","elevation":4.0,"timezone":"America/Sao_Paulo","admin1_name":"Santa Catarina"},{"name":"Rio do Sul","lat":-27.21417,"lon":-49.64306,"population":72587,"iso_a3":"BRA","country":"Brazil","is_capital":false,"name_en":"Rio do Sul","name_es":"Rio do Sul","name_fr":"Rio do Sul","name_it":"Rio do Sul","name_ru":"Риу-ду-Сул","elevation":346.0,"timezone":"America/Sao_Paulo","admin1_name":"Santa Catarina"},{"name":"Araranguá","lat":-28.93575,"lon":-49.49538,"population":71922,"iso_a3":"BRA","country":"Brazil","is_capital":false,"name_en":"Araranguá","name_es":"Araranguá","name_fr":"Araranguá","name_it":"Araranguá","name_ru":"Арарангуа","elevation":5.0,"timezone":"America/Sao_Paulo","admin1_name":"Santa Catarina"},{"name":"Içara","lat":-28.71333,"lon":-49.3,"population":59035,"iso_a3":"BRA","country":"Brazil","is_capital":false,"name_en":"Içara","name_es":"Içara","name_fr":"Içara","name_it":"Içara","name_ru":"Исара","elevation":43.0,"timezone":"America/Sao_Paulo","admin1_name":"Santa Catarina"},{"name":"Imbituba","lat":-28.24,"lon":-48.67028,"population":52579,"iso_a3":"BRA","country":"Brazil","is_capital":false,"name_en":"Imbituba","name_es":"Imbituba","name_fr":"Imbituba","name_it":"Imbituba","name_ru":"Imbituba","elevation":22.0,"timezone":"America/Sao_Paulo","admin1_name":"Santa Catarina"},{"name":"Tijucas","lat":-27.24139,"lon":-48.63361,"population":51592,"iso_a3":"BRA","country":"Brazil","is_capital":false,"name_en":"Tijucas","name_es":"Tijucas","name_fr":"Tijucas","name_it":"Tijucas","name_ru":"Тижукас","elevation":5.0,"timezone":"America/Sao_Paulo","admin1_name":"Santa Catarina"},{"name":"Laguna","lat":-28.4825,"lon":-48.78083,"population":42785,"iso_a3":"BRA","country":"Brazil","is_capital":false,"name_en":"Laguna","name_es":"Laguna","name_fr":"Laguna","name_it":"Laguna","name_ru":"Лагуна","elevation":7.0,"timezone":"America/Sao_Paulo","admin1_name":"Santa Catarina"},{"name":"Torres","lat":-29.33528,"lon":-49.72694,"population":41751,"iso_a3":"BRA","country":"Brazil","is_capital":false,"name_en":"Torres","name_es":"Torres","name_fr":"Torres","name_it":"Torres","name_ru":"Торрес","elevation":8.0,"timezone":"America/Sao_Paulo","admin1_name":"Rio Grande do Sul"},{"name":"Curitibanos","lat":-27.28278,"lon":-50.58444,"population":40045,"iso_a3":"BRA","country":"Brazil","is_capital":false,"name_en":"Curitibanos","name_es":"Curitibanos","name_fr":"Curitibanos","name_it":"Curitibanos","name_ru":"Куритибанус","elevation":1002.0,"timezone":"America/Sao_Paulo","admin1_name":"Santa Catarina"},{"name":"Braço do Norte","lat":-28.275,"lon":-49.16556,"population":33773,"iso_a3":"BRA","country":"Brazil","is_capital":false,"name_en":"Braço do Norte","name_es":"Braço do Norte","name_fr":"Braço do Norte","name_it":"Braço do Norte","name_ru":"Брасу-ду-Норти","elevation":69.0,"timezone":"America/Sao_Paulo","admin1_name":"Santa Catarina"},{"name":"São João Batista","lat":-27.27611,"lon":-48.84944,"population":32687,"iso_a3":"BRA","country":"Brazil","is_capital":false,"name_en":"São João Batista","name_es":"São João Batista","name_fr":"São João Batista","name_it":"São João Batista","name_ru":"São João Batista","elevation":32.0,"timezone":"America/Sao_Paulo","admin1_name":"Santa Catarina"},{"name":"Forquilhinha","lat":-28.7475,"lon":-49.47222,"population":31431,"iso_a3":"BRA","country":"Brazil","is_capital":false,"name_en":"Forquilhinha","name_es":"Forquilhinha","name_fr":"Forquilhinha","name_it":"Forquilhinha","name_ru":"Форкильинья","elevation":28.0,"timezone":"America/Sao_Paulo","admin1_name":"Santa Catarina"}]