[{"name":"Imperatriz","lat":-5.52639,"lon":-47.49167,"population":218106,"iso_a3":"BRA","country":"Brazil","is_capital":false,"name_en":"Imperatriz","name_es":"Imperatriz","name_fr":"Imperatriz","name_it":"Imperatriz","name_ru":"Императрис","elevation":127.0,"timezone":"America/Fortaleza","admin1_name":"Maranhão"},{"name":"Açailândia","lat":-4.94667,"lon":-47.50472,"population":106550,"iso_a3":"BRA","country":"Brazil","is_capital":false,"name_en":"Açailândia","name_es":"Açailândia","name_fr":"Açailândia","name_it":"Açailândia","name_ru":"Açailândia","elevation":243.0,"timezone":"America/Fortaleza","admin1_name":"Maranhão"},{"name":"Paragominas","lat":-2.99565,"lon":-47.35488,"population":105550,"iso_a3":"BRA","country":"Brazil","is_capital":false,"name_en":"Paragominas","name_es":"Paragominas","name_fr":"Paragominas","name_it":"Paragominas","name_ru":"Paragominas","elevation":83.0,"timezone":"America/Belem","admin1_name":"Pará"},{"name":"Barra do Corda","lat":-5.50556,"lon":-45.24333,"population":86662,"iso_a3":"BRA","country":"Brazil","is_capital":false,"name_en":"Barra do Corda","name_es":"Barra do Corda","name_fr":"Barra do Corda","name_it":"Barra do Corda","name_ru":"Barra do Corda","elevation":100.0,"timezone":"America/Fortaleza","admin1_name":"Maranhão"},{"name":"Santa Inês","lat":-3.66667,"lon":-45.38,"population":85014,"iso_a3":"BRA","country":"Brazil","is_capital":false,"name_en":"Santa Inês","name_es":"Santa Inês","name_fr":"Santa Inês","name_it":"Santa Inês","name_ru":"Санта-Инес","elevation":31.0,"timezone":"America/Fortaleza","admin1_name":"Maranhão"},{"name":"Dom Eliseu","lat":-4.285,"lon":-47.505,"population":58484,"iso_a3":"BRA","country":"Brazil","is_capital":false,"name_en":"Dom Eliseu","name_es":"Dom Eliseu","name_fr":"Dom Eliseu","name_it":"Dom Eliseu","name_ru":"Dom Eliseu","elevation":187.0,"timezone":"America/Belem","admin1_name":"Pará"},{"name":"Santa Luzia","lat":-3.96333,"lon":-45.65833,"population":57635,"iso_a3":"BRA","country":"Brazil","is_capital":false,"name_en":"Santa Luzia","name_es":"Santa Luzia","name_fr":"Santa Luzia","name_it":"Santa Luzia","name_ru":"Santa Luzia","elevation":40.0,"timezone":"America/Fortaleza","admin1_name":"Maranhão"},{"name":"Buriticupu","lat":-4.32124,"lon":-46.45468,"population":55499,"iso_a3":"BRA","country":"Brazil","is_capital":false,"name_en":"Buriticupu","name_es":"Buriticupu","name_fr":"Buriticupu","name_it":"Buriticupu","name_ru":"Buriticupu","elevation":155.0,"timezone":"America/Fortaleza","admin1_name":"Maranhão"},{"name":"Viana","lat":-3.22028,"lon":-45.00361,"population":51442,"iso_a3":"BRA","country":"Brazil","is_capital":false,"name_en":"Viana","name_es":"Viana","name_fr":"Viana","name_it":"Viana","name_ru":"Виана","elevation":13.0,"timezone":"America/Fortaleza","admin1_name":"Maranhão"},{"name":"Lago da Pedra","lat":-4.56033,"lon":-45.13155,"population":44403,"iso_a3":"BRA","country":"Brazil","is_capital":false,"name_en":"Lago da Pedra","name_es":"Lago da Pedra","name_fr":"Lago da Pedra","name_it":"Lago da Pedra","name_ru":"Лаго-да-Педра","elevation":108.0,"timezone":"America/Fortaleza","admin1_name":"Maranhão"},{"name":"Zé Doca","lat":-3.27472,"lon":-45.65833,"population":40801,"iso_a3":"BRA","country":"Brazil","is_capital":false,"name_en":"Zé Doca","name_es":"Zé Doca","name_fr":"Zé Doca","name_it":"Zé Doca","name_ru":"Zé Doca","elevation":34.0,"timezone":"America/Fortaleza","admin1_name":"Maranhão"},{"name":"Ulianópolis","lat":-3.74194,"lon":-47.49472,"population":37972,"iso_a3":"BRA","country":"Brazil","is_capital":false,"name_en":"Ulianópolis","name_es":"Ulianópolis","name_fr":"Ulianópolis","name_it":"Ulianópolis","name_ru":"Ulianópolis","elevation":119.0,"timezone":"America/Belem","admin1_name":"Pará"},{"name":"Amarante do Maranhão","lat":-5.56667,"lon":-46.74222,"population":37085,"iso_a3":"BRA","country":"Brazil","is_capital":false,"name_en":"Amarante do Maranhão","name_es":"Amarante do Maranhão","name_fr":"Amarante do Maranhão","name_it":"Amarante do Maranhão","name_ru":"Amarante do Maranhão","elevation":247.0,"timezone":"America/Fortaleza","admin1_name":"Maranhão"},{"name":"Bom Jardim","lat":-3.54281,"lon":-45.60852,"population":33100,"iso_a3":"BRA","country":"Brazil","is_capital":false,"name_en":"Bom Jardim","name_es":"Bom Jardim","name_fr":"Bom Jardim","name_it":"Bom Jardim","name_ru":"Bom Jardim","elevation":64.0,"timezone":"America/Fortaleza","admin1_name":"Maranhão"},{"name":"Penalva","lat":-3.29417,"lon":-45.17361,"population":32511,"iso_a3":"BRA","country":"Brazil","is_capital":false,"name_en":"Penalva","name_es":"Penalva","name_fr":"Penalva","name_it":"Penalva","name_ru":"Penalva","elevation":17.0,"timezone":"America/Fortaleza","admin1_name":"Maranhão"},{"name":"Pindaré-Mirim","lat":-3.60833,"lon":-45.34333,"population":31429,"iso_a3":"BRA","country":"Brazil","is_capital":false,"name_en":"Pindaré-Mirim","name_es":"Pindaré-Mirim","name_fr":"Pindaré-Mirim","name_it":"Pindaré-Mirim","name_ru":"Pindaré-Mirim","elevation":24.0,"timezone":"America/Fortaleza","admin1_name":"Maranhão"},{"name":"Vitorino Freire","lat":-4.28805,"lon":-45.24611,"population":30845,"iso_a3":"BRA","country":"Brazil","is_capital":false,"name_en":"Vitorino Freire","name_es":"Vitorino Freire","name_fr":"Vitorino Freire","name_it":"Vitorino Freire","name_ru":"Vitorino Freire","elevation":93.0,"timezone":"America/Fortaleza","admin1_name":"Maranhão"}]