[{"name":"Barra","lat":-11.08944,"lon":-43.14167,"population":51092,"iso_a3":"BRA","country":"Brazil","is_capital":false,"name_en":"Barra","name_es":"Barra","name_fr":"Barra","name_it":"Barra","name_ru":"Барра","elevation":411.0,"timezone":"America/Bahia","admin1_name":"Bahia"},{"name":"Xique-Xique","lat":-10.82294,"lon":-42.72815,"population":44757,"iso_a3":"BRA","country":"Brazil","is_capital":false,"name_en":"Xique-Xique","name_es":"Xique-Xique","name_fr":"Xique-Xique","name_it":"Xique-Xique","name_ru":"Xique-Xique","elevation":406.0,"timezone":"America/Bahia","admin1_name":"Bahia"},{"name":"São Raimundo Nonato","lat":-9.01528,"lon":-42.69944,"population":38934,"iso_a3":"BRA","country":"Brazil","is_capital":false,"name_en":"São Raimundo Nonato","name_es":"São Raimundo Nonato","name_fr":"São Raimundo Nonato","name_it":"São Raimundo Nonato","name_ru":"São Raimundo Nonato","elevation":354.0,"timezone":"America/Fortaleza","admin1_name":"Piauí"},{"name":"Pilão Arcado","lat":-10.00053,"lon":-42.47975,"population":35357,"iso_a3":"BRA","country":"Brazil","is_capital":false,"name_en":"Pilão Arcado","name_es":"Pilão Arcado","name_fr":"Pilão Arcado","name_it":"Pilão Arcado","name_ru":"Pilão Arcado","elevation":474.0,"timezone":"America/Bahia","admin1_name":"Bahia"},{"name":"Campo Alegre de Lourdes","lat":-9.51729,"lon":-43.01026,"population":30671,"iso_a3":"BRA","country":"Brazil","is_capital":false,"name_en":"Campo Alegre de Lourdes","name_es":"Campo Alegre de Lourdes","name_fr":"Campo Alegre de Lourdes","name_it":"Campo Alegre de Lourdes","name_ru":"Campo Alegre de Lourdes","elevation":491.0,"timezone":"America/Bahia","admin1_name":"Bahia"}]