[{"name":"Jequié","lat":-13.85875,"lon":-40.08512,"population":127475,"iso_a3":"BRA","country":"Brazil","is_capital":false,"name_en":"Jequié","name_es":"Jequié","name_fr":"Jequié","name_it":"Jequié","name_ru":"Жекие","elevation":223.0,"timezone":"America/Bahia","admin1_name":"Bahia"},{"name":"Jacobina","lat":-11.18143,"lon":-40.51372,"population":82590,"iso_a3":"BRA","country":"Brazil","is_capital":false,"name_en":"Jacobina","name_es":"Jacobina","name_fr":"Jacobina","name_it":"Jacobina","name_ru":"Жакобина","elevation":476.0,"timezone":"America/Bahia","admin1_name":"Bahia"},{"name":"Irecê","lat":-11.30417,"lon":-41.85583,"population":74507,"iso_a3":"BRA","country":"Brazil","is_capital":false,"name_en":"Irecê","name_es":"Irecê","name_fr":"Irecê","name_it":"Irecê","name_ru":"Irecê","elevation":730.0,"timezone":"America/Bahia","admin1_name":"Bahia"},{"name":"Itaberaba","lat":-12.5275,"lon":-40.30694,"population":65073,"iso_a3":"BRA","country":"Brazil","is_capital":false,"name_en":"Itaberaba","name_es":"Itaberaba","name_fr":"Itaberaba","name_it":"Itaberaba","name_ru":"Itaberaba","elevation":274.0,"timezone":"America/Bahia","admin1_name":"Bahia"},{"name":"Ipirá","lat":-12.15833,"lon":-39.73722,"population":56876,"iso_a3":"BRA","country":"Brazil","is_capital":false,"name_en":"Ipirá","name_es":"Ipirá","name_fr":"Ipirá","name_it":"Ipirá","name_ru":"Ipirá","elevation":331.0,"timezone":"America/Bahia","admin1_name":"Bahia"},{"name":"Seabra","lat":-12.41713,"lon":-41.77049,"population":46160,"iso_a3":"BRA","country":"Brazil","is_capital":false,"name_en":"Seabra","name_es":"Seabra","name_fr":"Seabra","name_it":"Seabra","name_ru":"Seabra","elevation":823.0,"timezone":"America/Bahia","admin1_name":"Bahia"},{"name":"Jaguaquara","lat":-13.53056,"lon":-39.97083,"population":45964,"iso_a3":"BRA","country":"Brazil","is_capital":false,"name_en":"Jaguaquara","name_es":"Jaguaquara","name_fr":"Jaguaquara","name_it":"Jaguaquara","name_ru":"Jaguaquara","elevation":675.0,"timezone":"America/Bahia","admin1_name":"Bahia"},{"name":"Livramento de Nossa Senhora","lat":-13.64136,"lon":-41.84319,"population":43903,"iso_a3":"BRA","country":"Brazil","is_capital":false,"name_en":"Livramento de Nossa Senhora","name_es":"Livramento de Nossa Senhora","name_fr":"Livramento de Nossa Senhora","name_it":"Livramento de Nossa Senhora","name_ru":"Livramento de Nossa Senhora","elevation":499.0,"timezone":"America/Bahia","admin1_name":"Bahia"},{"name":"Amargosa","lat":-13.03028,"lon":-39.60472,"population":36521,"iso_a3":"BRA","country":"Brazil","is_capital":false,"name_en":"Amargosa","name_es":"Amargosa","name_fr":"Amargosa","name_it":"Amargosa","name_ru":"Amargosa","elevation":412.0,"timezone":"America/Bahia","admin1_name":"Bahia"},{"name":"Morro do Chapéu","lat":-11.54852,"lon":-41.15804,"population":33594,"iso_a3":"BRA","country":"Brazil","is_capital":false,"name_en":"Morro do Chapéu","name_es":"Morro do Chapéu","name_fr":"Morro do Chapéu","name_it":"Morro do Chapéu","name_ru":"Morro do Chapéu","elevation":1019.0,"timezone":"America/Bahia","admin1_name":"Bahia"},{"name":"Riachão do Jacuípe","lat":-11.80694,"lon":-39.38556,"population":33386,"iso_a3":"BRA","country":"Brazil","is_capital":false,"name_en":"Riachão do Jacuípe","name_es":"Riachão do Jacuípe","name_fr":"Riachão do Jacuípe","name_it":"Riachão do Jacuípe","name_ru":"Riachão do Jacuípe","elevation":217.0,"timezone":"America/Bahia","admin1_name":"Bahia"},{"name":"Capim Grosso","lat":-11.38111,"lon":-40.01278,"population":33235,"iso_a3":"BRA","country":"Brazil","is_capital":false,"name_en":"Capim Grosso","name_es":"Capim Grosso","name_fr":"Capim Grosso","name_it":"Capim Grosso","name_ru":"Capim Grosso","elevation":416.0,"timezone":"America/Bahia","admin1_name":"Bahia"},{"name":"Gandu","lat":-13.74389,"lon":-39.48667,"population":32178,"iso_a3":"BRA","country":"Brazil","is_capital":false,"name_en":"Gandu","name_es":"Gandu","name_fr":"Gandu","name_it":"Gandu","name_ru":"Ганду","elevation":159.0,"timezone":"America/Bahia","admin1_name":"Bahia"},{"name":"Vera Cruz","lat":-12.63333,"lon":-41.03333,"population":30556,"iso_a3":"BRA","country":"Brazil","is_capital":false,"name_en":"Vera Cruz","name_es":"Vera Cruz","name_fr":"Vera Cruz","name_it":"Vera Cruz","name_ru":"Vera Cruz","elevation":533.0,"timezone":"America/Bahia","admin1_name":"Bahia"}]