[{"name":"Governador Valadares","lat":-18.85111,"lon":-41.94944,"population":250878,"iso_a3":"BRA","country":"Brazil","is_capital":false,"name_en":"Governador Valadares","name_es":"Governador Valadares","name_fr":"Governador Valadares","name_it":"Governador Valadares","name_ru":"Говернадор-Валадарес","elevation":169.0,"timezone":"America/Sao_Paulo","admin1_name":"Minas Gerais"},{"name":"São Mateus","lat":-18.72011,"lon":-39.85891,"population":123752,"iso_a3":"BRA","country":"Brazil","is_capital":false,"name_en":"São Mateus","name_es":"São Mateus","name_fr":"São Mateus","name_it":"São Mateus","name_ru":"Сан-Матеус","elevation":38.0,"timezone":"America/Sao_Paulo","admin1_name":"Espírito Santo"},{"name":"Teófilo Otoni","lat":-17.8575,"lon":-41.50528,"population":101170,"iso_a3":"BRA","country":"Brazil","is_capital":false,"name_en":"Teófilo Otoni","name_es":"Teófilo Otoni","name_fr":"Teófilo Otoni","name_it":"Teófilo Otoni","name_ru":"Теофилу-Отони","elevation":343.0,"timezone":"America/Sao_Paulo","admin1_name":"Minas Gerais"},{"name":"Itamaraju","lat":-17.03917,"lon":-39.53111,"population":59605,"iso_a3":"BRA","country":"Brazil","is_capital":false,"name_en":"Itamaraju","name_es":"Itamaraju","name_fr":"Itamaraju","name_it":"Itamaraju","name_ru":"Itamaraju","elevation":89.0,"timezone":"America/Bahia","admin1_name":"Bahia"},{"name":"Nova Venécia","lat":-18.71056,"lon":-40.40056,"population":49065,"iso_a3":"BRA","country":"Brazil","is_capital":false,"name_en":"Nova Venécia","name_es":"Nova Venécia","name_fr":"Nova Venécia","name_it":"Nova Venécia","name_ru":"Nova Venécia","elevation":80.0,"timezone":"America/Sao_Paulo","admin1_name":"Espírito Santo"},{"name":"Barra de São Francisco","lat":-18.755,"lon":-40.89083,"population":42498,"iso_a3":"BRA","country":"Brazil","is_capital":false,"name_en":"Barra de São Francisco","name_es":"Barra de São Francisco","name_fr":"Barra de São Francisco","name_it":"Barra de São Francisco","name_ru":"Барра-де-Сан-Франциско","elevation":197.0,"timezone":"America/Sao_Paulo","admin1_name":"Espírito Santo"},{"name":"Mucuri","lat":-18.08639,"lon":-39.55083,"population":37977,"iso_a3":"BRA","country":"Brazil","is_capital":false,"name_en":"Mucuri","name_es":"Mucuri","name_fr":"Mucuri","name_it":"Mucuri","name_ru":"Мукури","elevation":7.0,"timezone":"America/Bahia","admin1_name":"Bahia"},{"name":"Nanuque","lat":-17.83917,"lon":-40.35389,"population":35038,"iso_a3":"BRA","country":"Brazil","is_capital":false,"name_en":"Nanuque","name_es":"Nanuque","name_fr":"Nanuque","name_it":"Nanuque","name_ru":"Nanuque","elevation":108.0,"timezone":"America/Sao_Paulo","admin1_name":"Minas Gerais"},{"name":"Araçuaí","lat":-16.84972,"lon":-42.07028,"population":34297,"iso_a3":"BRA","country":"Brazil","is_capital":false,"name_en":"Araçuaí","name_es":"Araçuaí","name_fr":"Araçuaí","name_it":"Araçuaí","name_ru":"Арасуаи","elevation":316.0,"timezone":"America/Sao_Paulo","admin1_name":"Minas Gerais"},{"name":"São Gabriel da Palha","lat":-19.01809,"lon":-40.5373,"population":32252,"iso_a3":"BRA","country":"Brazil","is_capital":false,"name_en":"São Gabriel da Palha","name_es":"São Gabriel da Palha","name_fr":"São Gabriel da Palha","name_it":"São Gabriel da Palha","name_ru":"São Gabriel da Palha","elevation":272.0,"timezone":"America/Sao_Paulo","admin1_name":"Espírito Santo"}]