[{"name":"Garanhuns","lat":-8.88202,"lon":-36.50216,"population":151064,"iso_a3":"BRA","country":"Brazil","is_capital":false,"name_en":"Garanhuns","name_es":"Garanhuns","name_fr":"Garanhuns","name_it":"Garanhuns","name_ru":"Гараньюнс","elevation":950.0,"timezone":"America/Recife","admin1_name":"Pernambuco"},{"name":"Rio Largo","lat":-9.47833,"lon":-35.85333,"population":97435,"iso_a3":"BRA","country":"Brazil","is_capital":false,"name_en":"Rio Largo","name_es":"Rio Largo","name_fr":"Rio Largo","name_it":"Rio Largo","name_ru":"Rio Largo","elevation":97.0,"timezone":"America/Maceio","admin1_name":"Alagoas"},{"name":"Marechal Deodoro","lat":-9.71028,"lon":-35.895,"population":62341,"iso_a3":"BRA","country":"Brazil","is_capital":false,"name_en":"Marechal Deodoro","name_es":"Marechal Deodoro","name_fr":"Marechal Deodoro","name_it":"Marechal Deodoro","name_ru":"Marechal Deodoro","elevation":12.0,"timezone":"America/Maceio","admin1_name":"Alagoas"},{"name":"União dos Palmares","lat":-9.16278,"lon":-36.03194,"population":60874,"iso_a3":"BRA","country":"Brazil","is_capital":false,"name_en":"União dos Palmares","name_es":"União dos Palmares","name_fr":"União dos Palmares","name_it":"União dos Palmares","name_ru":"União dos Palmares","elevation":154.0,"timezone":"America/Maceio","admin1_name":"Alagoas"},{"name":"Palmares","lat":-8.68333,"lon":-35.59167,"population":54584,"iso_a3":"BRA","country":"Brazil","is_capital":false,"name_en":"Palmares","name_es":"Palmares","name_fr":"Palmares","name_it":"Palmares","name_ru":"Палмарис","elevation":115.0,"timezone":"America/Recife","admin1_name":"Pernambuco"},{"name":"São Miguel dos Campos","lat":-9.78111,"lon":-36.09361,"population":53391,"iso_a3":"BRA","country":"Brazil","is_capital":false,"name_en":"São Miguel dos Campos","name_es":"São Miguel dos Campos","name_fr":"São Miguel dos Campos","name_it":"São Miguel dos Campos","name_ru":"Сан-Мигель-дус-Кампус","elevation":13.0,"timezone":"America/Maceio","admin1_name":"Alagoas"},{"name":"Coruripe","lat":-10.12556,"lon":-36.17556,"population":51788,"iso_a3":"BRA","country":"Brazil","is_capital":false,"name_en":"Coruripe","name_es":"Coruripe","name_fr":"Coruripe","name_it":"Coruripe","name_ru":"Coruripe","elevation":19.0,"timezone":"America/Maceio","admin1_name":"Alagoas"},{"name":"São Bento do Una","lat":-8.52278,"lon":-36.44444,"population":49449,"iso_a3":"BRA","country":"Brazil","is_capital":false,"name_en":"São Bento do Una","name_es":"São Bento do Una","name_fr":"São Bento do Una","name_it":"São Bento do Una","name_ru":"São Bento do Una","elevation":630.0,"timezone":"America/Recife","admin1_name":"Pernambuco"},{"name":"Barreiros","lat":-8.81833,"lon":-35.18639,"population":42056,"iso_a3":"BRA","country":"Brazil","is_capital":false,"name_en":"Barreiros","name_es":"Barreiros","name_fr":"Barreiros","name_it":"Barreiros","name_ru":"Barreiros","elevation":28.0,"timezone":"America/Recife","admin1_name":"Pernambuco"},{"name":"Sirinhaém","lat":-8.59083,"lon":-35.11611,"population":40852,"iso_a3":"BRA","country":"Brazil","is_capital":false,"name_en":"Sirinhaém","name_es":"Sirinhaém","name_fr":"Sirinhaém","name_it":"Sirinhaém","name_ru":"Сиринхаем","elevation":43.0,"timezone":"America/Recife","admin1_name":"Pernambuco"},{"name":"Lajedo","lat":-8.66361,"lon":-36.32,"population":39582,"iso_a3":"BRA","country":"Brazil","is_capital":false,"name_en":"Lajedo","name_es":"Lajedo","name_fr":"Lajedo","name_it":"Lajedo","name_ru":"Лажеду","elevation":672.0,"timezone":"America/Recife","admin1_name":"Pernambuco"},{"name":"Bonito","lat":-8.47028,"lon":-35.72861,"population":39163,"iso_a3":"BRA","country":"Brazil","is_capital":false,"name_en":"Bonito","name_es":"Bonito","name_fr":"Bonito","name_it":"Bonito","name_ru":"Bonito","elevation":441.0,"timezone":"America/Recife","admin1_name":"Pernambuco"},{"name":"Teotônio Vilela","lat":-9.90971,"lon":-36.35611,"population":39161,"iso_a3":"BRA","country":"Brazil","is_capital":false,"name_en":"Teotônio Vilela","name_es":"Teotônio Vilela","name_fr":"Teotônio Vilela","name_it":"Teotônio Vilela","name_ru":"Teotônio Vilela","elevation":161.0,"timezone":"America/Maceio","admin1_name":"Alagoas"},{"name":"Atalaia","lat":-9.50194,"lon":-36.02278,"population":38530,"iso_a3":"BRA","country":"Brazil","is_capital":false,"name_en":"Atalaia","name_es":"Atalaia","name_fr":"Atalaia","name_it":"Atalaia","name_ru":"Atalaia","elevation":61.0,"timezone":"America/Maceio","admin1_name":"Alagoas"},{"name":"Pilar","lat":-9.59722,"lon":-35.95667,"population":36499,"iso_a3":"BRA","country":"Brazil","is_capital":false,"name_en":"Pilar","name_es":"Pilar","name_fr":"Pilar","name_it":"Pilar","name_ru":"Пилар","elevation":125.0,"timezone":"America/Maceio","admin1_name":"Alagoas"},{"name":"Ribeirão","lat":-8.51444,"lon":-35.37778,"population":33507,"iso_a3":"BRA","country":"Brazil","is_capital":false,"name_en":"Ribeirão","name_es":"Ribeirão","name_fr":"Ribeirão","name_it":"Ribeirão","name_ru":"Ribeirão","elevation":128.0,"timezone":"America/Recife","admin1_name":"Pernambuco"},{"name":"Catende","lat":-8.66667,"lon":-35.71667,"population":33279,"iso_a3":"BRA","country":"Brazil","is_capital":false,"name_en":"Catende","name_es":"Catende","name_fr":"Catende","name_it":"Catende","name_ru":"Catende","elevation":172.0,"timezone":"America/Recife","admin1_name":"Pernambuco"},{"name":"Maragogi","lat":-9.01222,"lon":-35.2225,"population":33232,"iso_a3":"BRA","country":"Brazil","is_capital":false,"name_en":"Maragogi","name_es":"Maragogi","name_fr":"Maragogi","name_it":"Maragogi","name_ru":"Maragogi","elevation":16.0,"timezone":"America/Maceio","admin1_name":"Alagoas"},{"name":"Campo Alegre","lat":-9.78194,"lon":-36.35083,"population":32714,"iso_a3":"BRA","country":"Brazil","is_capital":false,"name_en":"Campo Alegre","name_es":"Campo Alegre","name_fr":"Campo Alegre","name_it":"Campo Alegre","name_ru":"Campo Alegre","elevation":181.0,"timezone":"America/Maceio","admin1_name":"Alagoas"},{"name":"São Sebastião","lat":-9.93361,"lon":-36.55417,"population":32701,"iso_a3":"BRA","country":"Brazil","is_capital":false,"name_en":"São Sebastião","name_es":"São Sebastião","name_fr":"São Sebastião","name_it":"São Sebastião","name_ru":"Сан-Себастьян","elevation":204.0,"timezone":"America/Maceio","admin1_name":"Alagoas"},{"name":"São Luís do Quitunde","lat":-9.31833,"lon":-35.56111,"population":31792,"iso_a3":"BRA","country":"Brazil","is_capital":false,"name_en":"São Luís do Quitunde","name_es":"São Luís do Quitunde","name_fr":"São Luís do Quitunde","name_it":"São Luís do Quitunde","name_ru":"São Luís do Quitunde","elevation":7.0,"timezone":"America/Maceio","admin1_name":"Alagoas"}]