[{"name":"Vigo","lat":42.23282,"lon":-8.72264,"population":293642,"iso_a3":"ESP","country":"Spain","is_capital":false,"name_en":"Vigo","name_es":"Vigo","name_fr":"Vigo","name_it":"Vigo","name_ru":"Виго","elevation":86.0,"timezone":"Europe/Madrid","admin1_name":"Galicia"},{"name":"Santiago de Compostela","lat":42.88052,"lon":-8.54569,"population":99536,"iso_a3":"ESP","country":"Spain","is_capital":false,"name_en":"Santiago de Compostela","name_es":"Santiago de Compostela","name_fr":"Saint-Jacques-de-Compostelle","name_it":"Santiago di Compostela","name_ru":"Сантьяго-де-Компостела","elevation":257.0,"timezone":"Europe/Madrid","admin1_name":"Galicia"},{"name":"Pontevedra","lat":42.431,"lon":-8.64435,"population":82802,"iso_a3":"ESP","country":"Spain","is_capital":false,"name_en":"Pontevedra","name_es":"Pontevedra","name_fr":"Pontevedra","name_it":"Pontevedra","name_ru":"Понтеведра","elevation":29.0,"timezone":"Europe/Madrid","admin1_name":"Galicia"},{"name":"Vilagarcía de Arousa","lat":42.59631,"lon":-8.76426,"population":37576,"iso_a3":"ESP","country":"Spain","is_capital":false,"name_en":"Vilagarcía de Arousa","name_es":"Vilagarcía de Arousa","name_fr":"Vilagarcía de Arousa","name_it":"Vilagarcía de Arousa","name_ru":"Vilagarcía de Arousa","elevation":10.0,"timezone":"Europe/Madrid","admin1_name":"Galicia"},{"name":"Porto","lat":41.1485,"lon":-8.61097,"population":252687,"iso_a3":"PRT","country":"Portugal","is_capital":false,"name_en":"Porto","name_es":"Oporto","name_fr":"Porto","name_it":"Porto","name_ru":"Порту","elevation":91.0,"timezone":"Europe/Lisbon","admin1_name":"Porto"},{"name":"Rio Tinto","lat":41.17872,"lon":-8.55953,"population":49966,"iso_a3":"PRT","country":"Portugal","is_capital":false,"name_en":"Rio Tinto","name_es":"Rio Tinto","name_fr":"Rio Tinto","name_it":"Rio Tinto","name_ru":"Риу-Тинту","elevation":80.0,"timezone":"Europe/Lisbon","admin1_name":"Porto"},{"name":"Ponte de Lima","lat":41.76719,"lon":-8.58393,"population":44667,"iso_a3":"PRT","country":"Portugal","is_capital":false,"name_en":"Ponte de Lima","name_es":"Ponte de Lima","name_fr":"Ponte de Lima","name_it":"Ponte de Lima","name_ru":"Понте де Лима","elevation":13.0,"timezone":"Europe/Lisbon","admin1_name":"Viana do Castelo"},{"name":"Maia","lat":41.23574,"lon":-8.6199,"population":36426,"iso_a3":"PRT","country":"Portugal","is_capital":false,"name_en":"Maia","name_es":"Maia","name_fr":"Maia","name_it":"Maia","name_ru":"Майя","elevation":93.0,"timezone":"Europe/Lisbon","admin1_name":"Porto"},{"name":"Viana do Castelo","lat":41.69323,"lon":-8.83287,"population":36148,"iso_a3":"PRT","country":"Portugal","is_capital":false,"name_en":"Viana do Castelo","name_es":"Viana do Castelo","name_fr":"Viana do Castelo","name_it":"Viana do Castelo","name_ru":"Viana do Castelo","elevation":12.0,"timezone":"Europe/Lisbon","admin1_name":"Viana do Castelo"},{"name":"Esposende","lat":41.5361,"lon":-8.78201,"population":34625,"iso_a3":"PRT","country":"Portugal","is_capital":false,"name_en":"Esposende","name_es":"Esposende","name_fr":"Esposende","name_it":"Esposende","name_ru":"Esposende","elevation":7.0,"timezone":"Europe/Lisbon","admin1_name":"Braga"},{"name":"Espinho","lat":41.00763,"lon":-8.64125,"population":32786,"iso_a3":"PRT","country":"Portugal","is_capital":false,"name_en":"Espinho","name_es":"Espinho","name_fr":"Espinho","name_it":"Espinho","name_ru":"Эшпинью","elevation":19.0,"timezone":"Europe/Lisbon","admin1_name":"Aveiro"}]