[{"name":"Nzérékoré","lat":7.75624,"lon":-8.8179,"population":226426,"iso_a3":"GIN","country":"Guinea","is_capital":false,"name_en":"Nzérékoré","name_es":"Nzérékoré","name_fr":"Nzérékoré","name_it":"Nzérékoré","name_ru":"Нзерекоре","elevation":482.0,"timezone":"Africa/Conakry","admin1_name":"Nzérékoré Region"},{"name":"Lola","lat":7.8,"lon":-8.53333,"population":32555,"iso_a3":"GIN","country":"Guinea","is_capital":false,"name_en":"Lola","name_es":"Lola","name_fr":"Lola","name_it":"Lola","name_ru":"Lola","elevation":468.0,"timezone":"Africa/Conakry","admin1_name":"Nzérékoré Region"},{"name":"Gbarnga","lat":6.99543,"lon":-9.47122,"population":86031,"iso_a3":"LBR","country":"Liberia","is_capital":false,"name_en":"Gbarnga","name_es":"Gbarnga","name_fr":"Gbarnga","name_it":"Gbarnga","name_ru":"Гбарнге","elevation":253.0,"timezone":"Africa/Monrovia","admin1_name":"Bong County"},{"name":"Buchanan","lat":5.87693,"lon":-10.04964,"population":75854,"iso_a3":"LBR","country":"Liberia","is_capital":false,"name_en":"Buchanan","name_es":"Buchanan","name_fr":"Buchanan","name_it":"Buchanan","name_ru":"Бьюкенен","elevation":11.0,"timezone":"Africa/Monrovia","admin1_name":"Grand Bassa County"},{"name":"Ganta","lat":7.235,"lon":-8.98444,"population":63523,"iso_a3":"LBR","country":"Liberia","is_capital":false,"name_en":"Ganta","name_es":"Ganta","name_fr":"Ganta","name_it":"Ganta","name_ru":"Ganta","elevation":282.0,"timezone":"Africa/Monrovia","admin1_name":"Nimba"},{"name":"Kakata","lat":6.53104,"lon":-10.35368,"population":52247,"iso_a3":"LBR","country":"Liberia","is_capital":false,"name_en":"Kakata","name_es":"Kakata","name_fr":"Kakata","name_it":"Kakata","name_ru":"Kakata","elevation":97.0,"timezone":"Africa/Monrovia","admin1_name":"Margibi County"},{"name":"Harbel","lat":6.24683,"lon":-10.35642,"population":38208,"iso_a3":"LBR","country":"Liberia","is_capital":false,"name_en":"Harbel","name_es":"Harbel","name_fr":"Harbel","name_it":"Harbel","name_ru":"Harbel","elevation":10.0,"timezone":"Africa/Monrovia","admin1_name":"Margibi County"},{"name":"Foya Kamara","lat":8.36028,"lon":-10.20639,"population":31052,"iso_a3":"LBR","country":"Liberia","is_capital":false,"name_en":"Foya Kamara","name_es":"Foya Kamara","name_fr":"Foya Kamara","name_it":"Foya Kamara","name_ru":"Foya Kamara","elevation":484.0,"timezone":"Africa/Monrovia","admin1_name":"Lofa County"},{"name":"Kenema","lat":7.87687,"lon":-11.19025,"population":143137,"iso_a3":"SLE","country":"Sierra Leone","is_capital":false,"name_en":"Kenema","name_es":"Kenema","name_fr":"Kenema","name_it":"Kenema","name_ru":"Кенеме","elevation":182.0,"timezone":"Africa/Freetown","admin1_name":"Eastern Province"}]