[{"name":"Badajoz","lat":38.87789,"lon":-6.97061,"population":150530,"iso_a3":"ESP","country":"Spain","is_capital":false,"name_en":"Badajoz","name_es":"Badajoz","name_fr":"Badajoz","name_it":"Badajoz","name_ru":"Бадахос","elevation":192.0,"timezone":"Europe/Madrid","admin1_name":"Extremadura"},{"name":"Salamanca","lat":40.96882,"lon":-5.66388,"population":144825,"iso_a3":"ESP","country":"Spain","is_capital":false,"name_en":"Salamanca","name_es":"Salamanca","name_fr":"Salamanque","name_it":"Salamanca","name_ru":"Саламанка","elevation":815.0,"timezone":"Europe/Madrid","admin1_name":"Castille and León"},{"name":"Cáceres","lat":39.47649,"lon":-6.37224,"population":96068,"iso_a3":"ESP","country":"Spain","is_capital":false,"name_en":"Cáceres","name_es":"Cáceres","name_fr":"Cáceres","name_it":"Cáceres","name_ru":"Касерес","elevation":441.0,"timezone":"Europe/Madrid","admin1_name":"Extremadura"},{"name":"Mérida","lat":38.91802,"lon":-6.34292,"population":59857,"iso_a3":"ESP","country":"Spain","is_capital":false,"name_en":"Mérida","name_es":"Mérida","name_fr":"Mérida","name_it":"Mérida","name_ru":"Мерида","elevation":223.0,"timezone":"Europe/Madrid","admin1_name":"Extremadura"},{"name":"Plasencia","lat":40.03116,"lon":-6.08845,"population":40141,"iso_a3":"ESP","country":"Spain","is_capital":false,"name_en":"Plasencia","name_es":"Plasencia","name_fr":"Plasence","name_it":"Plasencia","name_ru":"Пласенсиа","elevation":368.0,"timezone":"Europe/Madrid","admin1_name":"Extremadura"},{"name":"Don Benito","lat":38.95627,"lon":-5.86162,"population":37010,"iso_a3":"ESP","country":"Spain","is_capital":false,"name_en":"Don Benito","name_es":"Don Benito","name_fr":"Don Benito","name_it":"Don Benito","name_ru":"Дон-Бенито","elevation":285.0,"timezone":"Europe/Madrid","admin1_name":"Extremadura"},{"name":"Coimbra","lat":40.20686,"lon":-8.41996,"population":140796,"iso_a3":"PRT","country":"Portugal","is_capital":false,"name_en":"Coimbra","name_es":"Coímbra","name_fr":"Coimbra","name_it":"Coimbra","name_ru":"Коимбра","elevation":59.0,"timezone":"Europe/Lisbon","admin1_name":"Coimbra"},{"name":"Viseu","lat":40.66165,"lon":-7.90905,"population":103502,"iso_a3":"PRT","country":"Portugal","is_capital":false,"name_en":"Viseu","name_es":"Viseu","name_fr":"Viseu","name_it":"Viseu","name_ru":"Визеу","elevation":469.0,"timezone":"Europe/Lisbon","admin1_name":"Viseu"},{"name":"Guarda","lat":40.53754,"lon":-7.26631,"population":40126,"iso_a3":"PRT","country":"Portugal","is_capital":false,"name_en":"Guarda","name_es":"Guarda","name_fr":"Guarda","name_it":"Guarda","name_ru":"Гуарда","elevation":1008.0,"timezone":"Europe/Lisbon","admin1_name":"Guarda"},{"name":"Castelo Branco","lat":39.82364,"lon":-7.49101,"population":33479,"iso_a3":"PRT","country":"Portugal","is_capital":false,"name_en":"Castelo Branco","name_es":"Castelo Branco","name_fr":"Castelo Branco","name_it":"Castelo Branco","name_ru":"Каштелу-Бранку","elevation":371.0,"timezone":"Europe/Lisbon","admin1_name":"Castelo Branco"}]