[{"name":"Gijón","lat":43.53573,"lon":-5.66152,"population":271780,"iso_a3":"ESP","country":"Spain","is_capital":false,"name_en":"Gijón","name_es":"Gijón","name_fr":"Gijón","name_it":"Gijón","name_ru":"Хихон","elevation":22.0,"timezone":"Europe/Madrid","admin1_name":"Asturias"},{"name":"A Coruña","lat":43.37135,"lon":-8.396,"population":250438,"iso_a3":"ESP","country":"Spain","is_capital":false,"name_en":"A Coruña","name_es":"La Coruña","name_fr":"La Corogne","name_it":"A Coruña","name_ru":"Ла-Корунья","elevation":22.0,"timezone":"Europe/Madrid","admin1_name":"Galicia"},{"name":"Oviedo","lat":43.36029,"lon":-5.84476,"population":220027,"iso_a3":"ESP","country":"Spain","is_capital":false,"name_en":"Oviedo","name_es":"Oviedo","name_fr":"Oviedo","name_it":"Oviedo","name_ru":"Овьедо","elevation":237.0,"timezone":"Europe/Madrid","admin1_name":"Asturias"},{"name":"Avilés","lat":43.55473,"lon":-5.92483,"population":78715,"iso_a3":"ESP","country":"Spain","is_capital":false,"name_en":"Avilés","name_es":"Avilés","name_fr":"Avilés","name_it":"Avilés","name_ru":"Авилес","elevation":26.0,"timezone":"Europe/Madrid","admin1_name":"Asturias"},{"name":"Ferrol","lat":43.48451,"lon":-8.23293,"population":66799,"iso_a3":"ESP","country":"Spain","is_capital":false,"name_en":"Ferrol","name_es":"Ferrol","name_fr":"Ferrol","name_it":"Ferrol","name_ru":"Ferrol","elevation":24.0,"timezone":"Europe/Madrid","admin1_name":"Galicia"},{"name":"Mieres","lat":43.25,"lon":-5.76667,"population":44070,"iso_a3":"ESP","country":"Spain","is_capital":false,"name_en":"Mieres","name_es":"Mieres del Camino","name_fr":"Mieres","name_it":"Mieres","name_ru":"Мьерес","elevation":367.0,"timezone":"Europe/Madrid","admin1_name":"Asturias"},{"name":"Sama","lat":43.29568,"lon":-5.68416,"population":39984,"iso_a3":"ESP","country":"Spain","is_capital":false,"name_en":"Langreo","name_es":"Langreo","name_fr":"Langreo","name_it":"Langreo","name_ru":"Саме","elevation":220.0,"timezone":"Europe/Madrid","admin1_name":"Asturias"},{"name":"Oleiros","lat":43.33333,"lon":-8.31667,"population":35559,"iso_a3":"ESP","country":"Spain","is_capital":false,"name_en":"Oleiros","name_es":"Oleiros","name_fr":"Oleiros","name_it":"Oleiros","name_ru":"Олейрос","elevation":127.0,"timezone":"Europe/Madrid","admin1_name":"Galicia"},{"name":"Culleredo","lat":43.28788,"lon":-8.38858,"population":30221,"iso_a3":"ESP","country":"Spain","is_capital":false,"name_en":"Culleredo","name_es":"Culleredo","name_fr":"Culleredo","name_it":"Culleredo","name_ru":"Кульередо","elevation":80.0,"timezone":"Europe/Madrid","admin1_name":"Galicia"}]