[{"name":"Cadiz","lat":36.52672,"lon":-6.2891,"population":116979,"iso_a3":"ESP","country":"Spain","is_capital":false,"name_en":"Cadiz","name_es":"Cádiz","name_fr":"Cadix","name_it":"Cádice","name_ru":"Кадис","elevation":22.0,"timezone":"Europe/Madrid","admin1_name":"Andalusia"},{"name":"San Fernando","lat":36.4759,"lon":-6.19817,"population":95174,"iso_a3":"ESP","country":"Spain","is_capital":false,"name_en":"San Fernando","name_es":"San Fernando","name_fr":"San Fernando","name_it":"San Fernando","name_ru":"Сан-Фернандо","elevation":15.0,"timezone":"Europe/Madrid","admin1_name":"Andalusia"},{"name":"El Puerto de Santa María","lat":36.59389,"lon":-6.23298,"population":88364,"iso_a3":"ESP","country":"Spain","is_capital":false,"name_en":"El Puerto de Santa María","name_es":"Puerto de Santa María","name_fr":"El Puerto de Santa María","name_it":"El Puerto de Santa María","name_ru":"Эль-Пуэрто-де-Санта-Мария","elevation":11.0,"timezone":"Europe/Madrid","admin1_name":"Andalusia"},{"name":"Chiclana de la Frontera","lat":36.41976,"lon":-6.14367,"population":83831,"iso_a3":"ESP","country":"Spain","is_capital":false,"name_en":"Chiclana de la Frontera","name_es":"Chiclana","name_fr":"Chiclana de la Frontera","name_it":"Chiclana de la Frontera","name_ru":"Чиклана-де-ла-Фронтера","elevation":14.0,"timezone":"Europe/Madrid","admin1_name":"Andalusia"},{"name":"Puerto Real","lat":36.52819,"lon":-6.19011,"population":40183,"iso_a3":"ESP","country":"Spain","is_capital":false,"name_en":"Puerto Real","name_es":"Puerto Real","name_fr":"Puerto Real","name_it":"Puerto Real","name_ru":"Пуэрто-Реаль","elevation":14.0,"timezone":"Europe/Madrid","admin1_name":"Andalusia"},{"name":"Ksar El Kebir","lat":35.00044,"lon":-5.90378,"population":138262,"iso_a3":"MAR","country":"Morocco","is_capital":false,"name_en":"Ksar El Kebir","name_es":"Ksar El Kebir","name_fr":"Ksar El Kebir","name_it":"Ksar El Kebir","name_ru":"Ksar El Kebir","elevation":18.0,"timezone":"Africa/Casablanca","admin1_name":"Tanger-Tetouan-Al Hoceima"},{"name":"Larache","lat":35.19321,"lon":-6.15572,"population":136505,"iso_a3":"MAR","country":"Morocco","is_capital":false,"name_en":"Larache","name_es":"Larache","name_fr":"Larache","name_it":"Larache","name_ru":"Лараша","elevation":38.0,"timezone":"Africa/Casablanca","admin1_name":"Tanger-Tetouan-Al Hoceima"},{"name":"Souq Larb’a al Gharb","lat":34.68664,"lon":-6.00272,"population":44059,"iso_a3":"MAR","country":"Morocco","is_capital":false,"name_en":"Souq Larb’a al Gharb","name_es":"Souq Larb’a al Gharb","name_fr":"Souq Larb’a al Gharb","name_it":"Souq Larb’a al Gharb","name_ru":"Souq Larb’a al Gharb","elevation":37.0,"timezone":"Africa/Casablanca","admin1_name":"Rabat-Salé-Kénitra"},{"name":"Mechraa Bel Ksiri","lat":34.57373,"lon":-5.95585,"population":34393,"iso_a3":"MAR","country":"Morocco","is_capital":false,"name_en":"Mechraa Bel Ksiri","name_es":"Mechraa Bel Ksiri","name_fr":"Mechraa Bel Ksiri","name_it":"Mechraa Bel Ksiri","name_ru":"Mechraa Bel Ksiri","elevation":20.0,"timezone":"Africa/Casablanca","admin1_name":"Rabat-Salé-Kénitra"},{"name":"Asilah","lat":35.46522,"lon":-6.03415,"population":34011,"iso_a3":"MAR","country":"Morocco","is_capital":false,"name_en":"Asilah","name_es":"Arcila","name_fr":"Assilah","name_it":"Assila","name_ru":"Асилах","elevation":17.0,"timezone":"Africa/Casablanca","admin1_name":"Tanger-Tetouan-Al Hoceima"}]