[{"name":"Ouarzazate","lat":30.91894,"lon":-6.89341,"population":77603,"iso_a3":"MAR","country":"Morocco","is_capital":false,"name_en":"Ouarzazate","name_es":"Ouarzazate","name_fr":"Ouarzazate","name_it":"Ouarzazate","name_ru":"Варзазат","elevation":1113.0,"timezone":"Africa/Casablanca","admin1_name":"Drâa-Tafilalet"},{"name":"Zagora","lat":30.33241,"lon":-5.8384,"population":43752,"iso_a3":"MAR","country":"Morocco","is_capital":false,"name_en":"Zagora","name_es":"Zagora","name_fr":"Zagora","name_it":"Zagora","name_ru":"Загора","elevation":733.0,"timezone":"Africa/Casablanca","admin1_name":"Drâa-Tafilalet"},{"name":"Ait Ourir","lat":31.56517,"lon":-7.66163,"population":42705,"iso_a3":"MAR","country":"Morocco","is_capital":false,"name_en":"Ait Ourir","name_es":"Ait Ourir","name_fr":"Ait Ourir","name_it":"Ait Ourir","name_ru":"Ait Ourir","elevation":671.0,"timezone":"Africa/Casablanca","admin1_name":"Marrakesh-Safi"},{"name":"Laâttaouia","lat":31.83532,"lon":-7.31431,"population":33103,"iso_a3":"MAR","country":"Morocco","is_capital":false,"name_en":"Laâttaouia","name_es":"Laâttaouia","name_fr":"Laâttaouia","name_it":"Laâttaouia","name_ru":"Laâttaouia","elevation":634.0,"timezone":"Africa/Casablanca","admin1_name":"Marrakesh-Safi"},{"name":"Demnate","lat":31.73443,"lon":-7.00505,"population":32217,"iso_a3":"MAR","country":"Morocco","is_capital":false,"name_en":"Demnate","name_es":"Demnate","name_fr":"Demnate","name_it":"Demnate","name_ru":"Demnate","elevation":927.0,"timezone":"Africa/Casablanca","admin1_name":"Béni Mellal-Khénifra"}]