[{"name":"Kenitra","lat":34.26101,"lon":-6.5802,"population":470949,"iso_a3":"MAR","country":"Morocco","is_capital":false,"name_en":"Kenitra","name_es":"Kenitra","name_fr":"Kénitra","name_it":"Kenitra","name_ru":"Кенитра","elevation":13.0,"timezone":"Africa/Casablanca","admin1_name":"Rabat-Salé-Kénitra"},{"name":"Temara","lat":33.92866,"lon":-6.90656,"population":342345,"iso_a3":"MAR","country":"Morocco","is_capital":false,"name_en":"Temara","name_es":"Temara","name_fr":"Temara","name_it":"Temara","name_ru":"Temara","elevation":73.0,"timezone":"Africa/Casablanca","admin1_name":"Rabat-Salé-Kénitra"},{"name":"Mohammedia","lat":33.68607,"lon":-7.38298,"population":227799,"iso_a3":"MAR","country":"Morocco","is_capital":false,"name_en":"Mohammedia","name_es":"Mohammedia","name_fr":"Mohammédia","name_it":"Mohammedia","name_ru":"Мохаммедия","elevation":29.0,"timezone":"Africa/Casablanca","admin1_name":"Casablanca-Settat"},{"name":"Khouribga","lat":32.88108,"lon":-6.9063,"population":214241,"iso_a3":"MAR","country":"Morocco","is_capital":false,"name_en":"Khouribga","name_es":"Khouribga","name_fr":"Khouribga","name_it":"Khouribga","name_ru":"Khouribga","elevation":804.0,"timezone":"Africa/Casablanca","admin1_name":"Béni Mellal-Khénifra"},{"name":"Beni Mellal","lat":32.33725,"lon":-6.34983,"population":210397,"iso_a3":"MAR","country":"Morocco","is_capital":false,"name_en":"Beni Mellal","name_es":"Beni Melal","name_fr":"Béni Mellal","name_it":"Béni Mellal","name_ru":"Бени-Меллаль","elevation":538.0,"timezone":"Africa/Casablanca","admin1_name":"Béni Mellal-Khénifra"},{"name":"Salé Al Jadida","lat":33.99722,"lon":-6.74047,"population":200000,"iso_a3":"MAR","country":"Morocco","is_capital":false,"name_en":"Salé Al Jadida","name_es":"Salé Al Jadida","name_fr":"Salé Al Jadida","name_it":"Salé Al Jadida","name_ru":"Salé Al Jadida","elevation":119.0,"timezone":"Africa/Casablanca","admin1_name":"Rabat-Salé-Kénitra"},{"name":"Dar Bouazza","lat":33.51535,"lon":-7.81677,"population":165295,"iso_a3":"MAR","country":"Morocco","is_capital":false,"name_en":"Dar Bouazza","name_es":"Dar Bouazza","name_fr":"Dar Bouazza","name_it":"Dar Bouazza","name_ru":"Dar Bouazza","elevation":21.0,"timezone":"Africa/Casablanca","admin1_name":"Casablanca-Settat"},{"name":"Settat","lat":33.00103,"lon":-7.61662,"population":155333,"iso_a3":"MAR","country":"Morocco","is_capital":false,"name_en":"Settat","name_es":"Settat","name_fr":"Settat","name_it":"Settat","name_ru":"Сеттат","elevation":365.0,"timezone":"Africa/Casablanca","admin1_name":"Casablanca-Settat"},{"name":"Berrechid","lat":33.26553,"lon":-7.58754,"population":149201,"iso_a3":"MAR","country":"Morocco","is_capital":false,"name_en":"Berrechid","name_es":"Berrechid","name_fr":"Berrechid","name_it":"Berrechid","name_ru":"Berrechid","elevation":220.0,"timezone":"Africa/Casablanca","admin1_name":"Casablanca-Settat"},{"name":"Khemisset","lat":33.82404,"lon":-6.06627,"population":143640,"iso_a3":"MAR","country":"Morocco","is_capital":false,"name_en":"Khemisset","name_es":"Khemisset","name_fr":"Khemisset","name_it":"Khemisset","name_ru":"Khemisset","elevation":451.0,"timezone":"Africa/Casablanca","admin1_name":"Rabat-Salé-Kénitra"},{"name":"Khenifra","lat":32.93492,"lon":-5.66167,"population":128318,"iso_a3":"MAR","country":"Morocco","is_capital":false,"name_en":"Khenifra","name_es":"Jenifra","name_fr":"Khénifra","name_it":"Khenifra","name_ru":"Хенифра","elevation":868.0,"timezone":"Africa/Casablanca","admin1_name":"Béni Mellal-Khénifra"},{"name":"Bouskoura","lat":33.44976,"lon":-7.65239,"population":112501,"iso_a3":"MAR","country":"Morocco","is_capital":false,"name_en":"Bouskoura","name_es":"Bouskoura","name_fr":"Bouskoura","name_it":"Bouskoura","name_ru":"Bouskoura","elevation":140.0,"timezone":"Africa/Casablanca","admin1_name":"Casablanca-Settat"},{"name":"Al Fqih Ben Çalah","lat":32.50213,"lon":-6.68771,"population":111402,"iso_a3":"MAR","country":"Morocco","is_capital":false,"name_en":"Al Fqih Ben Çalah","name_es":"Al Fqih Ben Çalah","name_fr":"Al Fqih Ben Çalah","name_it":"Al Fqih Ben Çalah","name_ru":"Al Fqih Ben Çalah","elevation":444.0,"timezone":"Africa/Casablanca","admin1_name":"Béni Mellal-Khénifra"},{"name":"Oued Zem","lat":32.8627,"lon":-6.57359,"population":104029,"iso_a3":"MAR","country":"Morocco","is_capital":false,"name_en":"Oued Zem","name_es":"Oued Zem","name_fr":"Oued Zem","name_it":"Oued Zem","name_ru":"Oued Zem","elevation":783.0,"timezone":"Africa/Casablanca","admin1_name":"Béni Mellal-Khénifra"},{"name":"El Kelaa des Srarhna","lat":32.05121,"lon":-7.41079,"population":103982,"iso_a3":"MAR","country":"Morocco","is_capital":false,"name_en":"El Kelaa des Srarhna","name_es":"El Kelaa des Srarhna","name_fr":"El Kelaa des Srarhna","name_it":"El Kelaa des Srarhna","name_ru":"El Kelaa des Srarhna","elevation":471.0,"timezone":"Africa/Casablanca","admin1_name":"Marrakesh-Safi"},{"name":"Sidi Slimane","lat":34.26479,"lon":-5.92598,"population":101541,"iso_a3":"MAR","country":"Morocco","is_capital":false,"name_en":"Sidi Slimane","name_es":"Sidi Slimane","name_fr":"Sidi Slimane","name_it":"Sidi Slimane","name_ru":"Сиди-Слимане","elevation":37.0,"timezone":"Africa/Casablanca","admin1_name":"Rabat-Salé-Kénitra"},{"name":"Ben Guerir","lat":32.24088,"lon":-7.95397,"population":96777,"iso_a3":"MAR","country":"Morocco","is_capital":false,"name_en":"Ben Guerir","name_es":"Ben Guerir","name_fr":"Ben Guerir","name_it":"Ben Guerir","name_ru":"Ben Guerir","elevation":474.0,"timezone":"Africa/Casablanca","admin1_name":"Marrakesh-Safi"},{"name":"Tiflet","lat":33.89469,"lon":-6.30649,"population":94684,"iso_a3":"MAR","country":"Morocco","is_capital":false,"name_en":"Tiflet","name_es":"Tiflet","name_fr":"Tiflet","name_it":"Tiflet","name_ru":"Tiflet","elevation":340.0,"timezone":"Africa/Casablanca","admin1_name":"Rabat-Salé-Kénitra"},{"name":"Sidi Kacem","lat":34.22149,"lon":-5.70775,"population":82632,"iso_a3":"MAR","country":"Morocco","is_capital":false,"name_en":"Sidi Kacem","name_es":"Sidi Kacem","name_fr":"Sidi Kacem","name_it":"Sidi Kacem","name_ru":"Sidi Kacem","elevation":83.0,"timezone":"Africa/Casablanca","admin1_name":"Rabat-Salé-Kénitra"},{"name":"Aïn Harrouda","lat":33.63737,"lon":-7.44971,"population":68161,"iso_a3":"MAR","country":"Morocco","is_capital":false,"name_en":"Aïn Harrouda","name_es":"Aïn Harrouda","name_fr":"Aïn Harrouda","name_it":"Aïn Harrouda","name_ru":"Aïn Harrouda","elevation":31.0,"timezone":"Africa/Casablanca","admin1_name":"Casablanca-Settat"},{"name":"Souq Sebt Oulad Nemma","lat":32.2973,"lon":-6.70301,"population":65601,"iso_a3":"MAR","country":"Morocco","is_capital":false,"name_en":"Souq Sebt Oulad Nemma","name_es":"Souq Sebt Oulad Nemma","name_fr":"Souq Sebt Oulad Nemma","name_it":"Souq Sebt Oulad Nemma","name_ru":"Souq Sebt Oulad Nemma","elevation":412.0,"timezone":"Africa/Casablanca","admin1_name":"Béni Mellal-Khénifra"},{"name":"Skhirate","lat":33.8527,"lon":-7.03171,"population":65272,"iso_a3":"MAR","country":"Morocco","is_capital":false,"name_en":"Skhirate","name_es":"Skhirate","name_fr":"Skhirate","name_it":"Skhirate","name_ru":"Skhirate","elevation":51.0,"timezone":"Africa/Casablanca","admin1_name":"Rabat-Salé-Kénitra"},{"name":"Benslimane","lat":33.61601,"lon":-7.12153,"population":62352,"iso_a3":"MAR","country":"Morocco","is_capital":false,"name_en":"Benslimane","name_es":"Benslimane","name_fr":"Benslimane","name_it":"Benslimane","name_ru":"Benslimane","elevation":270.0,"timezone":"Africa/Casablanca","admin1_name":"Casablanca-Settat"},{"name":"Sidi Bennour","lat":32.65236,"lon":-8.42769,"population":60948,"iso_a3":"MAR","country":"Morocco","is_capital":false,"name_en":"Sidi Bennour","name_es":"Sidi Bennour","name_fr":"Sidi Bennour","name_it":"Sidi Bennour","name_ru":"Sidi Bennour","elevation":182.0,"timezone":"Africa/Casablanca","admin1_name":"Casablanca-Settat"},{"name":"Ain El Aouda","lat":33.80333,"lon":-6.79461,"population":54397,"iso_a3":"MAR","country":"Morocco","is_capital":false,"name_en":"Ain El Aouda","name_es":"Ain El Aouda","name_fr":"Ain El Aouda","name_it":"Ain El Aouda","name_ru":"Ain El Aouda","elevation":237.0,"timezone":"Africa/Casablanca","admin1_name":"Rabat-Salé-Kénitra"},{"name":"Ad Darwa","lat":33.37487,"lon":-7.5356,"population":52108,"iso_a3":"MAR","country":"Morocco","is_capital":false,"name_en":"Deroua","name_es":"Deroua","name_fr":"Deroua","name_it":"Deroua","name_ru":"Deroua","elevation":200.0,"timezone":"Africa/Casablanca","admin1_name":"Casablanca-Settat"},{"name":"Kasba Tadla","lat":32.5977,"lon":-6.26844,"population":51697,"iso_a3":"MAR","country":"Morocco","is_capital":false,"name_en":"Kasba Tadla","name_es":"Kasba Tadla","name_fr":"Kasba Tadla","name_it":"Kasba Tadla","name_ru":"Kasba Tadla","elevation":499.0,"timezone":"Africa/Casablanca","admin1_name":"Béni Mellal-Khénifra"},{"name":"Bejaâd","lat":32.77133,"lon":-6.39231,"population":51206,"iso_a3":"MAR","country":"Morocco","is_capital":false,"name_en":"Bejaâd","name_es":"Bejaâd","name_fr":"Bejaâd","name_it":"Bejaâd","name_ru":"Bejaâd","elevation":676.0,"timezone":"Africa/Casablanca","admin1_name":"Béni Mellal-Khénifra"},{"name":"Sidi Taibi","lat":34.18698,"lon":-6.68176,"population":51050,"iso_a3":"MAR","country":"Morocco","is_capital":false,"name_en":"Sidi Taibi","name_es":"Sidi Taibi","name_fr":"Sidi Taibi","name_it":"Sidi Taibi","name_ru":"Sidi Taibi","elevation":26.0,"timezone":"Africa/Casablanca","admin1_name":"Rabat-Salé-Kénitra"},{"name":"Azemmour","lat":33.28952,"lon":-8.3425,"population":44683,"iso_a3":"MAR","country":"Morocco","is_capital":false,"name_en":"Azemmour","name_es":"Azemmour","name_fr":"Azemmour","name_it":"Azemmour","name_ru":"Azemmour","elevation":28.0,"timezone":"Africa/Casablanca","admin1_name":"Casablanca-Settat"},{"name":"Azilal","lat":31.96156,"lon":-6.57109,"population":42062,"iso_a3":"MAR","country":"Morocco","is_capital":false,"name_en":"Azilal","name_es":"Azilal","name_fr":"Azilal","name_it":"Azilal","name_ru":"Azilal","elevation":1357.0,"timezone":"Africa/Casablanca","admin1_name":"Béni Mellal-Khénifra"},{"name":"Sidi Yahia El Gharb","lat":34.30494,"lon":-6.30404,"population":41472,"iso_a3":"MAR","country":"Morocco","is_capital":false,"name_en":"Sidi Yahia El Gharb","name_es":"Sidi Yahia El Gharb","name_fr":"Sidi Yahia El Gharb","name_it":"Sidi Yahia El Gharb","name_ru":"Sidi Yahia El Gharb","elevation":18.0,"timezone":"Africa/Casablanca","admin1_name":"Rabat-Salé-Kénitra"},{"name":"Bouznika","lat":33.78942,"lon":-7.15968,"population":40663,"iso_a3":"MAR","country":"Morocco","is_capital":false,"name_en":"Bouznika","name_es":"Bouznika","name_fr":"Bouznika","name_it":"Bouznika","name_ru":"Бузнике","elevation":43.0,"timezone":"Africa/Casablanca","admin1_name":"Casablanca-Settat"},{"name":"Had Soualem","lat":33.41972,"lon":-7.85237,"population":40146,"iso_a3":"MAR","country":"Morocco","is_capital":false,"name_en":"Had Soualem","name_es":"Had Soualem","name_fr":"Had Soualem","name_it":"Had Soualem","name_ru":"Had Soualem","elevation":112.0,"timezone":"Africa/Casablanca","admin1_name":"Casablanca-Settat"},{"name":"Ben Ahmed","lat":33.06635,"lon":-7.24161,"population":36149,"iso_a3":"MAR","country":"Morocco","is_capital":false,"name_en":"Ben Ahmed","name_es":"Ben Ahmed","name_fr":"Ben Ahmed","name_it":"Ben Ahmed","name_ru":"Ben Ahmed","elevation":603.0,"timezone":"Africa/Casablanca","admin1_name":"Casablanca-Settat"},{"name":"Tit Mellil","lat":33.55808,"lon":-7.48647,"population":35797,"iso_a3":"MAR","country":"Morocco","is_capital":false,"name_en":"Tit Mellil","name_es":"Tit Mellil","name_fr":"Tit Mellil","name_it":"Tit Mellil","name_ru":"Tit Mellil","elevation":119.0,"timezone":"Africa/Casablanca","admin1_name":"Casablanca-Settat"},{"name":"Mehdya","lat":34.25596,"lon":-6.67345,"population":31269,"iso_a3":"MAR","country":"Morocco","is_capital":false,"name_en":"Mehdya","name_es":"Mehdya","name_fr":"Mehdya","name_it":"Mehdya","name_ru":"Mehdya","elevation":22.0,"timezone":"Africa/Casablanca","admin1_name":"Rabat-Salé-Kénitra"},{"name":"Tamesna","lat":33.81809,"lon":-6.91658,"population":30705,"iso_a3":"MAR","country":"Morocco","is_capital":false,"name_en":"Tamesna","name_es":"Tamesna","name_fr":"Tamesna","name_it":"Tamesna","name_ru":"Tamesna","elevation":133.0,"timezone":"Africa/Casablanca","admin1_name":"Rabat-Salé-Kénitra"}]