[{"name":"San-Pédro","lat":4.74851,"lon":-6.6363,"population":390654,"iso_a3":"CIV","country":"Ivory Coast","is_capital":false,"name_en":"San-Pédro","name_es":"San Pedro","name_fr":"San-Pédro","name_it":"San Pédro","name_ru":"Сан-Педро","elevation":9.0,"timezone":"Africa/Abidjan","admin1_name":"Bas-Sassandra District"},{"name":"Méagui","lat":5.4119,"lon":-6.5603,"population":74365,"iso_a3":"CIV","country":"Ivory Coast","is_capital":false,"name_en":"Méagui","name_es":"Méagui","name_fr":"Méagui","name_it":"Méagui","name_ru":"Méagui","elevation":134.0,"timezone":"Africa/Abidjan","admin1_name":"Bas-Sassandra District"},{"name":"Djapadji","lat":5.29114,"lon":-6.82023,"population":39673,"iso_a3":"CIV","country":"Ivory Coast","is_capital":false,"name_en":"Djapadji","name_es":"Djapadji","name_fr":"Djapadji","name_it":"Djapadji","name_ru":"Djapadji","elevation":153.0,"timezone":"Africa/Abidjan","admin1_name":"Bas-Sassandra District"},{"name":"Sassandra","lat":4.95384,"lon":-6.08531,"population":34492,"iso_a3":"CIV","country":"Ivory Coast","is_capital":false,"name_en":"Sassandra","name_es":"Sassandra","name_fr":"Sassandra","name_it":"Sassandra","name_ru":"Сассандра","elevation":38.0,"timezone":"Africa/Abidjan","admin1_name":"Bas-Sassandra District"},{"name":"Gligbeuadji","lat":5.2,"lon":-6.7,"population":32380,"iso_a3":"CIV","country":"Ivory Coast","is_capital":false,"name_en":"Gligbeuadji","name_es":"Gligbeuadji","name_fr":"Gligbeuadji","name_it":"Gligbeuadji","name_ru":"Gligbeuadji","elevation":135.0,"timezone":"Africa/Abidjan","admin1_name":"Bas-Sassandra District"},{"name":"Harper","lat":4.3782,"lon":-7.71081,"population":35503,"iso_a3":"LBR","country":"Liberia","is_capital":false,"name_en":"Harper","name_es":"Harper","name_fr":"Harper","name_it":"Harper","name_ru":"Harper","elevation":14.0,"timezone":"Africa/Monrovia","admin1_name":"Maryland County"},{"name":"Pleebo City","lat":4.58953,"lon":-7.67218,"population":35423,"iso_a3":"LBR","country":"Liberia","is_capital":false,"name_en":"Pleebo","name_es":"Pleebo","name_fr":"Pleebo","name_it":"Pleebo","name_ru":"Плибо","elevation":57.0,"timezone":"Africa/Monrovia","admin1_name":"Maryland County"}]