[{"name":"Dundee","lat":56.46913,"lon":-2.97489,"population":148210,"iso_a3":"GBR","country":"United Kingdom","is_capital":false,"name_en":"Dundee","name_es":"Dundee","name_fr":"Dundee","name_it":"Dundee","name_ru":"Данди","elevation":77.0,"timezone":"Europe/London","admin1_name":"Scotland"},{"name":"Paisley","lat":55.83173,"lon":-4.43254,"population":77270,"iso_a3":"GBR","country":"United Kingdom","is_capital":false,"name_en":"Paisley","name_es":"Paisley","name_fr":"Paisley","name_it":"Paisley","name_ru":"Пейсли","elevation":50.0,"timezone":"Europe/London","admin1_name":"Scotland"},{"name":"Livingston","lat":55.90288,"lon":-3.52261,"population":56840,"iso_a3":"GBR","country":"United Kingdom","is_capital":false,"name_en":"Livingston","name_es":"Livingston","name_fr":"Livingston","name_it":"Livingston","name_ru":"Ливингстон","elevation":157.0,"timezone":"Europe/London","admin1_name":"Scotland"},{"name":"Cumbernauld","lat":55.94685,"lon":-3.99051,"population":51610,"iso_a3":"GBR","country":"United Kingdom","is_capital":false,"name_en":"Cumbernauld","name_es":"Cumbernauld","name_fr":"Cumbernauld","name_it":"Cumbernauld","name_ru":"Cumbernauld","elevation":149.0,"timezone":"Europe/London","admin1_name":"Scotland"},{"name":"Dunfermline","lat":56.07156,"lon":-3.45887,"population":50380,"iso_a3":"GBR","country":"United Kingdom","is_capital":false,"name_en":"Dunfermline","name_es":"Dunfermline","name_fr":"Dunfermline","name_it":"Dunfermline","name_ru":"Данфермлин","elevation":107.0,"timezone":"Europe/London","admin1_name":"Scotland"},{"name":"Kirkcaldy","lat":56.11683,"lon":-3.15999,"population":49460,"iso_a3":"GBR","country":"United Kingdom","is_capital":false,"name_en":"Kirkcaldy","name_es":"Kirkcaldy","name_fr":"Kirkcaldy","name_it":"Kirkcaldy","name_ru":"Керколди","elevation":39.0,"timezone":"Europe/London","admin1_name":"Scotland"},{"name":"Perth","lat":56.39522,"lon":-3.43139,"population":47350,"iso_a3":"GBR","country":"United Kingdom","is_capital":false,"name_en":"Perth","name_es":"Perth","name_fr":"Perth","name_it":"Perth","name_ru":"Перт","elevation":10.0,"timezone":"Europe/London","admin1_name":"Scotland"},{"name":"Coatbridge","lat":55.86216,"lon":-4.02469,"population":43970,"iso_a3":"GBR","country":"United Kingdom","is_capital":false,"name_en":"Coatbridge","name_es":"Coatbridge","name_fr":"Coatbridge","name_it":"Coatbridge","name_ru":"Котбридж","elevation":88.0,"timezone":"Europe/London","admin1_name":"Scotland"},{"name":"Greenock","lat":55.94838,"lon":-4.76121,"population":41280,"iso_a3":"GBR","country":"United Kingdom","is_capital":false,"name_en":"Greenock","name_es":"Greenock","name_fr":"Greenock","name_it":"Greenock","name_ru":"Гринок","elevation":12.0,"timezone":"Europe/London","admin1_name":"Scotland"},{"name":"Glenrothes","lat":56.19514,"lon":-3.17316,"population":38360,"iso_a3":"GBR","country":"United Kingdom","is_capital":false,"name_en":"Glenrothes","name_es":"Glenrothes","name_fr":"Glenrothes","name_it":"Glenrothes","name_ru":"Гленротес","elevation":92.0,"timezone":"Europe/London","admin1_name":"Scotland"},{"name":"Stirling","lat":56.11903,"lon":-3.93682,"population":37910,"iso_a3":"GBR","country":"United Kingdom","is_capital":false,"name_en":"Stirling","name_es":"Stirling","name_fr":"Stirling","name_it":"Stirling","name_ru":"Стерлинг","elevation":24.0,"timezone":"Europe/London","admin1_name":"Scotland"},{"name":"Falkirk","lat":56.0021,"lon":-3.78535,"population":35310,"iso_a3":"GBR","country":"United Kingdom","is_capital":false,"name_en":"Falkirk","name_es":"Falkirk","name_fr":"Falkirk","name_it":"Falkirk","name_ru":"Фалкирк","elevation":25.0,"timezone":"Europe/London","admin1_name":"Scotland"}]