[{"name":"Liverpool","lat":53.41058,"lon":-2.97794,"population":496770,"iso_a3":"GBR","country":"United Kingdom","is_capital":false,"name_en":"Liverpool","name_es":"Liverpool","name_fr":"Liverpool","name_it":"Liverpool","name_ru":"Ливерпуль","elevation":30.0,"timezone":"Europe/London","admin1_name":"England"},{"name":"Blackpool","lat":53.81667,"lon":-3.05,"population":145007,"iso_a3":"GBR","country":"United Kingdom","is_capital":false,"name_en":"Blackpool","name_es":"Blackpool","name_fr":"Blackpool","name_it":"Blackpool","name_ru":"Блэкпул","elevation":21.0,"timezone":"Europe/London","admin1_name":"England"},{"name":"Southport","lat":53.64581,"lon":-3.01008,"population":91703,"iso_a3":"GBR","country":"United Kingdom","is_capital":false,"name_en":"Southport","name_es":"Southport","name_fr":"Southport","name_it":"Southport","name_ru":"Southport","elevation":9.0,"timezone":"Europe/London","admin1_name":"England"},{"name":"Chester","lat":53.1905,"lon":-2.89189,"population":90524,"iso_a3":"GBR","country":"United Kingdom","is_capital":false,"name_en":"Chester","name_es":"Chester","name_fr":"Chester","name_it":"Chester","name_ru":"Честер","elevation":34.0,"timezone":"Europe/London","admin1_name":"England"},{"name":"Fylde","lat":53.83333,"lon":-2.91667,"population":76500,"iso_a3":"GBR","country":"United Kingdom","is_capital":false,"name_en":"Fylde","name_es":"Fylde","name_fr":"Fylde","name_it":"Fylde","name_ru":"Fylde","elevation":22.0,"timezone":"Europe/London","admin1_name":"England"},{"name":"Wrexham","lat":53.04664,"lon":-2.99132,"population":65692,"iso_a3":"GBR","country":"United Kingdom","is_capital":false,"name_en":"Wrexham","name_es":"Wrexham","name_fr":"Wrexham","name_it":"Wrexham","name_ru":"Рексем","elevation":87.0,"timezone":"Europe/London","admin1_name":"Wales"},{"name":"Buckley","lat":53.16667,"lon":-3.08333,"population":63576,"iso_a3":"GBR","country":"United Kingdom","is_capital":false,"name_en":"Buckley","name_es":"Buckley","name_fr":"Buckley","name_it":"Buckley","name_ru":"Buckley","elevation":157.0,"timezone":"Europe/London","admin1_name":"Wales"},{"name":"Ellesmere Port Town","lat":53.27875,"lon":-2.90134,"population":61768,"iso_a3":"GBR","country":"United Kingdom","is_capital":false,"name_en":"Ellesmere Port","name_es":"Ellesmere Port","name_fr":"Ellesmere Port","name_it":"Ellesmere Port","name_ru":"Ellesmere Port","elevation":26.0,"timezone":"Europe/London","admin1_name":"England"},{"name":"Wallasey","lat":53.42324,"lon":-3.06497,"population":58794,"iso_a3":"GBR","country":"United Kingdom","is_capital":false,"name_en":"Wallasey","name_es":"Wallasey","name_fr":"Wallasey","name_it":"Wallasey","name_ru":"Уолласи","elevation":14.0,"timezone":"Europe/London","admin1_name":"England"},{"name":"Bootle","lat":53.46667,"lon":-3.01667,"population":57791,"iso_a3":"GBR","country":"United Kingdom","is_capital":false,"name_en":"Bootle","name_es":"Bootle","name_fr":"Bootle","name_it":"Bootle","name_ru":"Бутл","elevation":15.0,"timezone":"Europe/London","admin1_name":"England"},{"name":"Huyton","lat":53.4115,"lon":-2.83935,"population":54738,"iso_a3":"GBR","country":"United Kingdom","is_capital":false,"name_en":"Huyton","name_es":"Huyton","name_fr":"Huyton","name_it":"Huyton","name_ru":"Хейтон","elevation":40.0,"timezone":"Europe/London","admin1_name":"England"},{"name":"Morecambe","lat":54.06835,"lon":-2.86108,"population":51644,"iso_a3":"GBR","country":"United Kingdom","is_capital":false,"name_en":"Morecambe","name_es":"Morecambe","name_fr":"Morecambe","name_it":"Morecambe","name_ru":"Моркам","elevation":10.0,"timezone":"Europe/London","admin1_name":"England"},{"name":"Barrow in Furness","lat":54.11094,"lon":-3.22758,"population":45865,"iso_a3":"GBR","country":"United Kingdom","is_capital":false,"name_en":"Barrow in Furness","name_es":"Barrow in Furness","name_fr":"Barrow in Furness","name_it":"Barrow in Furness","name_ru":"Barrow in Furness","elevation":17.0,"timezone":"Europe/London","admin1_name":"England"},{"name":"Kirkby","lat":53.48138,"lon":-2.89215,"population":42744,"iso_a3":"GBR","country":"United Kingdom","is_capital":false,"name_en":"Kirkby","name_es":"Kirkby","name_fr":"Kirkby","name_it":"Kirkby","name_ru":"Керби","elevation":25.0,"timezone":"Europe/London","admin1_name":"England"},{"name":"Lytham St Annes","lat":53.7426,"lon":-2.997,"population":41327,"iso_a3":"GBR","country":"United Kingdom","is_capital":false,"name_en":"Lytham St Annes","name_es":"Lytham St Annes","name_fr":"Lytham St Annes","name_it":"Lytham St Annes","name_ru":"Lytham St Annes","elevation":10.0,"timezone":"Europe/London","admin1_name":"England"},{"name":"Colwyn Bay","lat":53.29483,"lon":-3.72674,"population":34284,"iso_a3":"GBR","country":"United Kingdom","is_capital":false,"name_en":"Colwyn Bay","name_es":"Colwyn Bay","name_fr":"Colwyn Bay","name_it":"Colwyn Bay","name_ru":"Colwyn Bay","elevation":25.0,"timezone":"Europe/London","admin1_name":"Wales"}]