[{"name":"Valladolid","lat":41.65541,"lon":-4.72353,"population":300618,"iso_a3":"ESP","country":"Spain","is_capital":false,"name_en":"Valladolid","name_es":"Valladolid","name_fr":"Valladolid","name_it":"Valladolid","name_ru":"Вальядолид","elevation":702.0,"timezone":"Europe/Madrid","admin1_name":"Castille and León"},{"name":"Burgos","lat":42.34106,"lon":-3.70184,"population":176418,"iso_a3":"ESP","country":"Spain","is_capital":false,"name_en":"Burgos","name_es":"Burgos","name_fr":"Burgos","name_it":"Burgos","name_ru":"Бургос","elevation":863.0,"timezone":"Europe/Madrid","admin1_name":"Castille and León"},{"name":"León","lat":42.60003,"lon":-5.57032,"population":124772,"iso_a3":"ESP","country":"Spain","is_capital":false,"name_en":"León","name_es":"León","name_fr":"León","name_it":"León","name_ru":"Леон","elevation":844.0,"timezone":"Europe/Madrid","admin1_name":"Castille and León"},{"name":"Palencia","lat":42.00955,"lon":-4.52406,"population":78629,"iso_a3":"ESP","country":"Spain","is_capital":false,"name_en":"Palencia","name_es":"Palencia","name_fr":"Palencia","name_it":"Palencia","name_ru":"Паленсия","elevation":739.0,"timezone":"Europe/Madrid","admin1_name":"Castille and León"},{"name":"Miranda de Ebro","lat":42.6865,"lon":-2.94695,"population":39264,"iso_a3":"ESP","country":"Spain","is_capital":false,"name_en":"Miranda de Ebro","name_es":"Miranda de Ebro","name_fr":"Miranda de Ebro","name_it":"Miranda de Ebro","name_ru":"Миранда-де-Эбро","elevation":466.0,"timezone":"Europe/Madrid","admin1_name":"Castille and León"},{"name":"Aranda de Duero","lat":41.67041,"lon":-3.6892,"population":33187,"iso_a3":"ESP","country":"Spain","is_capital":false,"name_en":"Aranda de Duero","name_es":"Aranda de Duero","name_fr":"Aranda de Duero","name_it":"Aranda de Duero","name_ru":"Аранда-де-Дуэро","elevation":800.0,"timezone":"Europe/Madrid","admin1_name":"Castille and León"}]