[{"name":"Mopti","lat":14.4843,"lon":-4.18296,"population":186187,"iso_a3":"MLI","country":"Mali","is_capital":false,"name_en":"Mopti","name_es":"Mopti","name_fr":"Mopti","name_it":"Mopti","name_ru":"Мопти","elevation":268.0,"timezone":"Africa/Bamako","admin1_name":"Mopti"},{"name":"Douentza","lat":15.00605,"lon":-2.9517,"population":37002,"iso_a3":"MLI","country":"Mali","is_capital":false,"name_en":"Douentza","name_es":"Douentza","name_fr":"Douentza","name_it":"Douentza","name_ru":"Douentza","elevation":307.0,"timezone":"Africa/Bamako","admin1_name":"Mopti"},{"name":"Moninnpébougou","lat":14.1508,"lon":-5.5209,"population":32899,"iso_a3":"MLI","country":"Mali","is_capital":false,"name_en":"Moninnpébougou","name_es":"Moninnpébougou","name_fr":"Moninnpébougou","name_it":"Moninnpébougou","name_ru":"Moninnpébougou","elevation":280.0,"timezone":"Africa/Bamako","admin1_name":"Ségou"},{"name":"Diré","lat":16.25705,"lon":-3.40126,"population":31348,"iso_a3":"MLI","country":"Mali","is_capital":false,"name_en":"Diré","name_es":"Diré","name_fr":"Diré","name_it":"Diré","name_ru":"Diré","elevation":272.0,"timezone":"Africa/Bamako","admin1_name":"Tombouctou"},{"name":"Bankass","lat":14.0775,"lon":-3.51594,"population":30159,"iso_a3":"MLI","country":"Mali","is_capital":false,"name_en":"Bankass","name_es":"Bankass","name_fr":"Bankass","name_it":"Bankass","name_ru":"Bankass","elevation":301.0,"timezone":"Africa/Bamako","admin1_name":"Mopti"}]