[{"name":"Banfora","lat":10.64064,"lon":-4.75285,"population":117452,"iso_a3":"BFA","country":"Burkina Faso","is_capital":false,"name_en":"Banfora","name_es":"Banfora","name_fr":"Banfora","name_it":"Banfora","name_ru":"Банфору","elevation":304.0,"timezone":"Africa/Ouagadougou","admin1_name":"Cascades Region"},{"name":"Gaoua","lat":10.33137,"lon":-3.18202,"population":45284,"iso_a3":"BFA","country":"Burkina Faso","is_capital":false,"name_en":"Gaoua","name_es":"Gaoua","name_fr":"Gaoua","name_it":"Gaoua","name_ru":"Гауа","elevation":337.0,"timezone":"Africa/Ouagadougou","admin1_name":"Sud-Ouest"},{"name":"Orodara","lat":10.98115,"lon":-4.91885,"population":33422,"iso_a3":"BFA","country":"Burkina Faso","is_capital":false,"name_en":"Orodara","name_es":"Orodara","name_fr":"Orodara","name_it":"Orodara","name_ru":"Ородара","elevation":532.0,"timezone":"Africa/Ouagadougou","admin1_name":"Hauts-Bassins"},{"name":"Niangoloko","lat":10.28333,"lon":-4.91667,"population":33292,"iso_a3":"BFA","country":"Burkina Faso","is_capital":false,"name_en":"Niangoloko","name_es":"Niangoloko","name_fr":"Niangoloko","name_it":"Niangoloko","name_ru":"Ньянголоко","elevation":353.0,"timezone":"Africa/Ouagadougou","admin1_name":"Cascades Region"},{"name":"Ferkessédougou","lat":9.5928,"lon":-5.19449,"population":72476,"iso_a3":"CIV","country":"Ivory Coast","is_capital":false,"name_en":"Ferkessédougou","name_es":"Ferkessédougou","name_fr":"Ferkessédougou","name_it":"Ferkessédougou","name_ru":"Феркеседугу","elevation":334.0,"timezone":"Africa/Abidjan","admin1_name":"Savanes District"},{"name":"Ouangolodougou","lat":9.96837,"lon":-5.14882,"population":49248,"iso_a3":"CIV","country":"Ivory Coast","is_capital":false,"name_en":"Ouangolodougou","name_es":"Ouangolodougou","name_fr":"Ouangolodougou","name_it":"Ouangolodougou","name_ru":"Ouangolodougou","elevation":328.0,"timezone":"Africa/Abidjan","admin1_name":"Savanes District"},{"name":"Doropo","lat":9.80955,"lon":-3.34577,"population":48225,"iso_a3":"CIV","country":"Ivory Coast","is_capital":false,"name_en":"Doropo","name_es":"Doropo","name_fr":"Doropo","name_it":"Doropo","name_ru":"Doropo","elevation":341.0,"timezone":"Africa/Abidjan","admin1_name":"Zanzan District"}]