[{"name":"Nantes","lat":47.21725,"lon":-1.55336,"population":325070,"iso_a3":"FRA","country":"France","is_capital":false,"name_en":"Nantes","name_es":"Nantes","name_fr":"Nantes","name_it":"Nantes","name_ru":"Нант","elevation":19.0,"timezone":"Europe/Paris","admin1_name":"Pays de la Loire"},{"name":"Rennes","lat":48.11109,"lon":-1.67431,"population":227830,"iso_a3":"FRA","country":"France","is_capital":false,"name_en":"Rennes","name_es":"Rennes","name_fr":"Rennes","name_it":"Rennes","name_ru":"Ренн","elevation":39.0,"timezone":"Europe/Paris","admin1_name":"Brittany"},{"name":"Angers","lat":47.47156,"lon":-0.55202,"population":168279,"iso_a3":"FRA","country":"France","is_capital":false,"name_en":"Angers","name_es":"Angers","name_fr":"Angers","name_it":"Angers","name_ru":"Анже","elevation":42.0,"timezone":"Europe/Paris","admin1_name":"Pays de la Loire"},{"name":"Saint-Nazaire","lat":47.27506,"lon":-2.2179,"population":67054,"iso_a3":"FRA","country":"France","is_capital":false,"name_en":"Saint-Nazaire","name_es":"Saint-Nazaire","name_fr":"Saint-Nazaire","name_it":"Saint-Nazaire","name_ru":"Сен-Назер","elevation":12.0,"timezone":"Europe/Paris","admin1_name":"Pays de la Loire"},{"name":"Vannes","lat":47.65688,"lon":-2.76205,"population":54020,"iso_a3":"FRA","country":"France","is_capital":false,"name_en":"Vannes","name_es":"Vannes","name_fr":"Vannes","name_it":"Vannes","name_ru":"Ван","elevation":20.0,"timezone":"Europe/Paris","admin1_name":"Brittany"},{"name":"Cholet","lat":47.05893,"lon":-0.87974,"population":53160,"iso_a3":"FRA","country":"France","is_capital":false,"name_en":"Cholet","name_es":"Cholet","name_fr":"Cholet","name_it":"Cholet","name_ru":"Шоле","elevation":84.0,"timezone":"Europe/Paris","admin1_name":"Pays de la Loire"},{"name":"Saint-Brieuc","lat":48.51513,"lon":-2.76838,"population":52774,"iso_a3":"FRA","country":"France","is_capital":false,"name_en":"Saint-Brieuc","name_es":"Saint-Brieuc","name_fr":"Saint-Brieuc","name_it":"Saint-Brieuc","name_ru":"Сент-Брие","elevation":96.0,"timezone":"Europe/Paris","admin1_name":"Brittany"},{"name":"Saint-Malo","lat":48.64738,"lon":-2.00877,"population":50676,"iso_a3":"FRA","country":"France","is_capital":false,"name_en":"St-Malo","name_es":"Saint-Malo","name_fr":"Saint-Malo","name_it":"Saint-Malo","name_ru":"Сен-Мало","elevation":10.0,"timezone":"Europe/Paris","admin1_name":"Brittany"},{"name":"Laval","lat":48.07247,"lon":-0.77019,"population":50489,"iso_a3":"FRA","country":"France","is_capital":false,"name_en":"Laval","name_es":"Laval","name_fr":"Laval","name_it":"Laval","name_ru":"Лаваль","elevation":54.0,"timezone":"Europe/Paris","admin1_name":"Pays de la Loire"},{"name":"Saint-Herblain","lat":47.21154,"lon":-1.651,"population":46898,"iso_a3":"FRA","country":"France","is_capital":false,"name_en":"Saint-Herblain","name_es":"Saint-Herblain","name_fr":"Saint-Herblain","name_it":"Saint-Herblain","name_ru":"Saint-Herblain","elevation":23.0,"timezone":"Europe/Paris","admin1_name":"Pays de la Loire"},{"name":"Saumur","lat":47.25931,"lon":-0.07808,"population":33229,"iso_a3":"FRA","country":"France","is_capital":false,"name_en":"Saumur","name_es":"Saumur","name_fr":"Saumur","name_it":"Saumur","name_ru":"Сомюр","elevation":34.0,"timezone":"Europe/Paris","admin1_name":"Pays de la Loire"}]