[{"name":"Caen","lat":49.18585,"lon":-0.35912,"population":110624,"iso_a3":"FRA","country":"France","is_capital":false,"name_en":"Caen","name_es":"Caen","name_fr":"Caen","name_it":"Caen","name_ru":"Кан","elevation":21.0,"timezone":"Europe/Paris","admin1_name":"Normandy"},{"name":"Bournemouth","lat":50.72048,"lon":-1.8795,"population":163600,"iso_a3":"GBR","country":"United Kingdom","is_capital":false,"name_en":"Bournemouth","name_es":"Bournemouth","name_fr":"Bournemouth","name_it":"Bournemouth","name_ru":"Борнмут","elevation":19.0,"timezone":"Europe/London","admin1_name":"England"},{"name":"Poole","lat":50.71429,"lon":-1.98458,"population":150092,"iso_a3":"GBR","country":"United Kingdom","is_capital":false,"name_en":"Poole","name_es":"Poole","name_fr":"Poole","name_it":"Poole","name_ru":"Пул","elevation":6.0,"timezone":"Europe/London","admin1_name":"England"},{"name":"Weymouth","lat":50.61448,"lon":-2.45991,"population":57691,"iso_a3":"GBR","country":"United Kingdom","is_capital":false,"name_en":"Weymouth","name_es":"Weymouth","name_fr":"Weymouth","name_it":"Weymouth","name_ru":"Уэймут","elevation":-2.0,"timezone":"Europe/London","admin1_name":"England"},{"name":"Christchurch","lat":50.73583,"lon":-1.78129,"population":42396,"iso_a3":"GBR","country":"United Kingdom","is_capital":false,"name_en":"Christchurch","name_es":"Christchurch","name_fr":"Christchurch","name_it":"Christchurch","name_ru":"Крайстчерч","elevation":4.0,"timezone":"Europe/London","admin1_name":"England"}]