[{"name":"Koudougou","lat":12.25188,"lon":-2.36694,"population":160239,"iso_a3":"BFA","country":"Burkina Faso","is_capital":false,"name_en":"Koudougou","name_es":"Koudougou","name_fr":"Koudougou","name_it":"Koudougou","name_ru":"Кудугу","elevation":281.0,"timezone":"Africa/Ouagadougou","admin1_name":"Centre-Ouest"},{"name":"Saaba","lat":12.37136,"lon":-1.41468,"population":136011,"iso_a3":"BFA","country":"Burkina Faso","is_capital":false,"name_en":"Saaba","name_es":"Saaba","name_fr":"Saaba","name_it":"Saaba","name_ru":"Saaba","elevation":305.0,"timezone":"Africa/Ouagadougou","admin1_name":"Centre"},{"name":"Ouahigouya","lat":13.5769,"lon":-2.41786,"population":124587,"iso_a3":"BFA","country":"Burkina Faso","is_capital":false,"name_en":"Ouahigouya","name_es":"Ouahigouya","name_fr":"Ouahigouya","name_it":"Ouahigouya","name_ru":"Вахигуя","elevation":317.0,"timezone":"Africa/Ouagadougou","admin1_name":"Nord"},{"name":"Kaya","lat":13.0883,"lon":-1.08368,"population":121970,"iso_a3":"BFA","country":"Burkina Faso","is_capital":false,"name_en":"Kaya","name_es":"Kaya","name_fr":"Kaya","name_it":"Kaya","name_ru":"Кая","elevation":366.0,"timezone":"Africa/Ouagadougou","admin1_name":"Centre-Nord"},{"name":"Pouytenga","lat":12.25162,"lon":-0.42565,"population":96469,"iso_a3":"BFA","country":"Burkina Faso","is_capital":false,"name_en":"Pouytenga","name_es":"Pouytenga","name_fr":"Pouytenga","name_it":"Pouytenga","name_ru":"Pouytenga","elevation":318.0,"timezone":"Africa/Ouagadougou","admin1_name":"Centre-Est"},{"name":"Tenkodogo","lat":11.78442,"lon":-0.37184,"population":61936,"iso_a3":"BFA","country":"Burkina Faso","is_capital":false,"name_en":"Tenkodogo","name_es":"Tenkodogo","name_fr":"Tenkodogo","name_it":"Tenkodogo","name_ru":"Тенкодого","elevation":237.0,"timezone":"Africa/Ouagadougou","admin1_name":"Centre-Est"},{"name":"Kongoussi","lat":13.32583,"lon":-1.53472,"population":53627,"iso_a3":"BFA","country":"Burkina Faso","is_capital":false,"name_en":"Kongoussi","name_es":"Kongoussi","name_fr":"Kongoussi","name_it":"Kongoussi","name_ru":"Конгуси","elevation":330.0,"timezone":"Africa/Ouagadougou","admin1_name":"Centre-Nord"},{"name":"Koupéla","lat":12.17864,"lon":-0.35103,"population":49372,"iso_a3":"BFA","country":"Burkina Faso","is_capital":false,"name_en":"Koupéla","name_es":"Koupéla","name_fr":"Koupéla","name_it":"Koupéla","name_ru":"Koupéla","elevation":306.0,"timezone":"Africa/Ouagadougou","admin1_name":"Centre-Est"},{"name":"Titao","lat":13.76667,"lon":-2.06667,"population":48241,"iso_a3":"BFA","country":"Burkina Faso","is_capital":false,"name_en":"Titao","name_es":"Titao","name_fr":"Titao","name_it":"Titao","name_ru":"Titao","elevation":326.0,"timezone":"Africa/Ouagadougou","admin1_name":"Nord"},{"name":"Saonré","lat":12.2751,"lon":-1.57692,"population":47728,"iso_a3":"BFA","country":"Burkina Faso","is_capital":false,"name_en":"Saonré","name_es":"Saonré","name_fr":"Saonré","name_it":"Saonré","name_ru":"Saonré","elevation":310.0,"timezone":"Africa/Ouagadougou","admin1_name":"Centre"},{"name":"Garango","lat":11.8,"lon":-0.55056,"population":40404,"iso_a3":"BFA","country":"Burkina Faso","is_capital":false,"name_en":"Garango","name_es":"Garango","name_fr":"Garango","name_it":"Garango","name_ru":"Гаранго","elevation":304.0,"timezone":"Africa/Ouagadougou","admin1_name":"Centre-Est"},{"name":"Gourcy","lat":13.20776,"lon":-2.35893,"population":40141,"iso_a3":"BFA","country":"Burkina Faso","is_capital":false,"name_en":"Gourcy","name_es":"Gourcy","name_fr":"Gourcy","name_it":"Gourcy","name_ru":"Gourcy","elevation":331.0,"timezone":"Africa/Ouagadougou","admin1_name":"Nord"},{"name":"Yako","lat":12.9591,"lon":-2.26075,"population":38679,"iso_a3":"BFA","country":"Burkina Faso","is_capital":false,"name_en":"Yako","name_es":"Yako","name_fr":"Yako","name_it":"Yako","name_ru":"Яко","elevation":332.0,"timezone":"Africa/Ouagadougou","admin1_name":"Nord"},{"name":"Zorgo","lat":12.24922,"lon":-0.61527,"population":35398,"iso_a3":"BFA","country":"Burkina Faso","is_capital":false,"name_en":"Zorgo","name_es":"Zorgo","name_fr":"Zorgo","name_it":"Zorgo","name_ru":"Zorgo","elevation":312.0,"timezone":"Africa/Ouagadougou","admin1_name":"Plateau-Central"},{"name":"Réo","lat":12.31963,"lon":-2.47094,"population":33894,"iso_a3":"BFA","country":"Burkina Faso","is_capital":false,"name_en":"Réo","name_es":"Réo","name_fr":"Réo","name_it":"Réo","name_ru":"Рео","elevation":300.0,"timezone":"Africa/Ouagadougou","admin1_name":"Centre-Ouest"},{"name":"Ziniaré","lat":12.58236,"lon":-1.29753,"population":33296,"iso_a3":"BFA","country":"Burkina Faso","is_capital":false,"name_en":"Ziniaré","name_es":"Ziniaré","name_fr":"Ziniaré","name_it":"Ziniaré","name_ru":"Ziniaré","elevation":303.0,"timezone":"Africa/Ouagadougou","admin1_name":"Plateau-Central"},{"name":"Bittou","lat":11.25806,"lon":-0.30611,"population":31210,"iso_a3":"BFA","country":"Burkina Faso","is_capital":false,"name_en":"Bittou","name_es":"Bittou","name_fr":"Bittou","name_it":"Bittou","name_ru":"Bittou","elevation":242.0,"timezone":"Africa/Ouagadougou","admin1_name":"Centre-Est"}]