[{"name":"Le Havre","lat":49.49346,"lon":0.10785,"population":185972,"iso_a3":"FRA","country":"France","is_capital":false,"name_en":"Le Havre","name_es":"El Havre","name_fr":"Le Havre","name_it":"Le Havre","name_ru":"Гавр","elevation":5.0,"timezone":"Europe/Paris","admin1_name":"Normandy"},{"name":"Amiens","lat":49.9,"lon":2.3,"population":143086,"iso_a3":"FRA","country":"France","is_capital":false,"name_en":"Amiens","name_es":"Amiens","name_fr":"Amiens","name_it":"Amiens","name_ru":"Амьен","elevation":28.0,"timezone":"Europe/Paris","admin1_name":"Hauts-de-France"},{"name":"Rouen","lat":49.44313,"lon":1.09932,"population":116331,"iso_a3":"FRA","country":"France","is_capital":false,"name_en":"Rouen","name_es":"Ruan","name_fr":"Rouen","name_it":"Rouen","name_ru":"Руан","elevation":21.0,"timezone":"Europe/Paris","admin1_name":"Normandy"},{"name":"Argenteuil","lat":48.94788,"lon":2.24744,"population":101475,"iso_a3":"FRA","country":"France","is_capital":false,"name_en":"Argenteuil","name_es":"Argenteuil","name_fr":"Argenteuil","name_it":"Argenteuil","name_ru":"Аржантей","elevation":37.0,"timezone":"Europe/Paris","admin1_name":"Île-de-France"},{"name":"Saint-Denis","lat":48.93564,"lon":2.35387,"population":96128,"iso_a3":"FRA","country":"France","is_capital":false,"name_en":"Saint-Denis","name_es":"Saint-Denis","name_fr":"Saint-Denis","name_it":"Saint-Denis","name_ru":"Сен-Дени","elevation":34.0,"timezone":"Europe/Paris","admin1_name":"Île-de-France"},{"name":"Sarcelles","lat":48.99739,"lon":2.37821,"population":57979,"iso_a3":"FRA","country":"France","is_capital":false,"name_en":"Sarcelles","name_es":"Sarcelles","name_fr":"Sarcelles","name_it":"Sarcelles","name_ru":"Сарсель","elevation":62.0,"timezone":"Europe/Paris","admin1_name":"Île-de-France"},{"name":"Évreux","lat":49.02414,"lon":1.15082,"population":57795,"iso_a3":"FRA","country":"France","is_capital":false,"name_en":"Évreux","name_es":"Évreux","name_fr":"Évreux","name_it":"Évreux","name_ru":"Эврё","elevation":71.0,"timezone":"Europe/Paris","admin1_name":"Normandy"},{"name":"Beauvais","lat":49.43333,"lon":2.08333,"population":53393,"iso_a3":"FRA","country":"France","is_capital":false,"name_en":"Beauvais","name_es":"Beauvais","name_fr":"Beauvais","name_it":"Beauvais","name_ru":"Бове","elevation":71.0,"timezone":"Europe/Paris","admin1_name":"Hauts-de-France"},{"name":"Sevran","lat":48.94472,"lon":2.52746,"population":47334,"iso_a3":"FRA","country":"France","is_capital":false,"name_en":"Sevran","name_es":"Sevran","name_fr":"Sevran","name_it":"Sevran","name_ru":"Sevran","elevation":55.0,"timezone":"Europe/Paris","admin1_name":"Île-de-France"},{"name":"Arras","lat":50.29301,"lon":2.78186,"population":47052,"iso_a3":"FRA","country":"France","is_capital":false,"name_en":"Arras","name_es":"Arrás","name_fr":"Arras","name_it":"Arras","name_ru":"Аррас","elevation":73.0,"timezone":"Europe/Paris","admin1_name":"Hauts-de-France"},{"name":"Boulogne-sur-Mer","lat":50.72485,"lon":1.61373,"population":47013,"iso_a3":"FRA","country":"France","is_capital":false,"name_en":"Boulogne-sur-Mer","name_es":"Boulogne-sur-Mer","name_fr":"Boulogne-sur-Mer","name_it":"Boulogne-sur-Mer","name_ru":"Булонь-сюр-Мер","elevation":43.0,"timezone":"Europe/Paris","admin1_name":"Hauts-de-France"},{"name":"Mantes-la-Jolie","lat":48.99048,"lon":1.7167,"population":44263,"iso_a3":"FRA","country":"France","is_capital":false,"name_en":"Mantes-la-Jolie","name_es":"Mantes-la-Jolie","name_fr":"Mantes-la-Jolie","name_it":"Mantes-la-Jolie","name_ru":"Мант-ля-Жоли","elevation":41.0,"timezone":"Europe/Paris","admin1_name":"Île-de-France"},{"name":"Conflans-Sainte-Honorine","lat":49.00158,"lon":2.09694,"population":36358,"iso_a3":"FRA","country":"France","is_capital":false,"name_en":"Conflans-Sainte-Honorine","name_es":"Conflans-Sainte-Honorine","name_fr":"Conflans-Sainte-Honorine","name_it":"Conflans-Sainte-Honorine","name_ru":"Конфлан-Сент-Онорин","elevation":48.0,"timezone":"Europe/Paris","admin1_name":"Île-de-France"},{"name":"Dieppe","lat":49.9216,"lon":1.07772,"population":35707,"iso_a3":"FRA","country":"France","is_capital":false,"name_en":"Dieppe","name_es":"Dieppe","name_fr":"Dieppe","name_it":"Dieppe","name_ru":"Дьеп","elevation":9.0,"timezone":"Europe/Paris","admin1_name":"Normandy"},{"name":"Les Mureaux","lat":48.99173,"lon":1.90972,"population":32134,"iso_a3":"FRA","country":"France","is_capital":false,"name_en":"Les Mureaux","name_es":"Les Mureaux","name_fr":"Les Mureaux","name_it":"Les Mureaux","name_ru":"Les Mureaux","elevation":25.0,"timezone":"Europe/Paris","admin1_name":"Île-de-France"},{"name":"Creil","lat":49.25672,"lon":2.48477,"population":31863,"iso_a3":"FRA","country":"France","is_capital":false,"name_en":"Creil","name_es":"Creil","name_fr":"Creil","name_it":"Creil","name_ru":"Крей","elevation":73.0,"timezone":"Europe/Paris","admin1_name":"Hauts-de-France"},{"name":"Béthune","lat":50.52965,"lon":2.64003,"population":31568,"iso_a3":"FRA","country":"France","is_capital":false,"name_en":"Béthune","name_es":"Béthune","name_fr":"Béthune","name_it":"Béthune","name_ru":"Бетюн","elevation":37.0,"timezone":"Europe/Paris","admin1_name":"Hauts-de-France"},{"name":"Pontoise","lat":49.05,"lon":2.1,"population":30290,"iso_a3":"FRA","country":"France","is_capital":false,"name_en":"Pontoise","name_es":"Pontoise","name_fr":"Pontoise","name_it":"Pontoise","name_ru":"Понтуаз","elevation":46.0,"timezone":"Europe/Paris","admin1_name":"Île-de-France"},{"name":"Goussainville","lat":49.01367,"lon":2.46595,"population":30047,"iso_a3":"FRA","country":"France","is_capital":false,"name_en":"Goussainville","name_es":"Goussainville","name_fr":"Goussainville","name_it":"Goussainville","name_ru":"Goussainville","elevation":73.0,"timezone":"Europe/Paris","admin1_name":"Île-de-France"}]