[{"name":"Palma","lat":39.56939,"lon":2.65024,"population":438234,"iso_a3":"ESP","country":"Spain","is_capital":false,"name_en":"Palma","name_es":"Palma de Mallorca","name_fr":"Palma","name_it":"Palma di Maiorca","name_ru":"Пальма","elevation":34.0,"timezone":"Europe/Madrid","admin1_name":"Balearic Islands"},{"name":"Calvià","lat":39.5657,"lon":2.50621,"population":51774,"iso_a3":"ESP","country":"Spain","is_capital":false,"name_en":"Calvià","name_es":"Calvià","name_fr":"Calviá","name_it":"Calvià","name_ru":"Кальвия","elevation":125.0,"timezone":"Europe/Madrid","admin1_name":"Balearic Islands"},{"name":"Ibiza","lat":38.90883,"lon":1.43296,"population":49727,"iso_a3":"ESP","country":"Spain","is_capital":false,"name_en":"Ibiza Town","name_es":"Ibiza","name_fr":"Ibiza","name_it":"Ibiza","name_ru":"Ибица","elevation":7.0,"timezone":"Europe/Madrid","admin1_name":"Balearic Islands"},{"name":"Denia","lat":38.84078,"lon":0.10574,"population":41733,"iso_a3":"ESP","country":"Spain","is_capital":false,"name_en":"Denia","name_es":"Denia","name_fr":"Denia","name_it":"Denia","name_ru":"Дения","elevation":18.0,"timezone":"Europe/Madrid","admin1_name":"Valencia"},{"name":"Marratxí","lat":39.62142,"lon":2.7253,"population":36725,"iso_a3":"ESP","country":"Spain","is_capital":false,"name_en":"Marratxí","name_es":"Marratxí","name_fr":"Marratxí","name_it":"Marratxí","name_ru":"Маррачи","elevation":72.0,"timezone":"Europe/Madrid","admin1_name":"Balearic Islands"},{"name":"Tortosa","lat":40.81249,"lon":0.5216,"population":35143,"iso_a3":"ESP","country":"Spain","is_capital":false,"name_en":"Tortosa","name_es":"Tortosa","name_fr":"Tortosa","name_it":"Tortosa","name_ru":"Тортоса","elevation":18.0,"timezone":"Europe/Madrid","admin1_name":"Catalonia"},{"name":"Santa Eulària des Riu","lat":38.98457,"lon":1.53409,"population":31314,"iso_a3":"ESP","country":"Spain","is_capital":false,"name_en":"Santa Eulària des Riu","name_es":"Santa Eulalia del Río","name_fr":"Santa Eulària des Riu","name_it":"Santa Eulària des Riu","name_ru":"Санта-Эулалия-дель-Рио","elevation":9.0,"timezone":"Europe/Madrid","admin1_name":"Balearic Islands"}]