[{"name":"Marne La Vallée","lat":48.83584,"lon":2.64241,"population":318325,"iso_a3":"FRA","country":"France","is_capital":false,"name_en":"Marne La Vallée","name_es":"Marne La Vallée","name_fr":"Marne La Vallée","name_it":"Marne La Vallée","name_ru":"Marne La Vallée","elevation":96.0,"timezone":"Europe/Paris","admin1_name":"Île-de-France"},{"name":"Saint-Quentin-en-Yvelines","lat":48.77186,"lon":2.01891,"population":146598,"iso_a3":"FRA","country":"France","is_capital":false,"name_en":"Saint-Quentin-en-Yvelines","name_es":"Saint-Quentin-en-Yvelines","name_fr":"Saint-Quentin-en-Yvelines","name_it":"Saint-Quentin-en-Yvelines","name_ru":"Saint-Quentin-en-Yvelines","elevation":166.0,"timezone":"Europe/Paris","admin1_name":"Île-de-France"},{"name":"Le Mans","lat":48.0021,"lon":0.20251,"population":144515,"iso_a3":"FRA","country":"France","is_capital":false,"name_en":"Le Mans","name_es":"Le Mans","name_fr":"Le Mans","name_it":"Le Mans","name_ru":"Ле-Ман","elevation":65.0,"timezone":"Europe/Paris","admin1_name":"Pays de la Loire"},{"name":"Tours","lat":47.39484,"lon":0.70398,"population":141621,"iso_a3":"FRA","country":"France","is_capital":false,"name_en":"Tours","name_es":"Tours","name_fr":"Tours","name_it":"Tours","name_ru":"Тур","elevation":52.0,"timezone":"Europe/Paris","admin1_name":"Centre-Val de Loire"},{"name":"Orléans","lat":47.90248,"lon":1.90407,"population":116344,"iso_a3":"FRA","country":"France","is_capital":false,"name_en":"Orléans","name_es":"Orleáns","name_fr":"Orléans","name_it":"Orléans","name_ru":"Орлеан","elevation":115.0,"timezone":"Europe/Paris","admin1_name":"Centre-Val de Loire"},{"name":"Boulogne-Billancourt","lat":48.83545,"lon":2.24128,"population":108782,"iso_a3":"FRA","country":"France","is_capital":false,"name_en":"Boulogne-Billancourt","name_es":"Boulogne-Billancourt","name_fr":"Boulogne-Billancourt","name_it":"Boulogne-Billancourt","name_ru":"Булонь-Бийанкур","elevation":35.0,"timezone":"Europe/Paris","admin1_name":"Île-de-France"},{"name":"Nanterre","lat":48.89198,"lon":2.20675,"population":86719,"iso_a3":"FRA","country":"France","is_capital":false,"name_en":"Nanterre","name_es":"Nanterre","name_fr":"Nanterre","name_it":"Nanterre","name_ru":"Нантер","elevation":50.0,"timezone":"Europe/Paris","admin1_name":"Île-de-France"},{"name":"Versailles","lat":48.80359,"lon":2.13424,"population":85416,"iso_a3":"FRA","country":"France","is_capital":false,"name_en":"Versailles","name_es":"Versalles","name_fr":"Versailles","name_it":"Versailles","name_ru":"Версаль","elevation":140.0,"timezone":"Europe/Paris","admin1_name":"Île-de-France"},{"name":"Créteil","lat":48.79266,"lon":2.46569,"population":84833,"iso_a3":"FRA","country":"France","is_capital":false,"name_en":"Créteil","name_es":"Créteil","name_fr":"Créteil","name_it":"Créteil","name_ru":"Кретей","elevation":49.0,"timezone":"Europe/Paris","admin1_name":"Île-de-France"},{"name":"Bourges","lat":47.08333,"lon":2.4,"population":67987,"iso_a3":"FRA","country":"France","is_capital":false,"name_en":"Bourges","name_es":"Bourges","name_fr":"Bourges","name_it":"Bourges","name_ru":"Бурж","elevation":144.0,"timezone":"Europe/Paris","admin1_name":"Centre-Val de Loire"},{"name":"Noisy-le-Grand","lat":48.84979,"lon":2.56266,"population":62420,"iso_a3":"FRA","country":"France","is_capital":false,"name_en":"Noisy-le-Grand","name_es":"Noisy-le-Grand","name_fr":"Noisy-le-Grand","name_it":"Noisy-le-Grand","name_ru":"Шумная-ле-Гран","elevation":81.0,"timezone":"Europe/Paris","admin1_name":"Île-de-France"},{"name":"Levallois-Perret","lat":48.89389,"lon":2.28864,"population":62178,"iso_a3":"FRA","country":"France","is_capital":false,"name_en":"Levallois-Perret","name_es":"Levallois-Perret","name_fr":"Levallois-Perret","name_it":"Levallois-Perret","name_ru":"Леваллуа-Перре","elevation":38.0,"timezone":"Europe/Paris","admin1_name":"Île-de-France"},{"name":"Antony","lat":48.75329,"lon":2.29668,"population":59845,"iso_a3":"FRA","country":"France","is_capital":false,"name_en":"Antony","name_es":"Antony","name_fr":"Antony","name_it":"Antony","name_ru":"Antony","elevation":66.0,"timezone":"Europe/Paris","admin1_name":"Île-de-France"},{"name":"Blois","lat":47.59432,"lon":1.32912,"population":53660,"iso_a3":"FRA","country":"France","is_capital":false,"name_en":"Blois","name_es":"Blois","name_fr":"Blois","name_it":"Blois","name_ru":"Блуа","elevation":109.0,"timezone":"Europe/Paris","admin1_name":"Centre-Val de Loire"},{"name":"Évry","lat":48.6328,"lon":2.44049,"population":51900,"iso_a3":"FRA","country":"France","is_capital":false,"name_en":"Évry","name_es":"Évry","name_fr":"Évry","name_it":"Évry","name_ru":"Évry","elevation":81.0,"timezone":"Europe/Paris","admin1_name":"Île-de-France"},{"name":"Villejuif","lat":48.7939,"lon":2.35992,"population":48048,"iso_a3":"FRA","country":"France","is_capital":false,"name_en":"Villejuif","name_es":"Villejuif","name_fr":"Villejuif","name_it":"Villejuif","name_ru":"Вильжюиф","elevation":110.0,"timezone":"Europe/Paris","admin1_name":"Île-de-France"},{"name":"Bobigny","lat":48.90982,"lon":2.45012,"population":44962,"iso_a3":"FRA","country":"France","is_capital":false,"name_en":"Bobigny","name_es":"Bobigny","name_fr":"Bobigny","name_it":"Bobigny","name_ru":"Бобиньи","elevation":51.0,"timezone":"Europe/Paris","admin1_name":"Île-de-France"},{"name":"Chartres","lat":48.44685,"lon":1.48925,"population":43838,"iso_a3":"FRA","country":"France","is_capital":false,"name_en":"Chartres","name_es":"Chartres","name_fr":"Chartres","name_it":"Chartres","name_ru":"Шартр","elevation":158.0,"timezone":"Europe/Paris","admin1_name":"Centre-Val de Loire"},{"name":"Saint-Germain-en-Laye","lat":48.89643,"lon":2.0904,"population":41142,"iso_a3":"FRA","country":"France","is_capital":false,"name_en":"Saint-Germain-en-Laye","name_es":"Saint-Germain-en-Laye","name_fr":"Saint-Germain-en-Laye","name_it":"Saint-Germain-en-Laye","name_ru":"Сен-Жермен-ан-Ле","elevation":98.0,"timezone":"Europe/Paris","admin1_name":"Île-de-France"},{"name":"Savigny-sur-Orge","lat":48.67677,"lon":2.34835,"population":39698,"iso_a3":"FRA","country":"France","is_capital":false,"name_en":"Savigny-sur-Orge","name_es":"Savigny-sur-Orge","name_fr":"Savigny-sur-Orge","name_it":"Savigny-sur-Orge","name_ru":"Савиньи-сюр-Орж","elevation":71.0,"timezone":"Europe/Paris","admin1_name":"Île-de-France"},{"name":"Melun","lat":48.5457,"lon":2.65356,"population":38953,"iso_a3":"FRA","country":"France","is_capital":false,"name_en":"Melun","name_es":"Melun","name_fr":"Melun","name_it":"Melun","name_ru":"Мелён","elevation":73.0,"timezone":"Europe/Paris","admin1_name":"Île-de-France"},{"name":"Joué-lès-Tours","lat":47.34907,"lon":0.66513,"population":37466,"iso_a3":"FRA","country":"France","is_capital":false,"name_en":"Joué-lès-Tours","name_es":"Joué-lès-Tours","name_fr":"Joué-lès-Tours","name_it":"Joué-lès-Tours","name_ru":"Жу-ле-Тур","elevation":81.0,"timezone":"Europe/Paris","admin1_name":"Centre-Val de Loire"},{"name":"Plaisir","lat":48.82319,"lon":1.9541,"population":36121,"iso_a3":"FRA","country":"France","is_capital":false,"name_en":"Plaisir","name_es":"Plaisir","name_fr":"Plaisir","name_it":"Plaisir","name_ru":"Plaisir","elevation":120.0,"timezone":"Europe/Paris","admin1_name":"Île-de-France"},{"name":"Bagnolet","lat":48.86667,"lon":2.41667,"population":33504,"iso_a3":"FRA","country":"France","is_capital":false,"name_en":"Bagnolet","name_es":"Bagnolet","name_fr":"Bagnolet","name_it":"Bagnolet","name_ru":"Баньоле","elevation":82.0,"timezone":"Europe/Paris","admin1_name":"Île-de-France"},{"name":"Palaiseau","lat":48.71828,"lon":2.2498,"population":31987,"iso_a3":"FRA","country":"France","is_capital":false,"name_en":"Palaiseau","name_es":"Palaiseau","name_fr":"Palaiseau","name_it":"Palaiseau","name_ru":"Палезо","elevation":92.0,"timezone":"Europe/Paris","admin1_name":"Île-de-France"},{"name":"Nogent-sur-Marne","lat":48.83669,"lon":2.48255,"population":31236,"iso_a3":"FRA","country":"France","is_capital":false,"name_en":"Nogent-sur-Marne","name_es":"Nogent-sur-Marne","name_fr":"Nogent-sur-Marne","name_it":"Nogent-sur-Marne","name_ru":"Ножан-сюр-Марн","elevation":81.0,"timezone":"Europe/Paris","admin1_name":"Île-de-France"},{"name":"Dreux","lat":48.73649,"lon":1.36566,"population":31058,"iso_a3":"FRA","country":"France","is_capital":false,"name_en":"Dreux","name_es":"Dreux","name_fr":"Dreux","name_it":"Dreux","name_ru":"Дрё","elevation":96.0,"timezone":"Europe/Paris","admin1_name":"Centre-Val de Loire"},{"name":"Villeneuve-Saint-Georges","lat":48.73219,"lon":2.44925,"population":30881,"iso_a3":"FRA","country":"France","is_capital":false,"name_en":"Villeneuve-Saint-Georges","name_es":"Villeneuve-Saint-Georges","name_fr":"Villeneuve-Saint-Georges","name_it":"Villeneuve-Saint-Georges","name_ru":"Вильнёв-Сен-Жорж","elevation":35.0,"timezone":"Europe/Paris","admin1_name":"Île-de-France"},{"name":"Alençon","lat":48.43476,"lon":0.09311,"population":30786,"iso_a3":"FRA","country":"France","is_capital":false,"name_en":"Alençon","name_es":"Alenzón","name_fr":"Alençon","name_it":"Alençon","name_ru":"Алансон","elevation":147.0,"timezone":"Europe/Paris","admin1_name":"Normandy"}]