[{"name":"Charleroi","lat":50.41136,"lon":4.44448,"population":200132,"iso_a3":"BEL","country":"Belgium","is_capital":false,"name_en":"Charleroi","name_es":"Charleroi","name_fr":"Charleroi","name_it":"Charleroi","name_ru":"Шарлеруа","elevation":136.0,"timezone":"Europe/Brussels","admin1_name":"Wallonia"},{"name":"Liège","lat":50.63373,"lon":5.56749,"population":195278,"iso_a3":"BEL","country":"Belgium","is_capital":false,"name_en":"Liège","name_es":"Lieja","name_fr":"Liège","name_it":"Liegi","name_ru":"Льеж","elevation":66.0,"timezone":"Europe/Brussels","admin1_name":"Wallonia"},{"name":"Namur","lat":50.4669,"lon":4.86746,"population":110939,"iso_a3":"BEL","country":"Belgium","is_capital":false,"name_en":"Namur","name_es":"Namur","name_fr":"Namur","name_it":"Namur","name_ru":"Намюр","elevation":88.0,"timezone":"Europe/Brussels","admin1_name":"Wallonia"},{"name":"Mons","lat":50.45413,"lon":3.95229,"population":95299,"iso_a3":"BEL","country":"Belgium","is_capital":false,"name_en":"Mons","name_es":"Mons","name_fr":"Mons","name_it":"Mons","name_ru":"Монс","elevation":56.0,"timezone":"Europe/Brussels","admin1_name":"Wallonia"},{"name":"La Louvière","lat":50.48657,"lon":4.18785,"population":76668,"iso_a3":"BEL","country":"Belgium","is_capital":false,"name_en":"La Louvière","name_es":"La Louvière","name_fr":"La Louvière","name_it":"La Louvière","name_ru":"Ла-Лувьер","elevation":133.0,"timezone":"Europe/Brussels","admin1_name":"Wallonia"},{"name":"Tournai","lat":50.60715,"lon":3.38932,"population":69554,"iso_a3":"BEL","country":"Belgium","is_capital":false,"name_en":"Tournai","name_es":"Tournai","name_fr":"Tournai","name_it":"Tournai","name_ru":"Турне","elevation":24.0,"timezone":"Europe/Brussels","admin1_name":"Wallonia"},{"name":"Seraing","lat":50.58362,"lon":5.50115,"population":60737,"iso_a3":"BEL","country":"Belgium","is_capital":false,"name_en":"Seraing","name_es":"Seraing","name_fr":"Seraing","name_it":"Seraing","name_ru":"Серен","elevation":185.0,"timezone":"Europe/Brussels","admin1_name":"Wallonia"},{"name":"Braine-l'Alleud","lat":50.68363,"lon":4.36784,"population":37512,"iso_a3":"BEL","country":"Belgium","is_capital":false,"name_en":"Braine-l'Alleud","name_es":"Braine-l'Alleud","name_fr":"Braine-l'Alleud","name_it":"Braine-l'Alleud","name_ru":"Брен-л'Аллё","elevation":93.0,"timezone":"Europe/Brussels","admin1_name":"Wallonia"},{"name":"Herstal","lat":50.66415,"lon":5.62346,"population":36503,"iso_a3":"BEL","country":"Belgium","is_capital":false,"name_en":"Herstal","name_es":"Herstal","name_fr":"Herstal","name_it":"Herstal","name_ru":"Эрсталь","elevation":81.0,"timezone":"Europe/Brussels","admin1_name":"Wallonia"},{"name":"Châtelet","lat":50.40338,"lon":4.52826,"population":35238,"iso_a3":"BEL","country":"Belgium","is_capital":false,"name_en":"Châtelet","name_es":"Châtelet","name_fr":"Châtelet","name_it":"Châtelet","name_ru":"Шатле","elevation":118.0,"timezone":"Europe/Brussels","admin1_name":"Wallonia"},{"name":"Halle","lat":50.73385,"lon":4.23454,"population":34479,"iso_a3":"BEL","country":"Belgium","is_capital":false,"name_en":"Halle","name_es":"Halle","name_fr":"Halle","name_it":"Halle","name_ru":"Галле","elevation":34.0,"timezone":"Europe/Brussels","admin1_name":"Flanders"},{"name":"Wavre","lat":50.71717,"lon":4.60138,"population":34305,"iso_a3":"BEL","country":"Belgium","is_capital":false,"name_en":"Wavre","name_es":"Wavre","name_fr":"Wavre","name_it":"Wavre","name_ru":"Вавр","elevation":72.0,"timezone":"Europe/Brussels","admin1_name":"Wallonia"},{"name":"Binche","lat":50.41155,"lon":4.16469,"population":32030,"iso_a3":"BEL","country":"Belgium","is_capital":false,"name_en":"Binche","name_es":"Binche","name_fr":"Binche","name_it":"Binche","name_ru":"Бенш","elevation":92.0,"timezone":"Europe/Brussels","admin1_name":"Wallonia"},{"name":"Lille","lat":50.63391,"lon":3.05512,"population":238695,"iso_a3":"FRA","country":"France","is_capital":false,"name_en":"Lille","name_es":"Lille","name_fr":"Lille","name_it":"Lilla","name_ru":"Лилль","elevation":20.0,"timezone":"Europe/Paris","admin1_name":"Hauts-de-France"},{"name":"Reims","lat":49.26526,"lon":4.02853,"population":196565,"iso_a3":"FRA","country":"France","is_capital":false,"name_en":"Reims","name_es":"Reims","name_fr":"Reims","name_it":"Reims","name_ru":"Реймс","elevation":88.0,"timezone":"Europe/Paris","admin1_name":"Grand Est"},{"name":"Roubaix","lat":50.69421,"lon":3.17456,"population":99507,"iso_a3":"FRA","country":"France","is_capital":false,"name_en":"Roubaix","name_es":"Roubaix","name_fr":"Roubaix","name_it":"Roubaix","name_ru":"Рубе","elevation":33.0,"timezone":"Europe/Paris","admin1_name":"Hauts-de-France"},{"name":"Villeneuve-d'Ascq","lat":50.61669,"lon":3.16664,"population":62400,"iso_a3":"FRA","country":"France","is_capital":false,"name_en":"Villeneuve-d'Ascq","name_es":"Villeneuve-d'Ascq","name_fr":"Villeneuve-d'Ascq","name_it":"Villeneuve-d'Ascq","name_ru":"Вильнёв-д’Аск","elevation":32.0,"timezone":"Europe/Paris","admin1_name":"Hauts-de-France"},{"name":"Saint-Quentin","lat":49.84889,"lon":3.28757,"population":55407,"iso_a3":"FRA","country":"France","is_capital":false,"name_en":"Saint-Quentin","name_es":"Saint-Quentin","name_fr":"Saint-Quentin","name_it":"Saint-Quentin","name_ru":"Saint-Quentin","elevation":106.0,"timezone":"Europe/Paris","admin1_name":"Hauts-de-France"},{"name":"Meaux","lat":48.96014,"lon":2.87885,"population":53811,"iso_a3":"FRA","country":"France","is_capital":false,"name_en":"Meaux","name_es":"Meaux","name_fr":"Meaux","name_it":"Meaux","name_ru":"Мо","elevation":61.0,"timezone":"Europe/Paris","admin1_name":"Île-de-France"},{"name":"Charleville-Mézières","lat":49.7685,"lon":4.72487,"population":52415,"iso_a3":"FRA","country":"France","is_capital":false,"name_en":"Charleville-Mézières","name_es":"Charleville-Mézières","name_fr":"Charleville-Mézières","name_it":"Charleville-Mézières","name_ru":"Шарлевиль-Мезьер","elevation":151.0,"timezone":"Europe/Paris","admin1_name":"Grand Est"},{"name":"Châlons-en-Champagne","lat":48.95393,"lon":4.36724,"population":51257,"iso_a3":"FRA","country":"France","is_capital":false,"name_en":"Châlons-en-Champagne","name_es":"Châlons-en-Champagne","name_fr":"Châlons-en-Champagne","name_it":"Châlons-en-Champagne","name_ru":"Шалон-ан-Шампань","elevation":85.0,"timezone":"Europe/Paris","admin1_name":"Grand Est"},{"name":"Douai","lat":50.37069,"lon":3.07922,"population":46531,"iso_a3":"FRA","country":"France","is_capital":false,"name_en":"Douai","name_es":"Douai","name_fr":"Douai","name_it":"Douai","name_ru":"Дуэ","elevation":29.0,"timezone":"Europe/Paris","admin1_name":"Hauts-de-France"},{"name":"Valenciennes","lat":50.35909,"lon":3.52506,"population":44821,"iso_a3":"FRA","country":"France","is_capital":false,"name_en":"Valenciennes","name_es":"Valenciennes","name_fr":"Valenciennes","name_it":"Valenciennes","name_ru":"Валансьен","elevation":29.0,"timezone":"Europe/Paris","admin1_name":"Hauts-de-France"},{"name":"Compiègne","lat":49.41794,"lon":2.82606,"population":44243,"iso_a3":"FRA","country":"France","is_capital":false,"name_en":"Compiègne","name_es":"Compiègne","name_fr":"Compiègne","name_it":"Compiègne","name_ru":"Компьень","elevation":42.0,"timezone":"Europe/Paris","admin1_name":"Hauts-de-France"},{"name":"Lens","lat":50.43302,"lon":2.82791,"population":38265,"iso_a3":"FRA","country":"France","is_capital":false,"name_en":"Lens","name_es":"Lens","name_fr":"Lens","name_it":"Lens","name_ru":"Lens","elevation":37.0,"timezone":"Europe/Paris","admin1_name":"Hauts-de-France"},{"name":"Cambrai","lat":50.17596,"lon":3.23472,"population":36492,"iso_a3":"FRA","country":"France","is_capital":false,"name_en":"Cambrai","name_es":"Cambrai","name_fr":"Cambrai","name_it":"Cambrai","name_ru":"Камбре","elevation":64.0,"timezone":"Europe/Paris","admin1_name":"Hauts-de-France"},{"name":"Maubeuge","lat":50.27875,"lon":3.97267,"population":33684,"iso_a3":"FRA","country":"France","is_capital":false,"name_en":"Maubeuge","name_es":"Maubeuge","name_fr":"Maubeuge","name_it":"Maubeuge","name_ru":"Мобёж","elevation":143.0,"timezone":"Europe/Paris","admin1_name":"Hauts-de-France"},{"name":"Soissons","lat":49.38167,"lon":3.32361,"population":31100,"iso_a3":"FRA","country":"France","is_capital":false,"name_en":"Soissons","name_es":"Soissons","name_fr":"Soissons","name_it":"Soissons","name_ru":"Суассон","elevation":50.0,"timezone":"Europe/Paris","admin1_name":"Hauts-de-France"}]