[{"name":"Gent","lat":51.05,"lon":3.71667,"population":265086,"iso_a3":"BEL","country":"Belgium","is_capital":false,"name_en":"Ghent","name_es":"Gante","name_fr":"Gand","name_it":"Gand","name_ru":"Гент","elevation":10.0,"timezone":"Europe/Brussels","admin1_name":"Flanders"},{"name":"Brugge","lat":51.20892,"lon":3.22424,"population":118509,"iso_a3":"BEL","country":"Belgium","is_capital":false,"name_en":"Bruges","name_es":"Brujas","name_fr":"Bruges","name_it":"Bruges","name_ru":"Брюгге","elevation":13.0,"timezone":"Europe/Brussels","admin1_name":"Flanders"},{"name":"Leuven","lat":50.87959,"lon":4.70093,"population":101032,"iso_a3":"BEL","country":"Belgium","is_capital":false,"name_en":"Leuven","name_es":"Lovaina","name_fr":"Louvain","name_it":"Lovanio","name_ru":"Лёвен","elevation":28.0,"timezone":"Europe/Brussels","admin1_name":"Flanders"},{"name":"Uccle","lat":50.80225,"lon":4.33943,"population":82929,"iso_a3":"BEL","country":"Belgium","is_capital":false,"name_en":"Uccle","name_es":"Uccle","name_fr":"Uccle","name_it":"Uccle","name_ru":"Уккел","elevation":48.0,"timezone":"Europe/Brussels","admin1_name":"Brussels Capital"},{"name":"Hasselt","lat":50.93106,"lon":5.33781,"population":77651,"iso_a3":"BEL","country":"Belgium","is_capital":false,"name_en":"Hasselt","name_es":"Hasselt","name_fr":"Hasselt","name_it":"Hasselt","name_ru":"Хасселт","elevation":42.0,"timezone":"Europe/Brussels","admin1_name":"Flanders"},{"name":"Aalst","lat":50.93604,"lon":4.0355,"population":77534,"iso_a3":"BEL","country":"Belgium","is_capital":false,"name_en":"Aalst","name_es":"Aalst","name_fr":"Alost","name_it":"Aalst","name_ru":"Aalst","elevation":12.0,"timezone":"Europe/Brussels","admin1_name":"Flanders"},{"name":"Mechelen","lat":51.02574,"lon":4.47762,"population":77530,"iso_a3":"BEL","country":"Belgium","is_capital":false,"name_en":"Mechelen","name_es":"Malinas","name_fr":"Malines","name_it":"Malines","name_ru":"Мехелен","elevation":8.0,"timezone":"Europe/Brussels","admin1_name":"Flanders"},{"name":"Kortrijk","lat":50.82803,"lon":3.26487,"population":73879,"iso_a3":"BEL","country":"Belgium","is_capital":false,"name_en":"Kortrijk","name_es":"Courtrai","name_fr":"Courtrai","name_it":"Courtrai","name_ru":"Кортрейк","elevation":22.0,"timezone":"Europe/Brussels","admin1_name":"Flanders"},{"name":"Ostend","lat":51.21551,"lon":2.927,"population":69011,"iso_a3":"BEL","country":"Belgium","is_capital":false,"name_en":"Ostend","name_es":"Ostende","name_fr":"Ostende","name_it":"Ostenda","name_ru":"Остенде","elevation":6.0,"timezone":"Europe/Brussels","admin1_name":"Flanders"},{"name":"Sint-Niklaas","lat":51.16509,"lon":4.1437,"population":69010,"iso_a3":"BEL","country":"Belgium","is_capital":false,"name_en":"Sint-Niklaas","name_es":"Sint-Niklaas","name_fr":"Saint-Nicolas","name_it":"Sint-Niklaas","name_ru":"Синт-Никлас","elevation":21.0,"timezone":"Europe/Brussels","admin1_name":"Flanders"},{"name":"Genk","lat":50.965,"lon":5.50082,"population":63666,"iso_a3":"BEL","country":"Belgium","is_capital":false,"name_en":"Genk","name_es":"Genk","name_fr":"Genk","name_it":"Genk","name_ru":"Генк","elevation":66.0,"timezone":"Europe/Brussels","admin1_name":"Flanders"},{"name":"Woluwe-Saint-Lambert","lat":50.84389,"lon":4.42912,"population":56584,"iso_a3":"BEL","country":"Belgium","is_capital":false,"name_en":"Woluwe-Saint-Lambert","name_es":"Woluwe-Saint-Lambert","name_fr":"Woluwe-Saint-Lambert","name_it":"Woluwe-Saint-Lambert","name_ru":"Волюве-Сен-Ламбер","elevation":72.0,"timezone":"Europe/Brussels","admin1_name":"Brussels Capital"},{"name":"Roeselare","lat":50.94653,"lon":3.12269,"population":56016,"iso_a3":"BEL","country":"Belgium","is_capital":false,"name_en":"Roeselare","name_es":"Roeselare","name_fr":"Roulers","name_it":"Roeselare","name_ru":"Руселаре","elevation":22.0,"timezone":"Europe/Brussels","admin1_name":"Flanders"},{"name":"Mouscron","lat":50.74497,"lon":3.20639,"population":52069,"iso_a3":"BEL","country":"Belgium","is_capital":false,"name_en":"Mouscron","name_es":"Mouscron","name_fr":"Mouscron","name_it":"Mouscron","name_ru":"Мускрон","elevation":53.0,"timezone":"Europe/Brussels","admin1_name":"Wallonia"},{"name":"Dendermonde","lat":51.02869,"lon":4.10106,"population":45673,"iso_a3":"BEL","country":"Belgium","is_capital":false,"name_en":"Dendermonde","name_es":"Dendermonde","name_fr":"Termonde","name_it":"Dendermonde","name_ru":"Дендермонде","elevation":6.0,"timezone":"Europe/Brussels","admin1_name":"Flanders"},{"name":"Beveren","lat":51.21187,"lon":4.25633,"population":45179,"iso_a3":"BEL","country":"Belgium","is_capital":false,"name_en":"Beveren","name_es":"Beveren","name_fr":"Beveren","name_it":"Beveren","name_ru":"Беверен","elevation":12.0,"timezone":"Europe/Brussels","admin1_name":"Flanders"},{"name":"Turnhout","lat":51.32254,"lon":4.94471,"population":44000,"iso_a3":"BEL","country":"Belgium","is_capital":false,"name_en":"Turnhout","name_es":"Turnhout","name_fr":"Turnhout","name_it":"Turnhout","name_ru":"Турнхоут","elevation":29.0,"timezone":"Europe/Brussels","admin1_name":"Flanders"},{"name":"Lokeren","lat":51.10364,"lon":3.99339,"population":41438,"iso_a3":"BEL","country":"Belgium","is_capital":false,"name_en":"Lokeren","name_es":"Lokeren","name_fr":"Lokeren","name_it":"Lokeren","name_ru":"Локерен","elevation":6.0,"timezone":"Europe/Brussels","admin1_name":"Flanders"},{"name":"Wilrijk","lat":51.16734,"lon":4.39513,"population":41403,"iso_a3":"BEL","country":"Belgium","is_capital":false,"name_en":"Wilrijk","name_es":"Wilrijk","name_fr":"Wilrijk","name_it":"Wilrijk","name_ru":"Вилрейк","elevation":16.0,"timezone":"Europe/Brussels","admin1_name":"Flanders"},{"name":"Beringen","lat":51.04954,"lon":5.22606,"population":40930,"iso_a3":"BEL","country":"Belgium","is_capital":false,"name_en":"Beringen","name_es":"Beringen","name_fr":"Beringen","name_it":"Beringen","name_ru":"Берингене","elevation":39.0,"timezone":"Europe/Brussels","admin1_name":"Flanders"},{"name":"Dilbeek","lat":50.84799,"lon":4.25972,"population":39482,"iso_a3":"BEL","country":"Belgium","is_capital":false,"name_en":"Dilbeek","name_es":"Dilbeek","name_fr":"Dilbeek","name_it":"Dilbeek","name_ru":"Дилбек","elevation":84.0,"timezone":"Europe/Brussels","admin1_name":"Flanders"},{"name":"Sint-Truiden","lat":50.81679,"lon":5.18647,"population":37859,"iso_a3":"BEL","country":"Belgium","is_capital":false,"name_en":"Sint-Truiden","name_es":"Sint-Truiden","name_fr":"Saint-Trond","name_it":"Sint-Truiden","name_ru":"Синт-Трюйден","elevation":54.0,"timezone":"Europe/Brussels","admin1_name":"Flanders"},{"name":"Brasschaat","lat":51.2912,"lon":4.49182,"population":37040,"iso_a3":"BEL","country":"Belgium","is_capital":false,"name_en":"Brasschaat","name_es":"Brasschaat","name_fr":"Brasschaat","name_it":"Brasschaat","name_ru":"Брасхат","elevation":10.0,"timezone":"Europe/Brussels","admin1_name":"Flanders"},{"name":"Vilvoorde","lat":50.92814,"lon":4.42938,"population":36955,"iso_a3":"BEL","country":"Belgium","is_capital":false,"name_en":"Vilvoorde","name_es":"Vilvoorde","name_fr":"Vilvoorde","name_it":"Vilvoorde","name_ru":"Вилворде","elevation":19.0,"timezone":"Europe/Brussels","admin1_name":"Flanders"},{"name":"Waregem","lat":50.88898,"lon":3.42756,"population":35896,"iso_a3":"BEL","country":"Belgium","is_capital":false,"name_en":"Waregem","name_es":"Waregem","name_fr":"Waregem","name_it":"Waregem","name_ru":"Варегем","elevation":13.0,"timezone":"Europe/Brussels","admin1_name":"Flanders"},{"name":"Ieper","lat":50.85114,"lon":2.88569,"population":35089,"iso_a3":"BEL","country":"Belgium","is_capital":false,"name_en":"Ieper","name_es":"Ypres","name_fr":"Ypres","name_it":"Ypres","name_ru":"Ипр","elevation":24.0,"timezone":"Europe/Brussels","admin1_name":"Flanders"},{"name":"Ninove","lat":50.82776,"lon":4.02657,"population":34795,"iso_a3":"BEL","country":"Belgium","is_capital":false,"name_en":"Ninove","name_es":"Ninove","name_fr":"Ninove","name_it":"Ninove","name_ru":"Нинове","elevation":17.0,"timezone":"Europe/Brussels","admin1_name":"Flanders"},{"name":"Geel","lat":51.16557,"lon":4.98917,"population":34697,"iso_a3":"BEL","country":"Belgium","is_capital":false,"name_en":"Geel","name_es":"Geel","name_fr":"Geel","name_it":"Geel","name_ru":"Геел","elevation":22.0,"timezone":"Europe/Brussels","admin1_name":"Flanders"},{"name":"Knokke-Heist","lat":51.35,"lon":3.26667,"population":33781,"iso_a3":"BEL","country":"Belgium","is_capital":false,"name_en":"Knokke-Heist","name_es":"Knokke-Heist","name_fr":"Knokke-Heist","name_it":"Knokke-Heist","name_ru":"Кнокке-Хейст","elevation":5.0,"timezone":"Europe/Brussels","admin1_name":"Flanders"},{"name":"Lier","lat":51.13128,"lon":4.57041,"population":33272,"iso_a3":"BEL","country":"Belgium","is_capital":false,"name_en":"Lier","name_es":"Lier","name_fr":"Lierre","name_it":"Lier","name_ru":"Льер","elevation":9.0,"timezone":"Europe/Brussels","admin1_name":"Flanders"},{"name":"Mol","lat":51.19188,"lon":5.11662,"population":32659,"iso_a3":"BEL","country":"Belgium","is_capital":false,"name_en":"Mol","name_es":"Mol","name_fr":"Mol","name_it":"Mol","name_ru":"Мол","elevation":27.0,"timezone":"Europe/Brussels","admin1_name":"Flanders"},{"name":"Lommel","lat":51.23074,"lon":5.31349,"population":31993,"iso_a3":"BEL","country":"Belgium","is_capital":false,"name_en":"Lommel","name_es":"Lommel","name_fr":"Lommel","name_it":"Lommel","name_ru":"Ломмел","elevation":48.0,"timezone":"Europe/Brussels","admin1_name":"Flanders"},{"name":"Menen","lat":50.79722,"lon":3.12245,"population":31916,"iso_a3":"BEL","country":"Belgium","is_capital":false,"name_en":"Menen","name_es":"Menen","name_fr":"Menin","name_it":"Menen","name_ru":"Менен","elevation":18.0,"timezone":"Europe/Brussels","admin1_name":"Flanders"},{"name":"Oudenaarde","lat":50.85168,"lon":3.60891,"population":31866,"iso_a3":"BEL","country":"Belgium","is_capital":false,"name_en":"Oudenaarde","name_es":"Oudenaarde","name_fr":"Audenarde","name_it":"Oudenaarde","name_ru":"Оуденаарде","elevation":11.0,"timezone":"Europe/Brussels","admin1_name":"Flanders"},{"name":"Tienen","lat":50.80745,"lon":4.9378,"population":31743,"iso_a3":"BEL","country":"Belgium","is_capital":false,"name_en":"Tienen","name_es":"Tienen","name_fr":"Tirlemont","name_it":"Tienen","name_ru":"Тинен","elevation":46.0,"timezone":"Europe/Brussels","admin1_name":"Flanders"},{"name":"Evergem","lat":51.11306,"lon":3.70976,"population":31615,"iso_a3":"BEL","country":"Belgium","is_capital":false,"name_en":"Evergem","name_es":"Evergem","name_fr":"Evergem","name_it":"Evergem","name_ru":"Эвергем","elevation":9.0,"timezone":"Europe/Brussels","admin1_name":"Flanders"},{"name":"Geraardsbergen","lat":50.77343,"lon":3.88223,"population":30807,"iso_a3":"BEL","country":"Belgium","is_capital":false,"name_en":"Geraardsbergen","name_es":"Geraardsbergen","name_fr":"Geraardsbergen","name_it":"Geraardsbergen","name_ru":"Герардсберген","elevation":32.0,"timezone":"Europe/Brussels","admin1_name":"Flanders"},{"name":"Sint-Pieters-Leeuw","lat":50.77926,"lon":4.24355,"population":30446,"iso_a3":"BEL","country":"Belgium","is_capital":false,"name_en":"Sint-Pieters-Leeuw","name_es":"Sint-Pieters-Leeuw","name_fr":"Leeuw-Saint-Pierre","name_it":"Sint-Pieters-Leeuw","name_ru":"Синт-Питерс-Леув","elevation":45.0,"timezone":"Europe/Brussels","admin1_name":"Flanders"},{"name":"Houthalen","lat":51.03427,"lon":5.37429,"population":30050,"iso_a3":"BEL","country":"Belgium","is_capital":false,"name_en":"Houthalen","name_es":"Houthalen","name_fr":"Houthalen","name_it":"Houthalen","name_ru":"Houthalen","elevation":64.0,"timezone":"Europe/Brussels","admin1_name":"Flanders"},{"name":"Utrecht","lat":52.09083,"lon":5.12222,"population":376435,"iso_a3":"NLD","country":"Netherlands","is_capital":false,"name_en":"Utrecht","name_es":"Utrecht","name_fr":"Utrecht","name_it":"Utrecht","name_ru":"Утрехт","elevation":13.0,"timezone":"Europe/Amsterdam","admin1_name":"Utrecht"},{"name":"Eindhoven","lat":51.44083,"lon":5.47778,"population":235691,"iso_a3":"NLD","country":"Netherlands","is_capital":false,"name_en":"Eindhoven","name_es":"Eindhoven","name_fr":"Eindhoven","name_it":"Eindhoven","name_ru":"Эйндховен","elevation":22.0,"timezone":"Europe/Amsterdam","admin1_name":"North Brabant"},{"name":"Tilburg","lat":51.55551,"lon":5.0913,"population":221947,"iso_a3":"NLD","country":"Netherlands","is_capital":false,"name_en":"Tilburg","name_es":"Tilburgo","name_fr":"Tilburg","name_it":"Tilburg","name_ru":"Тилбург","elevation":16.0,"timezone":"Europe/Amsterdam","admin1_name":"North Brabant"},{"name":"Breda","lat":51.58656,"lon":4.77596,"population":184126,"iso_a3":"NLD","country":"Netherlands","is_capital":false,"name_en":"Breda","name_es":"Breda","name_fr":"Bréda","name_it":"Breda","name_ru":"Бреда","elevation":9.0,"timezone":"Europe/Amsterdam","admin1_name":"North Brabant"},{"name":"Almere Stad","lat":52.37025,"lon":5.21413,"population":176432,"iso_a3":"NLD","country":"Netherlands","is_capital":false,"name_en":"Almere Stad","name_es":"Almere Stad","name_fr":"Almere Stad","name_it":"Almere Stad","name_ru":"Almere Stad","elevation":-3.0,"timezone":"Europe/Amsterdam","admin1_name":"Flevoland"},{"name":"Haarlem","lat":52.38084,"lon":4.63683,"population":162543,"iso_a3":"NLD","country":"Netherlands","is_capital":false,"name_en":"Haarlem","name_es":"Haarlem","name_fr":"Haarlem","name_it":"Haarlem","name_ru":"Харлем","elevation":10.0,"timezone":"Europe/Amsterdam","admin1_name":"North Holland"},{"name":"'s-Hertogenbosch","lat":51.69917,"lon":5.30417,"population":160783,"iso_a3":"NLD","country":"Netherlands","is_capital":false,"name_en":"'s-Hertogenbosch","name_es":"Bolduque","name_fr":"Bois-le-Duc","name_it":"Boscoducale","name_ru":"Хертогенбос","elevation":7.0,"timezone":"Europe/Amsterdam","admin1_name":"North Brabant"},{"name":"Zaanstad","lat":52.45313,"lon":4.81356,"population":140085,"iso_a3":"NLD","country":"Netherlands","is_capital":false,"name_en":"Zaanstad","name_es":"Zaanstad","name_fr":"Zaanstad","name_it":"Zaanstad","name_ru":"Zaanstad","elevation":2.0,"timezone":"Europe/Amsterdam","admin1_name":"North Holland"},{"name":"Amersfoort","lat":52.155,"lon":5.3875,"population":139914,"iso_a3":"NLD","country":"Netherlands","is_capital":false,"name_en":"Amersfoort","name_es":"Amersfoort","name_fr":"Amersfoort","name_it":"Amersfoort","name_ru":"Амерсфорт","elevation":8.0,"timezone":"Europe/Amsterdam","admin1_name":"Utrecht"},{"name":"Hoofddorp","lat":52.3025,"lon":4.68889,"population":132734,"iso_a3":"NLD","country":"Netherlands","is_capital":false,"name_en":"Hoofddorp","name_es":"Hoofddorp","name_fr":"Hoofddorp","name_it":"Hoofddorp","name_ru":"Hoofddorp","elevation":-2.0,"timezone":"Europe/Amsterdam","admin1_name":"North Holland"},{"name":"Leiden","lat":52.15833,"lon":4.49306,"population":119713,"iso_a3":"NLD","country":"Netherlands","is_capital":false,"name_en":"Leiden","name_es":"Leiden","name_fr":"Leyde","name_it":"Leida","name_ru":"Лейден","elevation":6.0,"timezone":"Europe/Amsterdam","admin1_name":"South Holland"},{"name":"Dordrecht","lat":51.81,"lon":4.67361,"population":119260,"iso_a3":"NLD","country":"Netherlands","is_capital":false,"name_en":"Dordrecht","name_es":"Dordrecht","name_fr":"Dordrecht","name_it":"Dordrecht","name_ru":"Dordrecht","elevation":3.0,"timezone":"Europe/Amsterdam","admin1_name":"South Holland"},{"name":"Zoetermeer","lat":52.0575,"lon":4.49306,"population":115845,"iso_a3":"NLD","country":"Netherlands","is_capital":false,"name_en":"Zoetermeer","name_es":"Zoetermeer","name_fr":"Zoetermeer","name_it":"Zoetermeer","name_ru":"Zoetermeer","elevation":0.0,"timezone":"Europe/Amsterdam","admin1_name":"South Holland"},{"name":"Delft","lat":52.00667,"lon":4.35556,"population":95060,"iso_a3":"NLD","country":"Netherlands","is_capital":false,"name_en":"Delft","name_es":"Delft","name_fr":"Delft","name_it":"Delft","name_ru":"Делфт","elevation":1.0,"timezone":"Europe/Amsterdam","admin1_name":"South Holland"},{"name":"Hilversum","lat":52.22333,"lon":5.17639,"population":83640,"iso_a3":"NLD","country":"Netherlands","is_capital":false,"name_en":"Hilversum","name_es":"Hilversum","name_fr":"Hilversum","name_it":"Hilversum","name_ru":"Хилверсюм","elevation":7.0,"timezone":"Europe/Amsterdam","admin1_name":"North Holland"},{"name":"Amstelveen","lat":52.30083,"lon":4.86389,"population":79639,"iso_a3":"NLD","country":"Netherlands","is_capital":false,"name_en":"Amstelveen","name_es":"Amstelveen","name_fr":"Amstelveen","name_it":"Amstelveen","name_ru":"Амстелвин","elevation":0.0,"timezone":"Europe/Amsterdam","admin1_name":"North Holland"},{"name":"Roosendaal","lat":51.53083,"lon":4.46528,"population":77725,"iso_a3":"NLD","country":"Netherlands","is_capital":false,"name_en":"Roosendaal","name_es":"Roosendaal","name_fr":"Rosendael","name_it":"Roosendaal","name_ru":"Розендаль","elevation":4.0,"timezone":"Europe/Amsterdam","admin1_name":"North Brabant"},{"name":"Oss","lat":51.765,"lon":5.51806,"population":76430,"iso_a3":"NLD","country":"Netherlands","is_capital":false,"name_en":"Oss","name_es":"Oss","name_fr":"Oss","name_it":"Oss","name_ru":"Осс","elevation":8.0,"timezone":"Europe/Amsterdam","admin1_name":"North Brabant"},{"name":"Schiedam","lat":51.91917,"lon":4.38889,"population":75438,"iso_a3":"NLD","country":"Netherlands","is_capital":false,"name_en":"Schiedam","name_es":"Schiedam","name_fr":"Schiedam","name_it":"Schiedam","name_ru":"Схидам","elevation":-2.0,"timezone":"Europe/Amsterdam","admin1_name":"South Holland"},{"name":"Spijkenisse","lat":51.845,"lon":4.32917,"population":74988,"iso_a3":"NLD","country":"Netherlands","is_capital":false,"name_en":"Spijkenisse","name_es":"Spijkenisse","name_fr":"Spijkenisse","name_it":"Spijkenisse","name_ru":"Spijkenisse","elevation":1.0,"timezone":"Europe/Amsterdam","admin1_name":"South Holland"},{"name":"Gouda","lat":52.01667,"lon":4.70833,"population":71952,"iso_a3":"NLD","country":"Netherlands","is_capital":false,"name_en":"Gouda","name_es":"Gouda","name_fr":"Gouda","name_it":"Gouda","name_ru":"Гауда","elevation":1.0,"timezone":"Europe/Amsterdam","admin1_name":"South Holland"},{"name":"Alphen aan den Rijn","lat":52.12917,"lon":4.65546,"population":70251,"iso_a3":"NLD","country":"Netherlands","is_capital":false,"name_en":"Alphen aan den Rijn","name_es":"Alphen aan den Rijn","name_fr":"Alphen aan den Rijn","name_it":"Alphen aan den Rijn","name_ru":"Alphen aan den Rijn","elevation":1.0,"timezone":"Europe/Amsterdam","admin1_name":"South Holland"},{"name":"Velsen-Zuid","lat":52.46,"lon":4.65,"population":67758,"iso_a3":"NLD","country":"Netherlands","is_capital":false,"name_en":"Velsen","name_es":"Velsen","name_fr":"Velsen","name_it":"Velsen","name_ru":"Velsen","elevation":4.0,"timezone":"Europe/Amsterdam","admin1_name":"North Holland"},{"name":"Bergen op Zoom","lat":51.495,"lon":4.29167,"population":66256,"iso_a3":"NLD","country":"Netherlands","is_capital":false,"name_en":"Bergen op Zoom","name_es":"Bergen op Zoom","name_fr":"Berg-op-Zoom","name_it":"Bergen op Zoom","name_ru":"Берген-оп-Зом","elevation":9.0,"timezone":"Europe/Amsterdam","admin1_name":"North Brabant"},{"name":"Capelle aan den IJssel","lat":51.92917,"lon":4.57778,"population":65255,"iso_a3":"NLD","country":"Netherlands","is_capital":false,"name_en":"Capelle aan den IJssel","name_es":"Capelle aan den Ijssel","name_fr":"Capelle aan den IJssel","name_it":"Capelle aan den IJssel","name_ru":"Капелле-ан-ден-Эйссел","elevation":-2.0,"timezone":"Europe/Amsterdam","admin1_name":"South Holland"},{"name":"Nieuwegein","lat":52.02917,"lon":5.08056,"population":61489,"iso_a3":"NLD","country":"Netherlands","is_capital":false,"name_en":"Nieuwegein","name_es":"Nieuwegein","name_fr":"Nieuwegein","name_it":"Nieuwegein","name_ru":"Nieuwegein","elevation":3.0,"timezone":"Europe/Amsterdam","admin1_name":"Utrecht"},{"name":"Veenendaal","lat":52.02863,"lon":5.55891,"population":61271,"iso_a3":"NLD","country":"Netherlands","is_capital":false,"name_en":"Veenendaal","name_es":"Veenendaal","name_fr":"Veenendaal","name_it":"Veenendaal","name_ru":"Veenendaal","elevation":8.0,"timezone":"Europe/Amsterdam","admin1_name":"Utrecht"},{"name":"Zeist","lat":52.09,"lon":5.23333,"population":60949,"iso_a3":"NLD","country":"Netherlands","is_capital":false,"name_en":"Zeist","name_es":"Zeist","name_fr":"Zeist","name_it":"Zeist","name_ru":"Зейст","elevation":5.0,"timezone":"Europe/Amsterdam","admin1_name":"Utrecht"},{"name":"Oosterhout","lat":51.645,"lon":4.85972,"population":53107,"iso_a3":"NLD","country":"Netherlands","is_capital":false,"name_en":"Oosterhout","name_es":"Oosterhout","name_fr":"Oosterhout","name_it":"Oosterhout","name_ru":"Остерхоут","elevation":7.0,"timezone":"Europe/Amsterdam","admin1_name":"North Brabant"},{"name":"Woerden","lat":52.085,"lon":4.88333,"population":48431,"iso_a3":"NLD","country":"Netherlands","is_capital":false,"name_en":"Woerden","name_es":"Woerden","name_fr":"Woerden","name_it":"Woerden","name_ru":"Верден","elevation":4.0,"timezone":"Europe/Amsterdam","admin1_name":"Utrecht"},{"name":"Middelburg","lat":51.5,"lon":3.61389,"population":46485,"iso_a3":"NLD","country":"Netherlands","is_capital":false,"name_en":"Middelburg","name_es":"Middelburg","name_fr":"Middelbourg","name_it":"Middelburg","name_ru":"Мидделбург","elevation":8.0,"timezone":"Europe/Amsterdam","admin1_name":"Zeeland"},{"name":"Waalwijk","lat":51.6825,"lon":5.07083,"population":45610,"iso_a3":"NLD","country":"Netherlands","is_capital":false,"name_en":"Waalwijk","name_es":"Waalwijk","name_fr":"Waalwijk","name_it":"Waalwijk","name_ru":"Waalwijk","elevation":4.0,"timezone":"Europe/Amsterdam","admin1_name":"North Brabant"},{"name":"Vlissingen","lat":51.4425,"lon":3.57361,"population":45273,"iso_a3":"NLD","country":"Netherlands","is_capital":false,"name_en":"Flushing","name_es":"Flesinga","name_fr":"Flessingue","name_it":"Flessinga","name_ru":"Влиссинген","elevation":5.0,"timezone":"Europe/Amsterdam","admin1_name":"Zeeland"},{"name":"Ridderkerk","lat":51.8725,"lon":4.60278,"population":45189,"iso_a3":"NLD","country":"Netherlands","is_capital":false,"name_en":"Ridderkerk","name_es":"Ridderkerk","name_fr":"Ridderkerk","name_it":"Ridderkerk","name_ru":"Риддеркерк","elevation":0.0,"timezone":"Europe/Amsterdam","admin1_name":"South Holland"},{"name":"Soest","lat":52.17333,"lon":5.29167,"population":45021,"iso_a3":"NLD","country":"Netherlands","is_capital":false,"name_en":"Soest","name_es":"Soest","name_fr":"Soest","name_it":"Soest","name_ru":"Зоест","elevation":6.0,"timezone":"Europe/Amsterdam","admin1_name":"Utrecht"},{"name":"Huizen","lat":52.29917,"lon":5.24167,"population":41273,"iso_a3":"NLD","country":"Netherlands","is_capital":false,"name_en":"Huizen","name_es":"Huizen","name_fr":"Huizen","name_it":"Huizen","name_ru":"Huizen","elevation":4.0,"timezone":"Europe/Amsterdam","admin1_name":"North Holland"},{"name":"Tiel","lat":51.88667,"lon":5.42917,"population":40702,"iso_a3":"NLD","country":"Netherlands","is_capital":false,"name_en":"Tiel","name_es":"Tiel","name_fr":"Tiel","name_it":"Tiel","name_ru":"Тил","elevation":8.0,"timezone":"Europe/Amsterdam","admin1_name":"Gelderland"},{"name":"Harderwijk","lat":52.34167,"lon":5.62083,"population":40516,"iso_a3":"NLD","country":"Netherlands","is_capital":false,"name_en":"Harderwijk","name_es":"Harderwijk","name_fr":"Harderwijk","name_it":"Harderwijk","name_ru":"Harderwijk","elevation":4.0,"timezone":"Europe/Amsterdam","admin1_name":"Gelderland"},{"name":"Maarssen","lat":52.13917,"lon":5.04167,"population":39675,"iso_a3":"NLD","country":"Netherlands","is_capital":false,"name_en":"Maarssen","name_es":"Maarssen","name_fr":"Maarssen","name_it":"Maarssen","name_ru":"Maarssen","elevation":4.0,"timezone":"Europe/Amsterdam","admin1_name":"Utrecht"},{"name":"Nijkerk","lat":52.22,"lon":5.48611,"population":38335,"iso_a3":"NLD","country":"Netherlands","is_capital":false,"name_en":"Nijkerk","name_es":"Nijkerk","name_fr":"Nijkerk","name_it":"Nijkerk","name_ru":"Nijkerk","elevation":4.0,"timezone":"Europe/Amsterdam","admin1_name":"Gelderland"},{"name":"Goes","lat":51.50417,"lon":3.88889,"population":36931,"iso_a3":"NLD","country":"Netherlands","is_capital":false,"name_en":"Goes","name_es":"Goes","name_fr":"Goes","name_it":"Goes","name_ru":"Гус","elevation":4.0,"timezone":"Europe/Amsterdam","admin1_name":"Zeeland"},{"name":"Barneveld","lat":52.14,"lon":5.58472,"population":35095,"iso_a3":"NLD","country":"Netherlands","is_capital":false,"name_en":"Barneveld","name_es":"Barneveld","name_fr":"Barneveld","name_it":"Barneveld","name_ru":"Барневелд","elevation":10.0,"timezone":"Europe/Amsterdam","admin1_name":"Gelderland"},{"name":"Gorinchem","lat":51.83652,"lon":4.97243,"population":34736,"iso_a3":"NLD","country":"Netherlands","is_capital":false,"name_en":"Gorinchem","name_es":"Gorcum","name_fr":"Gorinchem","name_it":"Gorinchem","name_ru":"Горинхем","elevation":3.0,"timezone":"Europe/Amsterdam","admin1_name":"South Holland"},{"name":"Uden","lat":51.66083,"lon":5.61944,"population":34601,"iso_a3":"NLD","country":"Netherlands","is_capital":false,"name_en":"Uden","name_es":"Uden","name_fr":"Uden","name_it":"Uden","name_ru":"Уден","elevation":18.0,"timezone":"Europe/Amsterdam","admin1_name":"North Brabant"},{"name":"Maassluis","lat":51.92333,"lon":4.25,"population":32780,"iso_a3":"NLD","country":"Netherlands","is_capital":false,"name_en":"Maassluis","name_es":"Maassluis","name_fr":"Maassluis","name_it":"Maassluis","name_ru":"Maassluis","elevation":2.0,"timezone":"Europe/Amsterdam","admin1_name":"South Holland"},{"name":"Nieuw-Vennep","lat":52.26417,"lon":4.63056,"population":31415,"iso_a3":"NLD","country":"Netherlands","is_capital":false,"name_en":"Nieuw-Vennep","name_es":"Nieuw-Vennep","name_fr":"Nieuw-Vennep","name_it":"Nieuw-Vennep","name_ru":"Nieuw-Vennep","elevation":-4.0,"timezone":"Europe/Amsterdam","admin1_name":"North Holland"},{"name":"Bussum","lat":52.27333,"lon":5.16111,"population":31334,"iso_a3":"NLD","country":"Netherlands","is_capital":false,"name_en":"Bussum","name_es":"Bussum","name_fr":"Bussum","name_it":"Bussum","name_ru":"Бюссюм","elevation":4.0,"timezone":"Europe/Amsterdam","admin1_name":"North Holland"},{"name":"Valkenswaard","lat":51.35083,"lon":5.45972,"population":31071,"iso_a3":"NLD","country":"Netherlands","is_capital":false,"name_en":"Valkenswaard","name_es":"Valkenswaard","name_fr":"Valkenswaard","name_it":"Valkenswaard","name_ru":"Valkenswaard","elevation":27.0,"timezone":"Europe/Amsterdam","admin1_name":"North Brabant"}]