[{"name":"Blida","lat":36.47004,"lon":2.8277,"population":331779,"iso_a3":"DZA","country":"Algeria","is_capital":false,"name_en":"Blida","name_es":"Blida","name_fr":"Blida","name_it":"Blida","name_ru":"Блида","elevation":256.0,"timezone":"Africa/Algiers","admin1_name":"Blida"},{"name":"Djelfa","lat":34.67279,"lon":3.263,"population":265833,"iso_a3":"DZA","country":"Algeria","is_capital":false,"name_en":"Djelfa","name_es":"Djelfa","name_fr":"Djelfa","name_it":"Djelfa","name_ru":"Djelfa","elevation":1138.0,"timezone":"Africa/Algiers","admin1_name":"Djelfa"},{"name":"Sétif","lat":36.19112,"lon":5.41373,"population":252127,"iso_a3":"DZA","country":"Algeria","is_capital":false,"name_en":"Sétif","name_es":"Sétif","name_fr":"Sétif","name_it":"Sétif","name_ru":"Сетиф","elevation":1096.0,"timezone":"Africa/Algiers","admin1_name":"Sétif"},{"name":"Bordj Bou Arreridj","lat":36.07389,"lon":4.76139,"population":158812,"iso_a3":"DZA","country":"Algeria","is_capital":false,"name_en":"Bordj Bou Arreridj","name_es":"Bordj Bou Arreridj","name_fr":"Bordj-Bou-Arreridj","name_it":"Bordj Bou Arreridj","name_ru":"Bordj Bou Arreridj","elevation":906.0,"timezone":"Africa/Algiers","admin1_name":"Bordj Bou Arréridj"},{"name":"El Achir","lat":36.06386,"lon":4.62744,"population":158333,"iso_a3":"DZA","country":"Algeria","is_capital":false,"name_en":"El Achir","name_es":"El Achir","name_fr":"El Achir","name_it":"El Achir","name_ru":"El Achir","elevation":998.0,"timezone":"Africa/Algiers","admin1_name":"Bordj Bou Arréridj"},{"name":"M'Sila","lat":35.70889,"lon":4.53722,"population":132975,"iso_a3":"DZA","country":"Algeria","is_capital":false,"name_en":"M'Sila","name_es":"M'Sila","name_fr":"M'Sila","name_it":"M'Sila","name_ru":"M'Sila","elevation":465.0,"timezone":"Africa/Algiers","admin1_name":"M'Sila"},{"name":"Bou Saâda","lat":35.20855,"lon":4.17402,"population":111787,"iso_a3":"DZA","country":"Algeria","is_capital":false,"name_en":"Bou Saâda","name_es":"Bou Saâda","name_fr":"Bou Saâda","name_it":"Bou Saâda","name_ru":"Bou Saâda","elevation":611.0,"timezone":"Africa/Algiers","admin1_name":"M'Sila"},{"name":"Barika","lat":35.38901,"lon":5.36584,"population":98141,"iso_a3":"DZA","country":"Algeria","is_capital":false,"name_en":"Barika","name_es":"Barika","name_fr":"Barika","name_it":"Barika","name_ru":"Барика","elevation":476.0,"timezone":"Africa/Algiers","admin1_name":"Batna"},{"name":"Aïn Oussera","lat":35.45139,"lon":2.90583,"population":98107,"iso_a3":"DZA","country":"Algeria","is_capital":false,"name_en":"Aïn Oussera","name_es":"Aïn Oussera","name_fr":"Aïn Oussera","name_it":"Aïn Oussera","name_ru":"Aïn Oussera","elevation":685.0,"timezone":"Africa/Algiers","admin1_name":"Djelfa"},{"name":"Beni Mered","lat":36.52389,"lon":2.86131,"population":92749,"iso_a3":"DZA","country":"Algeria","is_capital":false,"name_en":"Beni Mered","name_es":"Beni Mered","name_fr":"Beni Mered","name_it":"Beni Mered","name_ru":"Beni Mered","elevation":136.0,"timezone":"Africa/Algiers","admin1_name":"Blida"},{"name":"Hassi Bahbah","lat":35.07109,"lon":3.0299,"population":77000,"iso_a3":"DZA","country":"Algeria","is_capital":false,"name_en":"Hassi Bahbah","name_es":"Hassi Bahbah","name_fr":"Hassi Bahbah","name_it":"Hassi Bahbah","name_ru":"Hassi Bahbah","elevation":886.0,"timezone":"Africa/Algiers","admin1_name":"Djelfa"},{"name":"Bouïra","lat":36.37489,"lon":3.902,"population":68545,"iso_a3":"DZA","country":"Algeria","is_capital":false,"name_en":"Bouïra","name_es":"Bouïra","name_fr":"Bouïra","name_it":"Bouïra","name_ru":"Bouïra","elevation":519.0,"timezone":"Africa/Algiers","admin1_name":"Bouira"},{"name":"Sidi Aïssa","lat":35.88548,"lon":3.77236,"population":66856,"iso_a3":"DZA","country":"Algeria","is_capital":false,"name_en":"Sidi Aïssa","name_es":"Sidi Aïssa","name_fr":"Sidi Aïssa","name_it":"Sidi Aïssa","name_ru":"Сиди-Аисса","elevation":662.0,"timezone":"Africa/Algiers","admin1_name":"M'Sila"},{"name":"Ouled Djellal","lat":34.43,"lon":5.06139,"population":58481,"iso_a3":"DZA","country":"Algeria","is_capital":false,"name_en":"Ouled Djellal","name_es":"Ouled Djellal","name_fr":"Ouled Djellal","name_it":"Ouled Djellal","name_ru":"Ouled Djellal","elevation":229.0,"timezone":"Africa/Algiers","admin1_name":"Ouled Djellal"},{"name":"Larbaâ","lat":36.56471,"lon":3.15434,"population":58295,"iso_a3":"DZA","country":"Algeria","is_capital":false,"name_en":"Larbaâ","name_es":"Larbaâ","name_fr":"Larbaâ","name_it":"Larbaâ","name_ru":"Ларба","elevation":100.0,"timezone":"Africa/Algiers","admin1_name":"Blida"},{"name":"Boufarik","lat":36.57413,"lon":2.91214,"population":57162,"iso_a3":"DZA","country":"Algeria","is_capital":false,"name_en":"Boufarik","name_es":"Boufarik","name_fr":"Boufarik","name_it":"Boufarik","name_ru":"Boufarik","elevation":49.0,"timezone":"Africa/Algiers","admin1_name":"Blida"},{"name":"Berrouaghia","lat":36.13516,"lon":2.91085,"population":55775,"iso_a3":"DZA","country":"Algeria","is_capital":false,"name_en":"Berrouaghia","name_es":"Berrouaghia","name_fr":"Berrouaghia","name_it":"Berrouaghia","name_ru":"Berrouaghia","elevation":946.0,"timezone":"Africa/Algiers","admin1_name":"Medea"},{"name":"Boghni","lat":36.54222,"lon":3.95306,"population":54666,"iso_a3":"DZA","country":"Algeria","is_capital":false,"name_en":"Boghni","name_es":"Boghni","name_fr":"Boghni","name_it":"Boghni","name_ru":"Boghni","elevation":249.0,"timezone":"Africa/Algiers","admin1_name":"Tizi Ouzou"},{"name":"Aïn Oulmene","lat":35.92296,"lon":5.29604,"population":51207,"iso_a3":"DZA","country":"Algeria","is_capital":false,"name_en":"Aïn Oulmene","name_es":"Aïn Oulmene","name_fr":"Aïn Oulmene","name_it":"Aïn Oulmene","name_ru":"Aïn Oulmene","elevation":927.0,"timezone":"Africa/Algiers","admin1_name":"Sétif"},{"name":"Tolga","lat":34.72224,"lon":5.37845,"population":50575,"iso_a3":"DZA","country":"Algeria","is_capital":false,"name_en":"Tolga","name_es":"Tolga","name_fr":"Tolga","name_it":"Tolga","name_ru":"Толга","elevation":161.0,"timezone":"Africa/Algiers","admin1_name":"Biskra"},{"name":"Râs el Oued","lat":35.9441,"lon":5.03107,"population":44947,"iso_a3":"DZA","country":"Algeria","is_capital":false,"name_en":"Râs el Oued","name_es":"Râs el Oued","name_fr":"Râs el Oued","name_it":"Râs el Oued","name_ru":"Рас-эль-Уэд","elevation":1102.0,"timezone":"Africa/Algiers","admin1_name":"Bordj Bou Arréridj"},{"name":"Sour el Ghozlane","lat":36.14766,"lon":3.69123,"population":43985,"iso_a3":"DZA","country":"Algeria","is_capital":false,"name_en":"Sour el Ghozlane","name_es":"Sour el Ghozlane","name_fr":"Sour el Ghozlane","name_it":"Sour el Ghozlane","name_ru":"Sour el Ghozlane","elevation":884.0,"timezone":"Africa/Algiers","admin1_name":"Bouira"},{"name":"Lakhdaria","lat":36.56463,"lon":3.5933,"population":42886,"iso_a3":"DZA","country":"Algeria","is_capital":false,"name_en":"Lakhdaria","name_es":"Lakhdaria","name_fr":"Lakhdaria","name_it":"Lakhdaria","name_ru":"Lakhdaria","elevation":171.0,"timezone":"Africa/Algiers","admin1_name":"Bouira"},{"name":"Draa el Mizan","lat":36.53628,"lon":3.8334,"population":41263,"iso_a3":"DZA","country":"Algeria","is_capital":false,"name_en":"Draa el Mizan","name_es":"Draa el Mizan","name_fr":"Draa el Mizan","name_it":"Draa el Mizan","name_ru":"Дра-эль-Мизан","elevation":410.0,"timezone":"Africa/Algiers","admin1_name":"Tizi Ouzou"},{"name":"Sidi Khaled","lat":34.387,"lon":4.98785,"population":38987,"iso_a3":"DZA","country":"Algeria","is_capital":false,"name_en":"Sidi Khaled","name_es":"Sidi Khaled","name_fr":"Sidi Khaled","name_it":"Sidi Khaled","name_ru":"Sidi Khaled","elevation":204.0,"timezone":"Africa/Algiers","admin1_name":"Ouled Djellal"},{"name":"Bougara","lat":36.54178,"lon":3.081,"population":38352,"iso_a3":"DZA","country":"Algeria","is_capital":false,"name_en":"Bougara","name_es":"Bougara","name_fr":"Bougara","name_it":"Bougara","name_ru":"Bougara","elevation":110.0,"timezone":"Africa/Algiers","admin1_name":"Blida"},{"name":"Akbou","lat":36.4575,"lon":4.53494,"population":38291,"iso_a3":"DZA","country":"Algeria","is_capital":false,"name_en":"Akbou","name_es":"Akbou","name_fr":"Akbou","name_it":"Akbou","name_ru":"Akbou","elevation":215.0,"timezone":"Africa/Algiers","admin1_name":"Béjaïa"},{"name":"’Aïn Azel","lat":35.81846,"lon":5.51115,"population":37970,"iso_a3":"DZA","country":"Algeria","is_capital":false,"name_en":"’Aïn Azel","name_es":"’Aïn Azel","name_fr":"’Aïn Azel","name_it":"’Aïn Azel","name_ru":"Айн-Азель","elevation":959.0,"timezone":"Africa/Algiers","admin1_name":"Sétif"},{"name":"Bordj Ghdir","lat":35.90111,"lon":4.89806,"population":34136,"iso_a3":"DZA","country":"Algeria","is_capital":false,"name_en":"Bordj Ghdir","name_es":"Bordj Ghdir","name_fr":"Bordj Ghdir","name_it":"Bordj Ghdir","name_ru":"Bordj Ghdir","elevation":1088.0,"timezone":"Africa/Algiers","admin1_name":"Bordj Bou Arréridj"},{"name":"’Aïn el Melh","lat":34.84146,"lon":4.16383,"population":32880,"iso_a3":"DZA","country":"Algeria","is_capital":false,"name_en":"’Aïn el Melh","name_es":"’Aïn el Melh","name_fr":"’Aïn el Melh","name_it":"’Aïn el Melh","name_ru":"Айн-эль-Мельх","elevation":930.0,"timezone":"Africa/Algiers","admin1_name":"M'Sila"},{"name":"Aïn Bessem","lat":36.29333,"lon":3.67319,"population":32548,"iso_a3":"DZA","country":"Algeria","is_capital":false,"name_en":"Aïn Bessem","name_es":"Aïn Bessem","name_fr":"Aïn Bessem","name_it":"Aïn Bessem","name_ru":"Aïn Bessem","elevation":677.0,"timezone":"Africa/Algiers","admin1_name":"Bouira"},{"name":"Barbacha","lat":36.56667,"lon":4.96667,"population":31983,"iso_a3":"DZA","country":"Algeria","is_capital":false,"name_en":"Barbacha","name_es":"Barbacha","name_fr":"Barbacha","name_it":"Barbacha","name_ru":"Barbacha","elevation":571.0,"timezone":"Africa/Algiers","admin1_name":"Béjaïa"},{"name":"Bougaa","lat":36.33293,"lon":5.08843,"population":31922,"iso_a3":"DZA","country":"Algeria","is_capital":false,"name_en":"Bougaa","name_es":"Bougaa","name_fr":"Bougaa","name_it":"Bougaa","name_ru":"Bougaa","elevation":859.0,"timezone":"Africa/Algiers","admin1_name":"Sétif"},{"name":"’Aïn el Bell","lat":34.34381,"lon":3.22475,"population":31916,"iso_a3":"DZA","country":"Algeria","is_capital":false,"name_en":"’Aïn el Bell","name_es":"’Aïn el Bell","name_fr":"’Aïn el Bell","name_it":"’Aïn el Bell","name_ru":"Айн-эль-Белла","elevation":1008.0,"timezone":"Africa/Algiers","admin1_name":"Djelfa"},{"name":"Bouinan","lat":36.53167,"lon":2.99194,"population":30271,"iso_a3":"DZA","country":"Algeria","is_capital":false,"name_en":"Bouinan","name_es":"Bouinan","name_fr":"Bouinan","name_it":"Bouinan","name_ru":"Bouinan","elevation":92.0,"timezone":"Africa/Algiers","admin1_name":"Blida"}]