[{"name":"Ghardaïa","lat":32.49094,"lon":3.67347,"population":142913,"iso_a3":"DZA","country":"Algeria","is_capital":false,"name_en":"Ghardaïa","name_es":"Ghardaïa","name_fr":"Ghardaïa","name_it":"Ghardaïa","name_ru":"Гардая","elevation":503.0,"timezone":"Africa/Algiers","admin1_name":"Ghardaia"},{"name":"Laghouat","lat":33.8,"lon":2.86514,"population":134372,"iso_a3":"DZA","country":"Algeria","is_capital":false,"name_en":"Laghouat","name_es":"Laghouat","name_fr":"Laghouat","name_it":"Laghouat","name_ru":"Лагуат","elevation":764.0,"timezone":"Africa/Algiers","admin1_name":"Laghouat"},{"name":"Messaad","lat":34.15429,"lon":3.50309,"population":97091,"iso_a3":"DZA","country":"Algeria","is_capital":false,"name_en":"Messaad","name_es":"Messaad","name_fr":"Messaad","name_it":"Messaad","name_ru":"Мессад","elevation":777.0,"timezone":"Africa/Algiers","admin1_name":"Djelfa"},{"name":"Guerara","lat":32.79211,"lon":4.49949,"population":58572,"iso_a3":"DZA","country":"Algeria","is_capital":false,"name_en":"Guerara","name_es":"Guerara","name_fr":"Guerara","name_it":"Guerara","name_ru":"Guerara","elevation":305.0,"timezone":"Africa/Algiers","admin1_name":"Ghardaia"},{"name":"El Hadjira","lat":32.61336,"lon":5.51259,"population":39744,"iso_a3":"DZA","country":"Algeria","is_capital":false,"name_en":"El Hadjira","name_es":"El Hadjira","name_fr":"El Hadjira","name_it":"El Hadjira","name_ru":"El Hadjira","elevation":130.0,"timezone":"Africa/Algiers","admin1_name":"Ouargla"},{"name":"Metlili Chaamba","lat":32.26667,"lon":3.63333,"population":39588,"iso_a3":"DZA","country":"Algeria","is_capital":false,"name_en":"Metlili Chaamba","name_es":"Metlili Chaamba","name_fr":"Metlili Chaamba","name_it":"Metlili Chaamba","name_ru":"Metlili Chaamba","elevation":542.0,"timezone":"Africa/Algiers","admin1_name":"Ghardaia"},{"name":"Berriane","lat":32.82648,"lon":3.76689,"population":30170,"iso_a3":"DZA","country":"Algeria","is_capital":false,"name_en":"Berriane","name_es":"Berriane","name_fr":"Berriane","name_it":"Berriane","name_ru":"Berriane","elevation":536.0,"timezone":"Africa/Algiers","admin1_name":"Ghardaia"}]