[{"name":"Basel","lat":47.55839,"lon":7.57327,"population":177595,"iso_a3":"CHE","country":"Switzerland","is_capital":false,"name_en":"Basel","name_es":"Basilea","name_fr":"Bâle","name_it":"Basilea","name_ru":"Базель","elevation":279.0,"timezone":"Europe/Zurich","admin1_name":"Basel-City"},{"name":"Luzern","lat":47.05048,"lon":8.30635,"population":81691,"iso_a3":"CHE","country":"Switzerland","is_capital":false,"name_en":"Lucerne","name_es":"Lucerna","name_fr":"Lucerne","name_it":"Lucerna","name_ru":"Люцерн","elevation":437.0,"timezone":"Europe/Zurich","admin1_name":"Lucerne"},{"name":"Biel/Bienne","lat":47.13713,"lon":7.24608,"population":55120,"iso_a3":"CHE","country":"Switzerland","is_capital":false,"name_en":"Biel/Bienne","name_es":"Biel-Bienne","name_fr":"Bienne","name_it":"Bienne","name_ru":"Биль","elevation":439.0,"timezone":"Europe/Zurich","admin1_name":"Bern"},{"name":"La Chaux-de-Fonds","lat":47.09993,"lon":6.82586,"population":37942,"iso_a3":"CHE","country":"Switzerland","is_capital":false,"name_en":"La Chaux-de-Fonds","name_es":"La Chaux-de-Fonds","name_fr":"La Chaux-de-Fonds","name_it":"La Chaux-de-Fonds","name_ru":"Ла-Шо-де-Фон","elevation":995.0,"timezone":"Europe/Zurich","admin1_name":"Neuchâtel"},{"name":"Freiburg","lat":47.9959,"lon":7.85222,"population":215966,"iso_a3":"DEU","country":"Germany","is_capital":false,"name_en":"Freiburg im Breisgau","name_es":"Friburgo de Brisgovia","name_fr":"Fribourg-en-Brisgau","name_it":"Friburgo in Brisgovia","name_ru":"Фрайбург-им-Брайсгау","elevation":279.0,"timezone":"Europe/Berlin","admin1_name":"Baden-Wurttemberg"},{"name":"Offenburg","lat":48.47377,"lon":7.94495,"population":59238,"iso_a3":"DEU","country":"Germany","is_capital":false,"name_en":"Offenburg","name_es":"Offenburg","name_fr":"Offenbourg","name_it":"Offenburg","name_ru":"Оффенбург","elevation":163.0,"timezone":"Europe/Berlin","admin1_name":"Baden-Wurttemberg"},{"name":"Baden-Baden","lat":48.7606,"lon":8.23975,"population":55449,"iso_a3":"DEU","country":"Germany","is_capital":false,"name_en":"Baden-Baden","name_es":"Baden-Baden","name_fr":"Baden-Baden","name_it":"Baden-Baden","name_ru":"Баден-Баден","elevation":169.0,"timezone":"Europe/Berlin","admin1_name":"Baden-Wurttemberg"},{"name":"Rastatt","lat":48.85851,"lon":8.20965,"population":47906,"iso_a3":"DEU","country":"Germany","is_capital":false,"name_en":"Rastatt","name_es":"Rastatt","name_fr":"Rastatt","name_it":"Rastatt","name_ru":"Раштатт","elevation":126.0,"timezone":"Europe/Berlin","admin1_name":"Baden-Wurttemberg"},{"name":"Lahr","lat":48.34042,"lon":7.86886,"population":47551,"iso_a3":"DEU","country":"Germany","is_capital":false,"name_en":"Lahr","name_es":"Lahr","name_fr":"Lahr/Schwarzwald","name_it":"Lahr/Schwarzwald","name_ru":"Лар","elevation":176.0,"timezone":"Europe/Berlin","admin1_name":"Baden-Wurttemberg"},{"name":"Lörrach","lat":47.61497,"lon":7.66457,"population":47002,"iso_a3":"DEU","country":"Germany","is_capital":false,"name_en":"Loerrach","name_es":"Loerrach","name_fr":"Lörrach","name_it":"lörrach","name_ru":"Лёррах","elevation":308.0,"timezone":"Europe/Berlin","admin1_name":"Baden-Wurttemberg"},{"name":"Kehl","lat":48.57297,"lon":7.81523,"population":34009,"iso_a3":"DEU","country":"Germany","is_capital":false,"name_en":"Kehl","name_es":"Kehl","name_fr":"Kehl","name_it":"Kehl","name_ru":"Кель","elevation":138.0,"timezone":"Europe/Berlin","admin1_name":"Baden-Wurttemberg"},{"name":"Rheinfelden","lat":47.56013,"lon":7.78715,"population":32535,"iso_a3":"DEU","country":"Germany","is_capital":false,"name_en":"Rheinfelden","name_es":"Rheinfelden","name_fr":"Rheinfelden","name_it":"Rheinfelden","name_ru":"Райнфельден","elevation":279.0,"timezone":"Europe/Berlin","admin1_name":"Baden-Wurttemberg"},{"name":"Strasbourg","lat":48.58392,"lon":7.74553,"population":274845,"iso_a3":"FRA","country":"France","is_capital":false,"name_en":"Strasbourg","name_es":"Estrasburgo","name_fr":"Strasbourg","name_it":"Strasburgo","name_ru":"Страсбург","elevation":147.0,"timezone":"Europe/Paris","admin1_name":"Grand Est"},{"name":"Besançon","lat":47.24878,"lon":6.01815,"population":128426,"iso_a3":"FRA","country":"France","is_capital":false,"name_en":"Besançon","name_es":"Besanzón","name_fr":"Besançon","name_it":"Besanzone","name_ru":"Безансон","elevation":300.0,"timezone":"Europe/Paris","admin1_name":"Bourgogne"},{"name":"Mulhouse","lat":47.75205,"lon":7.32866,"population":111430,"iso_a3":"FRA","country":"France","is_capital":false,"name_en":"Mulhouse","name_es":"Mulhouse","name_fr":"Mulhouse","name_it":"Mulhouse","name_ru":"Мюлуз","elevation":238.0,"timezone":"Europe/Paris","admin1_name":"Grand Est"},{"name":"Nancy","lat":48.68439,"lon":6.18496,"population":105058,"iso_a3":"FRA","country":"France","is_capital":false,"name_en":"Nancy","name_es":"Nancy","name_fr":"Nancy","name_it":"Nancy","name_ru":"Нанси","elevation":212.0,"timezone":"Europe/Paris","admin1_name":"Grand Est"},{"name":"Colmar","lat":48.08078,"lon":7.35584,"population":65405,"iso_a3":"FRA","country":"France","is_capital":false,"name_en":"Colmar","name_es":"Colmar","name_fr":"Colmar","name_it":"Colmar","name_ru":"Кольмар","elevation":193.0,"timezone":"Europe/Paris","admin1_name":"Grand Est"},{"name":"Belfort","lat":47.64218,"lon":6.85385,"population":54562,"iso_a3":"FRA","country":"France","is_capital":false,"name_en":"Belfort","name_es":"Belfort","name_fr":"Belfort","name_it":"Belfort","name_ru":"Бельфор","elevation":362.0,"timezone":"Europe/Paris","admin1_name":"Bourgogne"},{"name":"Épinal","lat":48.18324,"lon":6.45304,"population":39518,"iso_a3":"FRA","country":"France","is_capital":false,"name_en":"Épinal","name_es":"Épinal","name_fr":"Épinal","name_it":"Épinal","name_ru":"Эпиналь","elevation":388.0,"timezone":"Europe/Paris","admin1_name":"Grand Est"},{"name":"Haguenau","lat":48.81557,"lon":7.79051,"population":38721,"iso_a3":"FRA","country":"France","is_capital":false,"name_en":"Haguenau","name_es":"Haguenau","name_fr":"Haguenau","name_it":"Haguenau","name_ru":"Агно","elevation":144.0,"timezone":"Europe/Paris","admin1_name":"Grand Est"}]