[{"name":"Maradi","lat":13.5,"lon":7.10174,"population":361702,"iso_a3":"NER","country":"Niger","is_capital":false,"name_en":"Maradi","name_es":"Maradi","name_fr":"Maradi","name_it":"Maradi","name_ru":"Маради","elevation":360.0,"timezone":"Africa/Niamey","admin1_name":"Maradi Region"},{"name":"Tessaoua","lat":13.75737,"lon":7.9874,"population":58750,"iso_a3":"NER","country":"Niger","is_capital":false,"name_en":"Tessaoua","name_es":"Tessaoua","name_fr":"Tessaoua","name_it":"Tessaoua","name_ru":"Tessaoua","elevation":400.0,"timezone":"Africa/Niamey","admin1_name":"Maradi Region"},{"name":"Tibiri","lat":13.56271,"lon":7.04848,"population":34529,"iso_a3":"NER","country":"Niger","is_capital":false,"name_en":"Tibiri","name_es":"Tibiri","name_fr":"Tibiri","name_it":"Tibiri","name_ru":"Tibiri","elevation":347.0,"timezone":"Africa/Niamey","admin1_name":"Maradi Region"},{"name":"Gusau","lat":12.17024,"lon":6.66412,"population":226857,"iso_a3":"NGA","country":"Nigeria","is_capital":false,"name_en":"Gusau","name_es":"Gusau","name_fr":"Gusau","name_it":"Gusau","name_ru":"Гусау","elevation":451.0,"timezone":"Africa/Lagos","admin1_name":"Zamfara State"},{"name":"Funtua","lat":11.52351,"lon":7.31174,"population":136811,"iso_a3":"NGA","country":"Nigeria","is_capital":false,"name_en":"Funtua","name_es":"Funtua","name_fr":"Funtua","name_it":"Funtua","name_ru":"Funtua","elevation":709.0,"timezone":"Africa/Lagos","admin1_name":"Katsina State"},{"name":"Malumfashi","lat":11.78935,"lon":7.62061,"population":70709,"iso_a3":"NGA","country":"Nigeria","is_capital":false,"name_en":"Malumfashi","name_es":"Malumfashi","name_fr":"Malumfashi","name_it":"Malumfashi","name_ru":"Malumfashi","elevation":618.0,"timezone":"Africa/Lagos","admin1_name":"Katsina State"},{"name":"Kaura Namoda","lat":12.59371,"lon":6.58648,"population":69725,"iso_a3":"NGA","country":"Nigeria","is_capital":false,"name_en":"Kaura Namoda","name_es":"Kaura Namoda","name_fr":"Kaura Namoda","name_it":"Kaura Namoda","name_ru":"Kaura Namoda","elevation":396.0,"timezone":"Africa/Lagos","admin1_name":"Zamfara State"},{"name":"Talata Mafara","lat":12.56841,"lon":6.06225,"population":39045,"iso_a3":"NGA","country":"Nigeria","is_capital":false,"name_en":"Talata Mafara","name_es":"Talata Mafara","name_fr":"Talata Mafara","name_it":"Talata Mafara","name_ru":"Talata Mafara","elevation":316.0,"timezone":"Africa/Lagos","admin1_name":"Zamfara State"}]