[{"name":"Okene","lat":7.55122,"lon":6.23589,"population":479178,"iso_a3":"NGA","country":"Nigeria","is_capital":false,"name_en":"Okene","name_es":"Okene","name_fr":"Okene","name_it":"Okene","name_ru":"Okene","elevation":384.0,"timezone":"Africa/Lagos","admin1_name":"Kogi State"},{"name":"Ikare","lat":7.52591,"lon":5.75342,"population":465000,"iso_a3":"NGA","country":"Nigeria","is_capital":false,"name_en":"Ikare","name_es":"Ikare","name_fr":"Ikare","name_it":"Ikare","name_ru":"Ikare","elevation":423.0,"timezone":"Africa/Lagos","admin1_name":"Ondo State"},{"name":"Sapele","lat":5.89405,"lon":5.67666,"population":305000,"iso_a3":"NGA","country":"Nigeria","is_capital":false,"name_en":"Sapele","name_es":"Sapele","name_fr":"Sapele","name_it":"Sapele","name_ru":"Sapele","elevation":9.0,"timezone":"Africa/Lagos","admin1_name":"Delta"},{"name":"Atani","lat":6.01277,"lon":6.74768,"population":230000,"iso_a3":"NGA","country":"Nigeria","is_capital":false,"name_en":"Atani","name_es":"Atani","name_fr":"Atani","name_it":"Atani","name_ru":"Atani","elevation":25.0,"timezone":"Africa/Lagos","admin1_name":"Anambra"},{"name":"Ugep","lat":5.80865,"lon":8.08098,"population":200276,"iso_a3":"NGA","country":"Nigeria","is_capital":false,"name_en":"Ugep","name_es":"Ugep","name_fr":"Ugep","name_it":"Ugep","name_ru":"Ugep","elevation":101.0,"timezone":"Africa/Lagos","admin1_name":"Cross River State"},{"name":"Nnewi","lat":6.01962,"lon":6.91729,"population":193987,"iso_a3":"NGA","country":"Nigeria","is_capital":false,"name_en":"Nnewi","name_es":"Nnewi","name_fr":"Nnewi","name_it":"Nnewi","name_ru":"Ннюви","elevation":151.0,"timezone":"Africa/Lagos","admin1_name":"Anambra"},{"name":"Awka","lat":6.21269,"lon":7.07199,"population":167738,"iso_a3":"NGA","country":"Nigeria","is_capital":false,"name_en":"Awka","name_es":"Awka","name_fr":"Awka","name_it":"Awka","name_ru":"Авка","elevation":99.0,"timezone":"Africa/Lagos","admin1_name":"Anambra"},{"name":"Abakaliki","lat":6.32485,"lon":8.11368,"population":134102,"iso_a3":"NGA","country":"Nigeria","is_capital":false,"name_en":"Abakaliki","name_es":"Abakaliki","name_fr":"Abakaliki","name_it":"Abakaliki","name_ru":"Abakaliki","elevation":65.0,"timezone":"Africa/Lagos","admin1_name":"Ebonyi State"},{"name":"Amaigbo","lat":5.78917,"lon":7.83829,"population":127300,"iso_a3":"NGA","country":"Nigeria","is_capital":false,"name_en":"Amaigbo","name_es":"Amaigbo","name_fr":"Amaigbo","name_it":"Amaigbo","name_ru":"Amaigbo","elevation":84.0,"timezone":"Africa/Lagos","admin1_name":"Abia State"},{"name":"Okigwe","lat":5.82917,"lon":7.35056,"population":115499,"iso_a3":"NGA","country":"Nigeria","is_capital":false,"name_en":"Okigwe","name_es":"Okigwe","name_fr":"Okigwe","name_it":"Okigwe","name_ru":"Okigwe","elevation":158.0,"timezone":"Africa/Lagos","admin1_name":"Imo State"},{"name":"Nsukka","lat":6.85783,"lon":7.39577,"population":111017,"iso_a3":"NGA","country":"Nigeria","is_capital":false,"name_en":"Nsukka","name_es":"Nsukka","name_fr":"Nsukka","name_it":"Nsukka","name_ru":"Нсукка","elevation":423.0,"timezone":"Africa/Lagos","admin1_name":"Enugu State"},{"name":"Uromi","lat":6.7,"lon":6.33333,"population":108608,"iso_a3":"NGA","country":"Nigeria","is_capital":false,"name_en":"Uromi","name_es":"Uromi","name_fr":"Uromi","name_it":"Uromi","name_ru":"Уроми","elevation":381.0,"timezone":"Africa/Lagos","admin1_name":"Edo State"},{"name":"Isieke","lat":6.38186,"lon":8.03736,"population":89990,"iso_a3":"NGA","country":"Nigeria","is_capital":false,"name_en":"Isieke","name_es":"Isieke","name_fr":"Isieke","name_it":"Isieke","name_ru":"Isieke","elevation":68.0,"timezone":"Africa/Lagos","admin1_name":"Ebonyi State"},{"name":"Effium","lat":6.63105,"lon":8.05814,"population":86945,"iso_a3":"NGA","country":"Nigeria","is_capital":false,"name_en":"Effium","name_es":"Effium","name_fr":"Effium","name_it":"Effium","name_ru":"Effium","elevation":115.0,"timezone":"Africa/Lagos","admin1_name":"Ebonyi State"},{"name":"Ogaminana","lat":7.59383,"lon":6.21798,"population":84373,"iso_a3":"NGA","country":"Nigeria","is_capital":false,"name_en":"Ogaminana","name_es":"Ogaminana","name_fr":"Ogaminana","name_it":"Ogaminana","name_ru":"Ogaminana","elevation":247.0,"timezone":"Africa/Lagos","admin1_name":"Kogi State"},{"name":"Ihiala","lat":5.85475,"lon":6.85944,"population":83265,"iso_a3":"NGA","country":"Nigeria","is_capital":false,"name_en":"Ihiala","name_es":"Ihiala","name_fr":"Ihiala","name_it":"Ihiala","name_ru":"Ihiala","elevation":146.0,"timezone":"Africa/Lagos","admin1_name":"Anambra"},{"name":"Agulu","lat":6.10045,"lon":7.061,"population":79021,"iso_a3":"NGA","country":"Nigeria","is_capital":false,"name_en":"Agulu","name_es":"Agulu","name_fr":"Agulu","name_it":"Agulu","name_ru":"Agulu","elevation":201.0,"timezone":"Africa/Lagos","admin1_name":"Anambra"},{"name":"Ode","lat":7.7899,"lon":5.7117,"population":75463,"iso_a3":"NGA","country":"Nigeria","is_capital":false,"name_en":"Ode","name_es":"Ode","name_fr":"Ode","name_it":"Ode","name_ru":"Ода","elevation":529.0,"timezone":"Africa/Lagos","admin1_name":"Ondo State"},{"name":"Igbo-Ukwu","lat":6.01798,"lon":7.02027,"population":75224,"iso_a3":"NGA","country":"Nigeria","is_capital":false,"name_en":"Igbo-Ukwu","name_es":"Igbo-Ukwu","name_fr":"Igbo-Ukwu","name_it":"Igbo-Ukwu","name_ru":"Игбо-Укву","elevation":359.0,"timezone":"Africa/Lagos","admin1_name":"Anambra"},{"name":"Ozubulu","lat":5.95753,"lon":6.85305,"population":73812,"iso_a3":"NGA","country":"Nigeria","is_capital":false,"name_en":"Ozubulu","name_es":"Ozubulu","name_fr":"Ozubulu","name_it":"Ozubulu","name_ru":"Ozubulu","elevation":135.0,"timezone":"Africa/Lagos","admin1_name":"Anambra"},{"name":"Aku","lat":6.70902,"lon":7.31826,"population":73742,"iso_a3":"NGA","country":"Nigeria","is_capital":false,"name_en":"Aku","name_es":"Aku","name_fr":"Aku","name_it":"Aku","name_ru":"Aku","elevation":299.0,"timezone":"Africa/Lagos","admin1_name":"Enugu State"},{"name":"Asaba","lat":6.19824,"lon":6.73187,"population":73374,"iso_a3":"NGA","country":"Nigeria","is_capital":false,"name_en":"Asaba","name_es":"Asaba","name_fr":"Asaba","name_it":"Asaba","name_ru":"Асаба","elevation":46.0,"timezone":"Africa/Lagos","admin1_name":"Delta"},{"name":"Afikpo","lat":5.89258,"lon":7.93534,"population":71866,"iso_a3":"NGA","country":"Nigeria","is_capital":false,"name_en":"Afikpo","name_es":"Afikpo","name_fr":"Afikpo","name_it":"Afikpo","name_ru":"Afikpo","elevation":92.0,"timezone":"Africa/Lagos","admin1_name":"Ebonyi State"},{"name":"Eha Amufu","lat":6.65915,"lon":7.75961,"population":70779,"iso_a3":"NGA","country":"Nigeria","is_capital":false,"name_en":"Eha Amufu","name_es":"Eha Amufu","name_fr":"Eha Amufu","name_it":"Eha Amufu","name_ru":"Eha Amufu","elevation":109.0,"timezone":"Africa/Lagos","admin1_name":"Enugu State"},{"name":"Enugu-Ukwu","lat":6.17146,"lon":7.00525,"population":68785,"iso_a3":"NGA","country":"Nigeria","is_capital":false,"name_en":"Enugu-Ukwu","name_es":"Enugu-Ukwu","name_fr":"Enugu-Ukwu","name_it":"Enugu-Ukwu","name_ru":"Enugu-Ukwu","elevation":220.0,"timezone":"Africa/Lagos","admin1_name":"Anambra"},{"name":"Idah","lat":7.11345,"lon":6.73866,"population":68703,"iso_a3":"NGA","country":"Nigeria","is_capital":false,"name_en":"Idah","name_es":"Idah","name_fr":"Idah","name_it":"Idah","name_ru":"Idah","elevation":73.0,"timezone":"Africa/Lagos","admin1_name":"Kogi State"},{"name":"Agbor","lat":6.25375,"lon":6.1942,"population":67610,"iso_a3":"NGA","country":"Nigeria","is_capital":false,"name_en":"Agbor","name_es":"Agbor","name_fr":"Agbor","name_it":"Agbor","name_ru":"Агбор","elevation":130.0,"timezone":"Africa/Lagos","admin1_name":"Delta"},{"name":"Ezza-Ohu","lat":6.44094,"lon":8.08432,"population":67414,"iso_a3":"NGA","country":"Nigeria","is_capital":false,"name_en":"Ezza-Ohu","name_es":"Ezza-Ohu","name_fr":"Ezza-Ohu","name_it":"Ezza-Ohu","name_ru":"Ezza-Ohu","elevation":80.0,"timezone":"Africa/Lagos","admin1_name":"Ebonyi State"},{"name":"Uga","lat":5.93576,"lon":7.0793,"population":64179,"iso_a3":"NGA","country":"Nigeria","is_capital":false,"name_en":"Uga","name_es":"Uga","name_fr":"Uga","name_it":"Uga","name_ru":"Uga","elevation":227.0,"timezone":"Africa/Lagos","admin1_name":"Anambra"},{"name":"Nkwerre","lat":5.75917,"lon":7.10384,"population":62973,"iso_a3":"NGA","country":"Nigeria","is_capital":false,"name_en":"Nkwerre","name_es":"Nkwerre","name_fr":"Nkwerre","name_it":"Nkwerre","name_ru":"Nkwerre","elevation":179.0,"timezone":"Africa/Lagos","admin1_name":"Imo State"},{"name":"Auchi","lat":7.06756,"lon":6.2636,"population":62907,"iso_a3":"NGA","country":"Nigeria","is_capital":false,"name_en":"Auchi","name_es":"Auchi","name_fr":"Auchi","name_it":"Auchi","name_ru":"Auchi","elevation":188.0,"timezone":"Africa/Lagos","admin1_name":"Edo State"},{"name":"Lokoja","lat":7.79688,"lon":6.74048,"population":60579,"iso_a3":"NGA","country":"Nigeria","is_capital":false,"name_en":"Lokoja","name_es":"Lokoja","name_fr":"Lokoja","name_it":"Lokoja","name_ru":"Lokoja","elevation":53.0,"timezone":"Africa/Lagos","admin1_name":"Kogi State"},{"name":"Ekpoma","lat":6.743,"lon":6.14029,"population":59618,"iso_a3":"NGA","country":"Nigeria","is_capital":false,"name_en":"Ekpoma","name_es":"Ekpoma","name_fr":"Ekpoma","name_it":"Ekpoma","name_ru":"Ekpoma","elevation":364.0,"timezone":"Africa/Lagos","admin1_name":"Edo State"},{"name":"Kabba","lat":7.82719,"lon":6.07502,"population":49869,"iso_a3":"NGA","country":"Nigeria","is_capital":false,"name_en":"Kabba","name_es":"Kabba","name_fr":"Kabba","name_it":"Kabba","name_ru":"Kabba","elevation":436.0,"timezone":"Africa/Lagos","admin1_name":"Kogi State"}]