[{"name":"Drammen","lat":59.74389,"lon":10.20449,"population":105042,"iso_a3":"NOR","country":"Norway","is_capital":false,"name_en":"Drammen","name_es":"Drammen","name_fr":"Drammen","name_it":"Drammen","name_ru":"Драммен","elevation":11.0,"timezone":"Europe/Oslo","admin1_name":"Buskerud"},{"name":"Lillestrøm","lat":59.95597,"lon":11.04918,"population":89684,"iso_a3":"NOR","country":"Norway","is_capital":false,"name_en":"Lillestrøm","name_es":"Lillestrøm","name_fr":"Lillestrøm","name_it":"Lillestrøm","name_ru":"Лиллестрём","elevation":116.0,"timezone":"Europe/Oslo","admin1_name":"Akershus"},{"name":"Fredrikstad","lat":59.2181,"lon":10.9298,"population":83761,"iso_a3":"NOR","country":"Norway","is_capital":false,"name_en":"Fredrikstad","name_es":"Fredrikstad","name_fr":"Fredrikstad","name_it":"Fredrikstad","name_ru":"Фредрикстад","elevation":6.0,"timezone":"Europe/Oslo","admin1_name":"Østfold"},{"name":"Sandefjord","lat":59.13118,"lon":10.21665,"population":64345,"iso_a3":"NOR","country":"Norway","is_capital":false,"name_en":"Sandefjord","name_es":"Sandefjord","name_fr":"Sandefjord","name_it":"Sandefjord","name_ru":"Саннефьорд","elevation":11.0,"timezone":"Europe/Oslo","admin1_name":"Vestfold"},{"name":"Asker","lat":59.83333,"lon":10.43721,"population":61906,"iso_a3":"NOR","country":"Norway","is_capital":false,"name_en":"Asker","name_es":"Asker","name_fr":"Asker","name_it":"Asker","name_ru":"Аскер","elevation":119.0,"timezone":"Europe/Oslo","admin1_name":"Akershus"},{"name":"Sarpsborg","lat":59.28391,"lon":11.10962,"population":59038,"iso_a3":"NOR","country":"Norway","is_capital":false,"name_en":"Sarpsborg","name_es":"Sarpsborg","name_fr":"Sarpsborg","name_it":"Sarpsborg","name_ru":"Сарпсборг","elevation":54.0,"timezone":"Europe/Oslo","admin1_name":"Østfold"},{"name":"Tønsberg","lat":59.26754,"lon":10.40762,"population":55387,"iso_a3":"NOR","country":"Norway","is_capital":false,"name_en":"Tønsberg","name_es":"Tønsberg","name_fr":"Tønsberg","name_it":"Tønsberg","name_ru":"Тёнсберг","elevation":16.0,"timezone":"Europe/Oslo","admin1_name":"Vestfold"},{"name":"Skien","lat":59.20962,"lon":9.60897,"population":50595,"iso_a3":"NOR","country":"Norway","is_capital":false,"name_en":"Skien","name_es":"Skien","name_fr":"Skien","name_it":"Skien","name_ru":"Шиен","elevation":27.0,"timezone":"Europe/Oslo","admin1_name":"Telemark"},{"name":"Moss","lat":59.43403,"lon":10.65771,"population":49668,"iso_a3":"NOR","country":"Norway","is_capital":false,"name_en":"Moss","name_es":"Moss","name_fr":"Moss","name_it":"Moss","name_ru":"Мосс","elevation":17.0,"timezone":"Europe/Oslo","admin1_name":"Østfold"},{"name":"Porsgrunn","lat":59.14054,"lon":9.6561,"population":34377,"iso_a3":"NOR","country":"Norway","is_capital":false,"name_en":"Porsgrunn","name_es":"Porsgrunn","name_fr":"Porsgrunn","name_it":"Porsgrunn","name_ru":"Пушгрён","elevation":9.0,"timezone":"Europe/Oslo","admin1_name":"Telemark"}]