[{"name":"Kiel","lat":54.32133,"lon":10.13489,"population":246601,"iso_a3":"DEU","country":"Germany","is_capital":false,"name_en":"Kiel","name_es":"Kiel","name_fr":"Kiel","name_it":"Kiel","name_ru":"Киль","elevation":7.0,"timezone":"Europe/Berlin","admin1_name":"Schleswig-Holstein"},{"name":"Flensburg","lat":54.78805,"lon":9.43722,"population":85838,"iso_a3":"DEU","country":"Germany","is_capital":false,"name_en":"Flensburg","name_es":"Flensburgo","name_fr":"Flensbourg","name_it":"Flensburgo","name_ru":"Фленсбург","elevation":33.0,"timezone":"Europe/Berlin","admin1_name":"Schleswig-Holstein"},{"name":"Odense","lat":55.39594,"lon":10.38831,"population":180863,"iso_a3":"DNK","country":"Denmark","is_capital":false,"name_en":"Odense","name_es":"Odense","name_fr":"Odense","name_it":"Odense","name_ru":"Оденсе","elevation":17.0,"timezone":"Europe/Copenhagen","admin1_name":"South Denmark"},{"name":"Esbjerg","lat":55.47028,"lon":8.45187,"population":71698,"iso_a3":"DNK","country":"Denmark","is_capital":false,"name_en":"Esbjerg","name_es":"Esbjerg","name_fr":"Esbjerg","name_it":"Esbjerg","name_ru":"Эсбьерг","elevation":17.0,"timezone":"Europe/Copenhagen","admin1_name":"South Denmark"},{"name":"Kolding","lat":55.4904,"lon":9.47216,"population":61638,"iso_a3":"DNK","country":"Denmark","is_capital":false,"name_en":"Kolding","name_es":"Kolding","name_fr":"Kolding","name_it":"Kolding","name_ru":"Колдинг","elevation":8.0,"timezone":"Europe/Copenhagen","admin1_name":"South Denmark"},{"name":"Vejle","lat":55.70927,"lon":9.5357,"population":60231,"iso_a3":"DNK","country":"Denmark","is_capital":false,"name_en":"Vejle","name_es":"Vejle","name_fr":"Vejle","name_it":"Vejle","name_ru":"Вайле","elevation":5.0,"timezone":"Europe/Copenhagen","admin1_name":"South Denmark"},{"name":"Hedensted","lat":55.77043,"lon":9.7011,"population":47099,"iso_a3":"DNK","country":"Denmark","is_capital":false,"name_en":"Hedensted","name_es":"Hedensted","name_fr":"Hedensted","name_it":"Hedensted","name_ru":"Hedensted","elevation":65.0,"timezone":"Europe/Copenhagen","admin1_name":"Central Jutland"},{"name":"Fredericia","lat":55.56568,"lon":9.75257,"population":40886,"iso_a3":"DNK","country":"Denmark","is_capital":false,"name_en":"Fredericia","name_es":"Fredericia","name_fr":"Fredericia","name_it":"Fredericia","name_ru":"Фредерисия","elevation":16.0,"timezone":"Europe/Copenhagen","admin1_name":"South Denmark"}]