[{"name":"Lafia","lat":8.4939,"lon":8.51532,"population":127236,"iso_a3":"NGA","country":"Nigeria","is_capital":false,"name_en":"Lafia","name_es":"Lafia","name_fr":"Lafia","name_it":"Lafia","name_ru":"Lafia","elevation":179.0,"timezone":"Africa/Lagos","admin1_name":"Nasarawa State"},{"name":"Pindiga","lat":9.98433,"lon":10.95229,"population":106322,"iso_a3":"NGA","country":"Nigeria","is_capital":false,"name_en":"Pindiga","name_es":"Pindiga","name_fr":"Pindiga","name_it":"Pindiga","name_ru":"Pindiga","elevation":490.0,"timezone":"Africa/Lagos","admin1_name":"Gombe State"},{"name":"Lere","lat":10.38584,"lon":8.57286,"population":93290,"iso_a3":"NGA","country":"Nigeria","is_capital":false,"name_en":"Lere","name_es":"Lere","name_fr":"Lere","name_it":"Lere","name_ru":"Лера","elevation":753.0,"timezone":"Africa/Lagos","admin1_name":"Kaduna State"},{"name":"Kumo","lat":10.04807,"lon":11.21055,"population":35712,"iso_a3":"NGA","country":"Nigeria","is_capital":false,"name_en":"Kumo","name_es":"Kumo","name_fr":"Kumo","name_it":"Kumo","name_ru":"Kumo","elevation":427.0,"timezone":"Africa/Lagos","admin1_name":"Gombe State"},{"name":"Pankshin","lat":9.32541,"lon":9.4352,"population":31516,"iso_a3":"NGA","country":"Nigeria","is_capital":false,"name_en":"Pankshin","name_es":"Pankshin","name_fr":"Pankshin","name_it":"Pankshin","name_ru":"Pankshin","elevation":1235.0,"timezone":"Africa/Lagos","admin1_name":"Plateau State"}]