[{"name":"Rostock","lat":54.0887,"lon":12.14049,"population":198293,"iso_a3":"DEU","country":"Germany","is_capital":false,"name_en":"Rostock","name_es":"Rostock","name_fr":"Rostock","name_it":"Rostock","name_ru":"Росток","elevation":18.0,"timezone":"Europe/Berlin","admin1_name":"Mecklenburg-Vorpommern"},{"name":"Schwerin","lat":53.62937,"lon":11.41316,"population":96641,"iso_a3":"DEU","country":"Germany","is_capital":false,"name_en":"Schwerin","name_es":"Schwerin","name_fr":"Schwerin","name_it":"Schwerin","name_ru":"Шверин","elevation":48.0,"timezone":"Europe/Berlin","admin1_name":"Mecklenburg-Vorpommern"},{"name":"Neubrandenburg","lat":53.55735,"lon":13.26105,"population":68082,"iso_a3":"DEU","country":"Germany","is_capital":false,"name_en":"Neubrandenburg","name_es":"Nuevo Brandeburgo","name_fr":"Neubrandenbourg","name_it":"Neubrandenburg","name_ru":"Нойбранденбурге","elevation":15.0,"timezone":"Europe/Berlin","admin1_name":"Mecklenburg-Vorpommern"},{"name":"Universitäts- und Hansestadt Greifswald","lat":54.08905,"lon":13.40244,"population":52731,"iso_a3":"DEU","country":"Germany","is_capital":false,"name_en":"Greifswald","name_es":"Greifswald","name_fr":"Greifswald","name_it":"Greifswald","name_ru":"Грайфсвальд","elevation":2.0,"timezone":"Europe/Berlin","admin1_name":"Mecklenburg-Vorpommern"},{"name":"Wismar","lat":53.89218,"lon":11.45563,"population":45255,"iso_a3":"DEU","country":"Germany","is_capital":false,"name_en":"Wismar","name_es":"Wismar","name_fr":"Wismar","name_it":"Wismar","name_ru":"Висмар","elevation":1.0,"timezone":"Europe/Berlin","admin1_name":"Mecklenburg-Vorpommern"},{"name":"Eberswalde","lat":52.83492,"lon":13.81951,"population":41980,"iso_a3":"DEU","country":"Germany","is_capital":false,"name_en":"Eberswalde","name_es":"Eberswalde","name_fr":"Eberswalde","name_it":"Eberswalde","name_ru":"Эберсвальде","elevation":14.0,"timezone":"Europe/Berlin","admin1_name":"Brandenburg"},{"name":"Oranienburg","lat":52.75577,"lon":13.24197,"population":40793,"iso_a3":"DEU","country":"Germany","is_capital":false,"name_en":"Oranienburg","name_es":"Oranienburg","name_fr":"Oranienburg","name_it":"Oranienburg","name_ru":"Ораниенбург","elevation":35.0,"timezone":"Europe/Berlin","admin1_name":"Brandenburg"},{"name":"Stendal","lat":52.6069,"lon":11.85867,"population":37722,"iso_a3":"DEU","country":"Germany","is_capital":false,"name_en":"Stendal","name_es":"Stendal","name_fr":"Stendal","name_it":"Stendal","name_ru":"Стендаль","elevation":34.0,"timezone":"Europe/Berlin","admin1_name":"Saxony-Anhalt"},{"name":"Falkensee","lat":52.56014,"lon":13.0927,"population":37468,"iso_a3":"DEU","country":"Germany","is_capital":false,"name_en":"Falkensee","name_es":"Falkensee","name_fr":"Falkensee","name_it":"Falkensee","name_ru":"Фалькензе","elevation":31.0,"timezone":"Europe/Berlin","admin1_name":"Brandenburg"},{"name":"Bernau bei Berlin","lat":52.67982,"lon":13.58708,"population":34866,"iso_a3":"DEU","country":"Germany","is_capital":false,"name_en":"Bernau bei Berlin","name_es":"Bernau bei Berlin","name_fr":"Bernau bei Berlin","name_it":"Bernau bei Berlin","name_ru":"Бернау","elevation":72.0,"timezone":"Europe/Berlin","admin1_name":"Brandenburg"},{"name":"Neuruppin","lat":52.92815,"lon":12.80311,"population":31901,"iso_a3":"DEU","country":"Germany","is_capital":false,"name_en":"Neuruppin","name_es":"Neuruppin","name_fr":"Neuruppin","name_it":"Neuruppin","name_ru":"Нойруппин","elevation":45.0,"timezone":"Europe/Berlin","admin1_name":"Brandenburg"},{"name":"Güstrow","lat":53.7972,"lon":12.17337,"population":31217,"iso_a3":"DEU","country":"Germany","is_capital":false,"name_en":"Güstrow","name_es":"Güstrow","name_fr":"Güstrow","name_it":"Güstrow","name_ru":"Гюстров","elevation":9.0,"timezone":"Europe/Berlin","admin1_name":"Mecklenburg-Vorpommern"}]