[{"name":"Pula","lat":44.86833,"lon":13.84806,"population":52220,"iso_a3":"HRV","country":"Croatia","is_capital":false,"name_en":"Pula","name_es":"Pula","name_fr":"Pula","name_it":"Pola","name_ru":"Пула","elevation":11.0,"timezone":"Europe/Zagreb","admin1_name":"Istria"},{"name":"Bologna","lat":44.49381,"lon":11.33875,"population":394843,"iso_a3":"ITA","country":"Italy","is_capital":false,"name_en":"Bologna","name_es":"Bolonia","name_fr":"Bologne","name_it":"Bologna","name_ru":"Болонья","elevation":71.0,"timezone":"Europe/Rome","admin1_name":"Emilia-Romagna"},{"name":"Rimini","lat":44.05755,"lon":12.56528,"population":148688,"iso_a3":"ITA","country":"Italy","is_capital":false,"name_en":"Rimini","name_es":"Rímini","name_fr":"Rimini","name_it":"Rimini","name_ru":"Римини","elevation":10.0,"timezone":"Europe/Rome","admin1_name":"Emilia-Romagna"},{"name":"Ferrara","lat":44.83804,"lon":11.62057,"population":132009,"iso_a3":"ITA","country":"Italy","is_capital":false,"name_en":"Ferrara","name_es":"Ferrara","name_fr":"Ferrare","name_it":"Ferrara","name_ru":"Феррара","elevation":15.0,"timezone":"Europe/Rome","admin1_name":"Emilia-Romagna"},{"name":"Perugia","lat":43.1122,"lon":12.38878,"population":120137,"iso_a3":"ITA","country":"Italy","is_capital":false,"name_en":"Perugia","name_es":"Perugia","name_fr":"Pérouse","name_it":"Perugia","name_ru":"Перуджа","elevation":482.0,"timezone":"Europe/Rome","admin1_name":"Umbria"},{"name":"Forlì","lat":44.22177,"lon":12.04144,"population":116696,"iso_a3":"ITA","country":"Italy","is_capital":false,"name_en":"Forlì","name_es":"Forlì","name_fr":"Forlì","name_it":"Forlì","name_ru":"Форли","elevation":36.0,"timezone":"Europe/Rome","admin1_name":"Emilia-Romagna"},{"name":"Arezzo","lat":43.46276,"lon":11.88068,"population":100734,"iso_a3":"ITA","country":"Italy","is_capital":false,"name_en":"Arezzo","name_es":"Arezzo","name_fr":"Arezzo","name_it":"Arezzo","name_ru":"Ареццо","elevation":264.0,"timezone":"Europe/Rome","admin1_name":"Tuscany"},{"name":"Cesena","lat":44.1391,"lon":12.24315,"population":97137,"iso_a3":"ITA","country":"Italy","is_capital":false,"name_en":"Cesena","name_es":"Cesena","name_fr":"Césène","name_it":"Cesena","name_ru":"Cesena","elevation":45.0,"timezone":"Europe/Rome","admin1_name":"Emilia-Romagna"},{"name":"Ancona","lat":43.60717,"lon":13.5103,"population":89994,"iso_a3":"ITA","country":"Italy","is_capital":false,"name_en":"Ancona","name_es":"Ancona","name_fr":"Ancône","name_it":"Ancona","name_ru":"Анкона","elevation":37.0,"timezone":"Europe/Rome","admin1_name":"The Marches"},{"name":"Ravenna","lat":44.41344,"lon":12.20121,"population":80868,"iso_a3":"ITA","country":"Italy","is_capital":false,"name_en":"Ravenna","name_es":"Rávena","name_fr":"Ravenne","name_it":"Ravenna","name_ru":"Равенна","elevation":9.0,"timezone":"Europe/Rome","admin1_name":"Emilia-Romagna"},{"name":"Pesaro","lat":43.90921,"lon":12.9164,"population":77241,"iso_a3":"ITA","country":"Italy","is_capital":false,"name_en":"Pesaro","name_es":"Pesaro","name_fr":"Pesaro","name_it":"Pesaro","name_ru":"Пезаро","elevation":9.0,"timezone":"Europe/Rome","admin1_name":"The Marches"},{"name":"Imola","lat":44.35916,"lon":11.7132,"population":69953,"iso_a3":"ITA","country":"Italy","is_capital":false,"name_en":"Imola","name_es":"Imola","name_fr":"Imola","name_it":"Imola","name_ru":"Имола","elevation":47.0,"timezone":"Europe/Rome","admin1_name":"Emilia-Romagna"},{"name":"Fano","lat":43.84052,"lon":13.01665,"population":60978,"iso_a3":"ITA","country":"Italy","is_capital":false,"name_en":"Fano","name_es":"Fano","name_fr":"Fano","name_it":"Fano","name_ru":"Фано","elevation":14.0,"timezone":"Europe/Rome","admin1_name":"The Marches"},{"name":"Siena","lat":43.31822,"lon":11.33064,"population":53901,"iso_a3":"ITA","country":"Italy","is_capital":false,"name_en":"Siena","name_es":"Siena","name_fr":"Sienne","name_it":"Siena","name_ru":"Сиена","elevation":342.0,"timezone":"Europe/Rome","admin1_name":"Tuscany"},{"name":"Rovigo","lat":45.06982,"lon":11.79022,"population":50279,"iso_a3":"ITA","country":"Italy","is_capital":false,"name_en":"Rovigo","name_es":"Rovigo","name_fr":"Rovigo","name_it":"Rovigo","name_ru":"Ровиго","elevation":11.0,"timezone":"Europe/Rome","admin1_name":"Veneto"},{"name":"Civitanova Marche","lat":43.30491,"lon":13.72068,"population":42251,"iso_a3":"ITA","country":"Italy","is_capital":false,"name_en":"Civitanova Marche","name_es":"Civitanova Marche","name_fr":"Civitanova Marche","name_it":"Civitanova Marche","name_ru":"Чивитанова-Марке","elevation":16.0,"timezone":"Europe/Rome","admin1_name":"The Marches"},{"name":"Faenza","lat":44.29007,"lon":11.87948,"population":41714,"iso_a3":"ITA","country":"Italy","is_capital":false,"name_en":"Faenza","name_es":"Faenza","name_fr":"Faenza","name_it":"Faenza","name_ru":"Faenza","elevation":41.0,"timezone":"Europe/Rome","admin1_name":"Emilia-Romagna"},{"name":"Jesi","lat":43.52142,"lon":13.24368,"population":36985,"iso_a3":"ITA","country":"Italy","is_capital":false,"name_en":"Iesi","name_es":"Iesi","name_fr":"Jesi","name_it":"Jesi","name_ru":"Джези","elevation":95.0,"timezone":"Europe/Rome","admin1_name":"The Marches"},{"name":"Casalecchio di Reno","lat":44.47563,"lon":11.27495,"population":33789,"iso_a3":"ITA","country":"Italy","is_capital":false,"name_en":"Casalecchio di Reno","name_es":"Casalecchio di Reno","name_fr":"Casalecchio di Reno","name_it":"Casalecchio di Reno","name_ru":"Casalecchio di Reno","elevation":71.0,"timezone":"Europe/Rome","admin1_name":"Emilia-Romagna"},{"name":"Riccione","lat":43.99942,"lon":12.65689,"population":32744,"iso_a3":"ITA","country":"Italy","is_capital":false,"name_en":"Riccione","name_es":"Riccione","name_fr":"Riccione","name_it":"Riccione","name_ru":"Риччоне","elevation":9.0,"timezone":"Europe/Rome","admin1_name":"Emilia-Romagna"},{"name":"Senigallia","lat":43.71626,"lon":13.20882,"population":30882,"iso_a3":"ITA","country":"Italy","is_capital":false,"name_en":"Senigallia","name_es":"Senigallia","name_fr":"Senigallia","name_it":"Senigallia","name_ru":"Сенигаллия","elevation":6.0,"timezone":"Europe/Rome","admin1_name":"The Marches"},{"name":"Macerata","lat":43.29789,"lon":13.45293,"population":30842,"iso_a3":"ITA","country":"Italy","is_capital":false,"name_en":"Macerata","name_es":"Macerata","name_fr":"Macerata","name_it":"Macerata","name_ru":"Мачерата","elevation":276.0,"timezone":"Europe/Rome","admin1_name":"The Marches"}]