[{"name":"Soyo","lat":-6.1349,"lon":12.36894,"population":200920,"iso_a3":"AGO","country":"Angola","is_capital":false,"name_en":"Soyo","name_es":"Soyo","name_fr":"Soyo","name_it":"Soyo","name_ru":"Сойо","elevation":10.0,"timezone":"Africa/Luanda","admin1_name":"Zaire"},{"name":"Matadi","lat":-5.83861,"lon":13.46306,"population":425662,"iso_a3":"COD","country":"DR Congo","is_capital":false,"name_en":"Matadi","name_es":"Matadi","name_fr":"Matadi","name_it":"Matadi","name_ru":"Матади","elevation":183.0,"timezone":"Africa/Kinshasa","admin1_name":"Bas-Congo"},{"name":"Boma","lat":-5.85098,"lon":13.05364,"population":297009,"iso_a3":"COD","country":"DR Congo","is_capital":false,"name_en":"Boma","name_es":"Boma","name_fr":"Boma","name_it":"Boma","name_ru":"Бома","elevation":11.0,"timezone":"Africa/Kinshasa","admin1_name":"Bas-Congo"},{"name":"Moanda","lat":-5.92753,"lon":12.37148,"population":128804,"iso_a3":"COD","country":"DR Congo","is_capital":false,"name_en":"Moanda","name_es":"Moanda","name_fr":"Moanda","name_it":"Moanda","name_ru":"Moanda","elevation":30.0,"timezone":"Africa/Kinshasa","admin1_name":"Bas-Congo"},{"name":"Kenge","lat":-5.76521,"lon":13.65711,"population":63317,"iso_a3":"COD","country":"DR Congo","is_capital":false,"name_en":"Kenge","name_es":"Kenge","name_fr":"Kenge","name_it":"Kenge","name_ru":"Kenge","elevation":241.0,"timezone":"Africa/Kinshasa","admin1_name":"Bas-Congo"}]