[{"name":"Salerno","lat":40.67545,"lon":14.79328,"population":125797,"iso_a3":"ITA","country":"Italy","is_capital":false,"name_en":"Salerno","name_es":"Salerno","name_fr":"Salerne","name_it":"Salerno","name_ru":"Салерно","elevation":46.0,"timezone":"Europe/Rome","admin1_name":"Campania"},{"name":"Torre del Greco","lat":40.78931,"lon":14.36806,"population":85332,"iso_a3":"ITA","country":"Italy","is_capital":false,"name_en":"Torre del Greco","name_es":"Torre del Greco","name_fr":"Torre del Greco","name_it":"Torre del Greco","name_ru":"Торре-дель-Греко","elevation":59.0,"timezone":"Europe/Rome","admin1_name":"Campania"},{"name":"Pozzuoli","lat":40.84394,"lon":14.0952,"population":81231,"iso_a3":"ITA","country":"Italy","is_capital":false,"name_en":"Pozzuoli","name_es":"Pozzuoli","name_fr":"Pouzzoles","name_it":"Pozzuoli","name_ru":"Pozzuoli","elevation":28.0,"timezone":"Europe/Rome","admin1_name":"Campania"},{"name":"Giugliano in Campania","lat":40.92849,"lon":14.20197,"population":80269,"iso_a3":"ITA","country":"Italy","is_capital":false,"name_en":"Giugliano in Campania","name_es":"Giugliano in Campania","name_fr":"Giugliano in Campania","name_it":"Giugliano in Campania","name_ru":"Giugliano in Campania","elevation":103.0,"timezone":"Europe/Rome","admin1_name":"Campania"},{"name":"Catanzaro","lat":38.88247,"lon":16.60086,"population":78970,"iso_a3":"ITA","country":"Italy","is_capital":false,"name_en":"Catanzaro","name_es":"Catanzaro","name_fr":"Catanzaro","name_it":"Catanzaro","name_ru":"Катандзаро","elevation":103.0,"timezone":"Europe/Rome","admin1_name":"Calabria"},{"name":"Fuorigrotta","lat":40.83333,"lon":14.2,"population":76521,"iso_a3":"ITA","country":"Italy","is_capital":false,"name_en":"Fuorigrotta","name_es":"Fuorigrotta","name_fr":"Fuorigrotta","name_it":"Fuorigrotta","name_ru":"Fuorigrotta","elevation":53.0,"timezone":"Europe/Rome","admin1_name":"Campania"},{"name":"Casoria","lat":40.90751,"lon":14.293,"population":73918,"iso_a3":"ITA","country":"Italy","is_capital":false,"name_en":"Casoria","name_es":"Casoria","name_fr":"Casoria","name_it":"Casoria","name_ru":"Casoria","elevation":70.0,"timezone":"Europe/Rome","admin1_name":"Campania"},{"name":"Altamura","lat":40.82664,"lon":16.54952,"population":70539,"iso_a3":"ITA","country":"Italy","is_capital":false,"name_en":"Altamura","name_es":"Altamura","name_fr":"Altamura","name_it":"Altamura","name_ru":"Алтамура","elevation":475.0,"timezone":"Europe/Rome","admin1_name":"Apulia"},{"name":"Lamezia Terme","lat":38.96255,"lon":16.30938,"population":70501,"iso_a3":"ITA","country":"Italy","is_capital":false,"name_en":"Lamezia Terme","name_es":"Lamezia Terme","name_fr":"Lamezia Terme","name_it":"Lamezia Terme","name_ru":"Lamezia Terme","elevation":165.0,"timezone":"Europe/Rome","admin1_name":"Calabria"},{"name":"Castellammare di Stabia","lat":40.70211,"lon":14.48685,"population":66164,"iso_a3":"ITA","country":"Italy","is_capital":false,"name_en":"Castellammare di Stabia","name_es":"Castellammare di Stabia","name_fr":"Castellammare di Stabia","name_it":"Castellammare di Stabia","name_ru":"Castellammare di Stabia","elevation":19.0,"timezone":"Europe/Rome","admin1_name":"Campania"},{"name":"Cosenza","lat":39.2989,"lon":16.25307,"population":63852,"iso_a3":"ITA","country":"Italy","is_capital":false,"name_en":"Cosenza","name_es":"Cosenza","name_fr":"Cosenza","name_it":"Cosenza","name_ru":"Козенца","elevation":245.0,"timezone":"Europe/Rome","admin1_name":"Calabria"},{"name":"Matera","lat":40.66599,"lon":16.60463,"population":60403,"iso_a3":"ITA","country":"Italy","is_capital":false,"name_en":"Matera","name_es":"Matera","name_fr":"Matera","name_it":"Matera","name_ru":"Матера","elevation":399.0,"timezone":"Europe/Rome","admin1_name":"Basilicate"},{"name":"Acerra","lat":40.94477,"lon":14.3714,"population":59910,"iso_a3":"ITA","country":"Italy","is_capital":false,"name_en":"Acerra","name_es":"Acerra","name_fr":"Acerra","name_it":"Acerra","name_ru":"Acerra","elevation":30.0,"timezone":"Europe/Rome","admin1_name":"Campania"},{"name":"Potenza","lat":40.64175,"lon":15.80794,"population":56433,"iso_a3":"ITA","country":"Italy","is_capital":false,"name_en":"Potenza","name_es":"Potenza","name_fr":"Potenza","name_it":"Potenza","name_ru":"Potenza","elevation":760.0,"timezone":"Europe/Rome","admin1_name":"Basilicate"},{"name":"Cava Dè Tirreni","lat":40.69954,"lon":14.70773,"population":53130,"iso_a3":"ITA","country":"Italy","is_capital":false,"name_en":"Cava de' Tirreni","name_es":"Cava de' Tirreni","name_fr":"Cava de'Tirreni","name_it":"Cava de' Tirreni","name_ru":"Cava de' Tirreni","elevation":212.0,"timezone":"Europe/Rome","admin1_name":"Campania"},{"name":"Scafati","lat":40.7602,"lon":14.53723,"population":48702,"iso_a3":"ITA","country":"Italy","is_capital":false,"name_en":"Scafati","name_es":"Scafati","name_fr":"Scafati","name_it":"Scafati","name_ru":"Scafati","elevation":16.0,"timezone":"Europe/Rome","admin1_name":"Campania"},{"name":"Avellino","lat":40.91494,"lon":14.79103,"population":48104,"iso_a3":"ITA","country":"Italy","is_capital":false,"name_en":"Avellino","name_es":"Avellino","name_fr":"Avellino","name_it":"Avellino","name_ru":"Авеллино","elevation":360.0,"timezone":"Europe/Rome","admin1_name":"Campania"},{"name":"Battipaglia","lat":40.60861,"lon":14.98209,"population":47104,"iso_a3":"ITA","country":"Italy","is_capital":false,"name_en":"Battipaglia","name_es":"Battipaglia","name_fr":"Battipaglia","name_it":"Battipaglia","name_ru":"Battipaglia","elevation":78.0,"timezone":"Europe/Rome","admin1_name":"Campania"},{"name":"Nocera Inferiore","lat":40.7454,"lon":14.64542,"population":45608,"iso_a3":"ITA","country":"Italy","is_capital":false,"name_en":"Nocera Inferiore","name_es":"Nocera Inferiore","name_fr":"Nocera Inferiore","name_it":"Nocera Inferiore","name_ru":"Nocera Inferiore","elevation":49.0,"timezone":"Europe/Rome","admin1_name":"Campania"},{"name":"San Giorgio a Cremano","lat":40.83261,"lon":14.34162,"population":45463,"iso_a3":"ITA","country":"Italy","is_capital":false,"name_en":"San Giorgio a Cremano","name_es":"San Giorgio a Cremano","name_fr":"San Giorgio a Cremano","name_it":"San Giorgio a Cremano","name_ru":"San Giorgio a Cremano","elevation":62.0,"timezone":"Europe/Rome","admin1_name":"Campania"},{"name":"Torre Annunziata","lat":40.75337,"lon":14.45251,"population":43521,"iso_a3":"ITA","country":"Italy","is_capital":false,"name_en":"Torre Annunziata","name_es":"Torre Annunziata","name_fr":"Torre Annunziata","name_it":"Torre Annunziata","name_ru":"Торре-Аннунциата","elevation":15.0,"timezone":"Europe/Rome","admin1_name":"Campania"},{"name":"Gravina in Puglia","lat":40.81748,"lon":16.41915,"population":42210,"iso_a3":"ITA","country":"Italy","is_capital":false,"name_en":"Gravina in Puglia","name_es":"Gravina in Puglia","name_fr":"Gravina in Puglia","name_it":"Gravina in Puglia","name_ru":"Gravina in Puglia","elevation":368.0,"timezone":"Europe/Rome","admin1_name":"Apulia"},{"name":"Quarto","lat":40.87822,"lon":14.14352,"population":37683,"iso_a3":"ITA","country":"Italy","is_capital":false,"name_en":"Quarto","name_es":"Quarto","name_fr":"Quarto","name_it":"Quarto","name_ru":"Кварто","elevation":52.0,"timezone":"Europe/Rome","admin1_name":"Campania"},{"name":"Caivano","lat":40.95753,"lon":14.30591,"population":34604,"iso_a3":"ITA","country":"Italy","is_capital":false,"name_en":"Caivano","name_es":"Caivano","name_fr":"Caivano","name_it":"Caivano","name_ru":"Кайвано","elevation":30.0,"timezone":"Europe/Rome","admin1_name":"Campania"},{"name":"Somma Vesuviana","lat":40.87329,"lon":14.43865,"population":32484,"iso_a3":"ITA","country":"Italy","is_capital":false,"name_en":"Somma Vesuviana","name_es":"Somma Vesuviana","name_fr":"Somma Vesuviana","name_it":"Somma Vesuviana","name_ru":"Somma Vesuviana","elevation":155.0,"timezone":"Europe/Rome","admin1_name":"Campania"}]