[{"name":"Bari","lat":41.12066,"lon":16.86982,"population":316491,"iso_a3":"ITA","country":"Italy","is_capital":false,"name_en":"Bari","name_es":"Bari","name_fr":"Bari","name_it":"Bari","name_ru":"Бари","elevation":7.0,"timezone":"Europe/Rome","admin1_name":"Apulia"},{"name":"Foggia","lat":41.45845,"lon":15.55188,"population":137032,"iso_a3":"ITA","country":"Italy","is_capital":false,"name_en":"Foggia","name_es":"Foggia","name_fr":"Foggia","name_it":"Foggia","name_ru":"Фоджа","elevation":72.0,"timezone":"Europe/Rome","admin1_name":"Apulia"},{"name":"Pescara","lat":42.4584,"lon":14.20283,"population":119554,"iso_a3":"ITA","country":"Italy","is_capital":false,"name_en":"Pescara","name_es":"Pescara","name_fr":"Pescara","name_it":"Pescara","name_ru":"Пескара","elevation":5.0,"timezone":"Europe/Rome","admin1_name":"Abruzzo"},{"name":"Andria","lat":41.23117,"lon":16.29797,"population":99784,"iso_a3":"ITA","country":"Italy","is_capital":false,"name_en":"Andria","name_es":"Andria","name_fr":"Andria","name_it":"Andria","name_ru":"Андрия","elevation":157.0,"timezone":"Europe/Rome","admin1_name":"Apulia"},{"name":"Barletta","lat":41.31429,"lon":16.28165,"population":93279,"iso_a3":"ITA","country":"Italy","is_capital":false,"name_en":"Barletta","name_es":"Barletta","name_fr":"Barletta","name_it":"Barletta","name_ru":"Барлетта","elevation":19.0,"timezone":"Europe/Rome","admin1_name":"Apulia"},{"name":"Caserta","lat":41.07262,"lon":14.33231,"population":72844,"iso_a3":"ITA","country":"Italy","is_capital":false,"name_en":"Caserta","name_es":"Caserta","name_fr":"Caserte","name_it":"Caserta","name_ru":"Казерта","elevation":72.0,"timezone":"Europe/Rome","admin1_name":"Campania"},{"name":"Molfetta","lat":41.20036,"lon":16.59905,"population":59557,"iso_a3":"ITA","country":"Italy","is_capital":false,"name_en":"Molfetta","name_es":"Molfetta","name_fr":"Molfetta","name_it":"Molfetta","name_ru":"Мольфетта","elevation":27.0,"timezone":"Europe/Rome","admin1_name":"Apulia"},{"name":"Benevento","lat":41.1307,"lon":14.77816,"population":58418,"iso_a3":"ITA","country":"Italy","is_capital":false,"name_en":"Benevento","name_es":"Benevento","name_fr":"Bénévent","name_it":"Benevento","name_ru":"Беневенто","elevation":154.0,"timezone":"Europe/Rome","admin1_name":"Campania"},{"name":"Manfredonia","lat":41.63065,"lon":15.91876,"population":56932,"iso_a3":"ITA","country":"Italy","is_capital":false,"name_en":"Manfredonia","name_es":"Manfredonia","name_fr":"Manfredonia","name_it":"Manfredonia","name_ru":"Манфредония","elevation":19.0,"timezone":"Europe/Rome","admin1_name":"Apulia"},{"name":"Bisceglie","lat":41.24264,"lon":16.50104,"population":55385,"iso_a3":"ITA","country":"Italy","is_capital":false,"name_en":"Bisceglie","name_es":"Bisceglie","name_fr":"Bisceglie","name_it":"Bisceglie","name_ru":"Бишеллье","elevation":20.0,"timezone":"Europe/Rome","admin1_name":"Apulia"},{"name":"Cerignola","lat":41.26523,"lon":15.89559,"population":54056,"iso_a3":"ITA","country":"Italy","is_capital":false,"name_en":"Cerignola","name_es":"Cerignola","name_fr":"Cerignola","name_it":"Cerignola","name_ru":"Cerignola","elevation":126.0,"timezone":"Europe/Rome","admin1_name":"Apulia"},{"name":"Trani","lat":41.27733,"lon":16.41011,"population":53981,"iso_a3":"ITA","country":"Italy","is_capital":false,"name_en":"Trani","name_es":"Trani","name_fr":"Trani","name_it":"Trani","name_ru":"Трани","elevation":13.0,"timezone":"Europe/Rome","admin1_name":"Apulia"},{"name":"Montesilvano","lat":42.5114,"lon":14.14507,"population":53275,"iso_a3":"ITA","country":"Italy","is_capital":false,"name_en":"Montesilvano","name_es":"Montesilvano","name_fr":"Montesilvano","name_it":"Montesilvano","name_ru":"Montesilvano","elevation":5.0,"timezone":"Europe/Rome","admin1_name":"Abruzzo"},{"name":"San Severo","lat":41.68564,"lon":15.38148,"population":51919,"iso_a3":"ITA","country":"Italy","is_capital":false,"name_en":"San Severo","name_es":"San Severo","name_fr":"San Severo","name_it":"San Severo","name_ru":"San Severo","elevation":92.0,"timezone":"Europe/Rome","admin1_name":"Apulia"},{"name":"Bitonto","lat":41.11006,"lon":16.69086,"population":51661,"iso_a3":"ITA","country":"Italy","is_capital":false,"name_en":"Bitonto","name_es":"Bitonto","name_fr":"Bitonto","name_it":"Bitonto","name_ru":"Bitonto","elevation":117.0,"timezone":"Europe/Rome","admin1_name":"Apulia"},{"name":"Campobasso","lat":41.55947,"lon":14.66737,"population":49230,"iso_a3":"ITA","country":"Italy","is_capital":false,"name_en":"Campobasso","name_es":"Campobasso","name_fr":"Campobasso","name_it":"Campobasso","name_ru":"Кампобассо","elevation":675.0,"timezone":"Europe/Rome","admin1_name":"Molise"},{"name":"Corato","lat":41.15171,"lon":16.41143,"population":46505,"iso_a3":"ITA","country":"Italy","is_capital":false,"name_en":"Corato","name_es":"Corato","name_fr":"Corato","name_it":"Corato","name_ru":"Корато","elevation":236.0,"timezone":"Europe/Rome","admin1_name":"Apulia"},{"name":"Chieti","lat":42.34827,"lon":14.16494,"population":44444,"iso_a3":"ITA","country":"Italy","is_capital":false,"name_en":"Chieti","name_es":"Chieti","name_fr":"Chieti","name_it":"Chieti","name_ru":"Кьети","elevation":344.0,"timezone":"Europe/Rome","admin1_name":"Abruzzo"},{"name":"Vasto","lat":42.1115,"lon":14.70649,"population":41409,"iso_a3":"ITA","country":"Italy","is_capital":false,"name_en":"Vasto","name_es":"Vasto","name_fr":"Vasto","name_it":"Vasto","name_ru":"Васто","elevation":149.0,"timezone":"Europe/Rome","admin1_name":"Abruzzo"},{"name":"Marcianise","lat":41.03064,"lon":14.29868,"population":40239,"iso_a3":"ITA","country":"Italy","is_capital":false,"name_en":"Marcianise","name_es":"Marcianise","name_fr":"Marcianise","name_it":"Marcianise","name_ru":"Марчанизе","elevation":31.0,"timezone":"Europe/Rome","admin1_name":"Campania"},{"name":"Modugno","lat":41.08433,"lon":16.78342,"population":36384,"iso_a3":"ITA","country":"Italy","is_capital":false,"name_en":"Modugno","name_es":"Modugno","name_fr":"Modugno","name_it":"Modugno","name_ru":"Модуньо","elevation":79.0,"timezone":"Europe/Rome","admin1_name":"Apulia"},{"name":"Lanciano","lat":42.22718,"lon":14.39024,"population":34791,"iso_a3":"ITA","country":"Italy","is_capital":false,"name_en":"Lanciano","name_es":"Lanciano","name_fr":"Lanciano","name_it":"Lanciano","name_ru":"Ланчано","elevation":281.0,"timezone":"Europe/Rome","admin1_name":"Abruzzo"},{"name":"Maddaloni","lat":41.03578,"lon":14.3823,"population":34546,"iso_a3":"ITA","country":"Italy","is_capital":false,"name_en":"Maddaloni","name_es":"Maddaloni","name_fr":"Maddaloni","name_it":"Maddaloni","name_ru":"Маддалони","elevation":59.0,"timezone":"Europe/Rome","admin1_name":"Campania"},{"name":"Lucera","lat":41.5055,"lon":15.3391,"population":32222,"iso_a3":"ITA","country":"Italy","is_capital":false,"name_en":"Lucera","name_es":"Lucera","name_fr":"Lucera","name_it":"Lucera","name_ru":"Лучера","elevation":217.0,"timezone":"Europe/Rome","admin1_name":"Apulia"},{"name":"Santa Maria Capua Vetere","lat":41.08156,"lon":14.25342,"population":31743,"iso_a3":"ITA","country":"Italy","is_capital":false,"name_en":"Santa Maria Capua Vetere","name_es":"Santa Maria Capua Vetere","name_fr":"Santa Maria Capua Vetere","name_it":"Santa Maria Capua Vetere","name_ru":"Санта-Мария-Капуа-Ветере","elevation":42.0,"timezone":"Europe/Rome","admin1_name":"Campania"},{"name":"Termoli","lat":41.99994,"lon":14.99389,"population":31044,"iso_a3":"ITA","country":"Italy","is_capital":false,"name_en":"Termoli","name_es":"Termoli","name_fr":"Termoli","name_it":"Termoli","name_ru":"Термоли","elevation":30.0,"timezone":"Europe/Rome","admin1_name":"Molise"}]