[{"name":"Maroua","lat":10.59095,"lon":14.31593,"population":314122,"iso_a3":"CMR","country":"Cameroon","is_capital":false,"name_en":"Maroua","name_es":"Maroua","name_fr":"Maroua","name_it":"Maroua","name_ru":"Маруа","elevation":406.0,"timezone":"Africa/Douala","admin1_name":"Far North"},{"name":"Mora","lat":11.04611,"lon":14.14011,"population":61523,"iso_a3":"CMR","country":"Cameroon","is_capital":false,"name_en":"Mora","name_es":"Mora","name_fr":"Mora","name_it":"Mora","name_ru":"Море","elevation":460.0,"timezone":"Africa/Douala","admin1_name":"Far North"},{"name":"Yagoua","lat":10.34107,"lon":15.23288,"population":59069,"iso_a3":"CMR","country":"Cameroon","is_capital":false,"name_en":"Yagoua","name_es":"Yagoua","name_fr":"Yagoua","name_it":"Yagoua","name_ru":"Yagoua","elevation":336.0,"timezone":"Africa/Douala","admin1_name":"Far North"},{"name":"Kaélé","lat":10.10917,"lon":14.45083,"population":32853,"iso_a3":"CMR","country":"Cameroon","is_capital":false,"name_en":"Kaélé","name_es":"Kaélé","name_fr":"Kaélé","name_it":"Kaélé","name_ru":"Kaélé","elevation":373.0,"timezone":"Africa/Douala","admin1_name":"Far North"},{"name":"Bogo","lat":10.7336,"lon":14.60928,"population":32830,"iso_a3":"CMR","country":"Cameroon","is_capital":false,"name_en":"Bogo","name_es":"Bogo","name_fr":"Bogo","name_it":"Bogo","name_ru":"Bogo","elevation":343.0,"timezone":"Africa/Douala","admin1_name":"Far North"},{"name":"Moundou","lat":8.57437,"lon":16.07722,"population":196124,"iso_a3":"TCD","country":"Chad","is_capital":false,"name_en":"Moundou","name_es":"Moundou","name_fr":"Moundou","name_it":"Moundou","name_ru":"Мунду","elevation":402.0,"timezone":"Africa/Ndjamena","admin1_name":"Logone Occidental"},{"name":"Kelo","lat":9.30859,"lon":15.80658,"population":82677,"iso_a3":"TCD","country":"Chad","is_capital":false,"name_en":"Kelo","name_es":"Kelo","name_fr":"Kelo","name_it":"Kelo","name_ru":"Кел","elevation":375.0,"timezone":"Africa/Ndjamena","admin1_name":"Tandjilé"},{"name":"Doba","lat":8.66389,"lon":16.85324,"population":70942,"iso_a3":"TCD","country":"Chad","is_capital":false,"name_en":"Doba","name_es":"Doba","name_fr":"Doba","name_it":"Doba","name_ru":"Доба","elevation":391.0,"timezone":"Africa/Ndjamena","admin1_name":"Logone Oriental"},{"name":"Pala","lat":9.3646,"lon":14.90725,"population":70677,"iso_a3":"TCD","country":"Chad","is_capital":false,"name_en":"Pala","name_es":"Pala","name_fr":"Pala","name_it":"Pala","name_ru":"Пала","elevation":441.0,"timezone":"Africa/Ndjamena","admin1_name":"Mayo-Kebbi Ouest"},{"name":"Bongor","lat":10.28088,"lon":15.37425,"population":63699,"iso_a3":"TCD","country":"Chad","is_capital":false,"name_en":"Bongor","name_es":"Bongor","name_fr":"Bongor","name_it":"Bongor","name_ru":"Бонгор","elevation":332.0,"timezone":"Africa/Ndjamena","admin1_name":"Mayo-Kebbi Est"},{"name":"Déressia","lat":9.7602,"lon":16.2698,"population":50113,"iso_a3":"TCD","country":"Chad","is_capital":false,"name_en":"Déressia","name_es":"Déressia","name_fr":"Déressia","name_it":"Déressia","name_ru":"Déressia","elevation":346.0,"timezone":"Africa/Ndjamena","admin1_name":"Tandjilé"},{"name":"Bébédja","lat":8.6761,"lon":16.566,"population":40289,"iso_a3":"TCD","country":"Chad","is_capital":false,"name_en":"Bébédja","name_es":"Bébédja","name_fr":"Bebiya","name_it":"Bébédja","name_ru":"Bébédja","elevation":395.0,"timezone":"Africa/Ndjamena","admin1_name":"Logone Oriental"},{"name":"Léré","lat":9.6447,"lon":14.2151,"population":32721,"iso_a3":"TCD","country":"Chad","is_capital":false,"name_en":"Léré","name_es":"Léré","name_fr":"Léré","name_it":"Léré","name_ru":"Léré","elevation":231.0,"timezone":"Africa/Ndjamena","admin1_name":"Mayo-Kebbi Ouest"},{"name":"Fianga","lat":9.9146,"lon":15.1399,"population":31668,"iso_a3":"TCD","country":"Chad","is_capital":false,"name_en":"Fianga","name_es":"Fianga","name_fr":"Fianga","name_it":"Fianga","name_ru":"Фианга","elevation":350.0,"timezone":"Africa/Ndjamena","admin1_name":"Mayo-Kebbi Est"},{"name":"Goré","lat":8.65,"lon":16.51667,"population":30936,"iso_a3":"TCD","country":"Chad","is_capital":false,"name_en":"Goré","name_es":"Goré","name_fr":"Goré","name_it":"Goré","name_ru":"Goré","elevation":396.0,"timezone":"Africa/Ndjamena","admin1_name":"Logone Oriental"}]