[{"name":"Uíge","lat":-7.60874,"lon":15.06131,"population":322531,"iso_a3":"AGO","country":"Angola","is_capital":false,"name_en":"Uíge","name_es":"Uíge","name_fr":"Uíge","name_it":"Uíge","name_ru":"Уиже","elevation":825.0,"timezone":"Africa/Luanda","admin1_name":"Uíge"},{"name":"Mbanza Kongo","lat":-6.26667,"lon":14.23833,"population":148000,"iso_a3":"AGO","country":"Angola","is_capital":false,"name_en":"Mbanza Kongo","name_es":"Mbanza Kongo","name_fr":"Mbanza Kongo","name_it":"Mbanza Kongo","name_ru":"Mbanza Kongo","elevation":531.0,"timezone":"Africa/Luanda","admin1_name":"Zaire"},{"name":"Negage","lat":-7.75938,"lon":15.2722,"population":92950,"iso_a3":"AGO","country":"Angola","is_capital":false,"name_en":"Negage","name_es":"Negage","name_fr":"Negage","name_it":"Negage","name_ru":"Негаге","elevation":1240.0,"timezone":"Africa/Luanda","admin1_name":"Uíge"},{"name":"Nzagi","lat":-8.38549,"lon":15.30126,"population":60000,"iso_a3":"AGO","country":"Angola","is_capital":false,"name_en":"Nzagi","name_es":"Nzagi","name_fr":"Nzagi","name_it":"Nzagi","name_ru":"Nzagi","elevation":906.0,"timezone":"Africa/Luanda","admin1_name":"Cuanza Norte"},{"name":"Maquela do Zombo","lat":-6.05716,"lon":15.10971,"population":42000,"iso_a3":"AGO","country":"Angola","is_capital":false,"name_en":"Maquela do Zombo","name_es":"Maquela do Zombo","name_fr":"Maquela do Zombo","name_it":"Maquela do Zombo","name_ru":"Maquela do Zombo","elevation":904.0,"timezone":"Africa/Luanda","admin1_name":"Uíge"},{"name":"Cuímba","lat":-6.12085,"lon":14.62086,"population":41878,"iso_a3":"AGO","country":"Angola","is_capital":false,"name_en":"Cuímba","name_es":"Cuímba","name_fr":"Cuímba","name_it":"Cuímba","name_ru":"Куимба","elevation":536.0,"timezone":"Africa/Luanda","admin1_name":"Zaire"},{"name":"Songo","lat":-7.35207,"lon":14.84629,"population":31382,"iso_a3":"AGO","country":"Angola","is_capital":false,"name_en":"Songo","name_es":"Songo","name_fr":"Songo","name_it":"Songo","name_ru":"Songo","elevation":721.0,"timezone":"Africa/Luanda","admin1_name":"Uíge"}]