[{"name":"Bouar","lat":5.93404,"lon":15.59599,"population":71680,"iso_a3":"CAF","country":"Central African Republic","is_capital":false,"name_en":"Bouar","name_es":"Bouar","name_fr":"Bouar","name_it":"Bouar","name_ru":"Буаре","elevation":976.0,"timezone":"Africa/Bangui","admin1_name":"Nana-Mambéré"},{"name":"Paoua","lat":7.24269,"lon":16.44059,"population":47703,"iso_a3":"CAF","country":"Central African Republic","is_capital":false,"name_en":"Paoua","name_es":"Paoua","name_fr":"Paoua","name_it":"Paoua","name_ru":"Paoua","elevation":601.0,"timezone":"Africa/Bangui","admin1_name":"Lim-Pendé"},{"name":"Bocaranga","lat":6.98533,"lon":15.64062,"population":36418,"iso_a3":"CAF","country":"Central African Republic","is_capital":false,"name_en":"Bocaranga","name_es":"Bocaranga","name_fr":"Bocaranga","name_it":"Bocaranga","name_ru":"Бокаранга","elevation":1078.0,"timezone":"Africa/Bangui","admin1_name":"Ouham-Pendé"},{"name":"Baboua","lat":5.79565,"lon":14.82799,"population":33739,"iso_a3":"CAF","country":"Central African Republic","is_capital":false,"name_en":"Baboua","name_es":"Baboua","name_fr":"Baboua","name_it":"Baboua","name_ru":"Baboua","elevation":968.0,"timezone":"Africa/Bangui","admin1_name":"Nana-Mambéré"},{"name":"Meïganga","lat":6.51667,"lon":14.3,"population":59426,"iso_a3":"CMR","country":"Cameroon","is_capital":false,"name_en":"Meïganga","name_es":"Meïganga","name_fr":"Meïganga","name_it":"Meïganga","name_ru":"Мейганге","elevation":970.0,"timezone":"Africa/Douala","admin1_name":"Adamaoua"},{"name":"Garoua Boulaï","lat":5.88333,"lon":14.55,"population":46615,"iso_a3":"CMR","country":"Cameroon","is_capital":false,"name_en":"Garoua Boulaï","name_es":"Garoua Boulaï","name_fr":"Garoua Boulaï","name_it":"Garoua Boulaï","name_ru":"Garoua Boulaï","elevation":1034.0,"timezone":"Africa/Douala","admin1_name":"East"}]