[{"name":"Uppsala","lat":59.85882,"lon":17.63889,"population":177074,"iso_a3":"SWE","country":"Sweden","is_capital":false,"name_en":"Uppsala","name_es":"Upsala","name_fr":"Uppsala","name_it":"Uppsala","name_ru":"Уппсала","elevation":20.0,"timezone":"Europe/Stockholm","admin1_name":"Uppsala"},{"name":"Sollentuna","lat":59.42804,"lon":17.95093,"population":139606,"iso_a3":"SWE","country":"Sweden","is_capital":false,"name_en":"Sollentuna","name_es":"Sollentuna","name_fr":"Sollentuna","name_it":"Sollentuna","name_ru":"Sollentuna","elevation":25.0,"timezone":"Europe/Stockholm","admin1_name":"Stockholm"},{"name":"Huddinge","lat":59.23705,"lon":17.98192,"population":90182,"iso_a3":"SWE","country":"Sweden","is_capital":false,"name_en":"Huddinge","name_es":"Huddinge","name_fr":"Huddinge","name_it":"Huddinge","name_ru":"Huddinge","elevation":33.0,"timezone":"Europe/Stockholm","admin1_name":"Stockholm"},{"name":"Haninge","lat":59.16775,"lon":18.14478,"population":74968,"iso_a3":"SWE","country":"Sweden","is_capital":false,"name_en":"Haninge","name_es":"Haninge","name_fr":"Haninge","name_it":"Haninge","name_ru":"Haninge","elevation":67.0,"timezone":"Europe/Stockholm","admin1_name":"Stockholm"},{"name":"Södertälje","lat":59.19554,"lon":17.62525,"population":70777,"iso_a3":"SWE","country":"Sweden","is_capital":false,"name_en":"Södertälje","name_es":"Södertälje","name_fr":"Södertälje","name_it":"Södertälje","name_ru":"Сёдертелье","elevation":29.0,"timezone":"Europe/Stockholm","admin1_name":"Stockholm"},{"name":"Solna","lat":59.36004,"lon":18.00086,"population":66909,"iso_a3":"SWE","country":"Sweden","is_capital":false,"name_en":"Solna","name_es":"Solna","name_fr":"Solna","name_it":"Solna","name_ru":"Сольна","elevation":22.0,"timezone":"Europe/Stockholm","admin1_name":"Stockholm"},{"name":"Täby","lat":59.4439,"lon":18.06872,"population":58123,"iso_a3":"SWE","country":"Sweden","is_capital":false,"name_en":"Täby","name_es":"Täby","name_fr":"Täby","name_it":"Täby","name_ru":"Täby","elevation":23.0,"timezone":"Europe/Stockholm","admin1_name":"Stockholm"},{"name":"Lidingö","lat":59.36667,"lon":18.13333,"population":42466,"iso_a3":"SWE","country":"Sweden","is_capital":false,"name_en":"Lidingö","name_es":"Lidingö","name_fr":"Lidingö","name_it":"Lidingö","name_ru":"Lidingö","elevation":30.0,"timezone":"Europe/Stockholm","admin1_name":"Stockholm"},{"name":"Tumba","lat":59.19858,"lon":17.83317,"population":40832,"iso_a3":"SWE","country":"Sweden","is_capital":false,"name_en":"Tumba","name_es":"Tumba","name_fr":"Tumba","name_it":"Tumba","name_ru":"Тумба","elevation":25.0,"timezone":"Europe/Stockholm","admin1_name":"Stockholm"},{"name":"Upplands Väsby","lat":59.51839,"lon":17.91128,"population":36534,"iso_a3":"SWE","country":"Sweden","is_capital":false,"name_en":"Upplands Vasby","name_es":"Upplands Vasby","name_fr":"Upplands Vasby","name_it":"Upplands Vasby","name_ru":"Upplands Vasby","elevation":17.0,"timezone":"Europe/Stockholm","admin1_name":"Stockholm"},{"name":"Åkersberga","lat":59.47944,"lon":18.29967,"population":32659,"iso_a3":"SWE","country":"Sweden","is_capital":false,"name_en":"Åkersberga","name_es":"Åkersberga","name_fr":"Åkersberga","name_it":"Åkersberga","name_ru":"Акерсберга","elevation":9.0,"timezone":"Europe/Stockholm","admin1_name":"Stockholm"},{"name":"Vallentuna","lat":59.53436,"lon":18.07758,"population":31937,"iso_a3":"SWE","country":"Sweden","is_capital":false,"name_en":"Vallentuna","name_es":"Vallentuna","name_fr":"Vallentuna","name_it":"Vallentuna","name_ru":"Vallentuna","elevation":20.0,"timezone":"Europe/Stockholm","admin1_name":"Stockholm"}]