[{"name":"Gdańsk","lat":54.35227,"lon":18.64912,"population":487371,"iso_a3":"POL","country":"Poland","is_capital":false,"name_en":"Gdansk","name_es":"Gdansk","name_fr":"Gdańsk","name_it":"Danzica","name_ru":"Гданьск","elevation":8.0,"timezone":"Europe/Warsaw","admin1_name":"Pomerania"},{"name":"Gdynia","lat":54.51889,"lon":18.53188,"population":257000,"iso_a3":"POL","country":"Poland","is_capital":false,"name_en":"Gdynia","name_es":"Gdynia","name_fr":"Gdynia","name_it":"Gdynia","name_ru":"Гдыня","elevation":14.0,"timezone":"Europe/Warsaw","admin1_name":"Pomerania"},{"name":"Słupsk","lat":54.46405,"lon":17.02872,"population":98608,"iso_a3":"POL","country":"Poland","is_capital":false,"name_en":"Słupsk","name_es":"Słupsk","name_fr":"Słupsk","name_it":"Słupsk","name_ru":"Слупск","elevation":18.0,"timezone":"Europe/Warsaw","admin1_name":"Pomerania"},{"name":"Wejherowo","lat":54.60568,"lon":18.23559,"population":46820,"iso_a3":"POL","country":"Poland","is_capital":false,"name_en":"Wejherowo","name_es":"Wejherowo","name_fr":"Wejherowo","name_it":"Wejherowo","name_ru":"Вейхерово","elevation":27.0,"timezone":"Europe/Warsaw","admin1_name":"Pomerania"},{"name":"Rumia","lat":54.57092,"lon":18.38802,"population":44791,"iso_a3":"POL","country":"Poland","is_capital":false,"name_en":"Rumia","name_es":"Rumia","name_fr":"Rumia","name_it":"Rumia","name_ru":"Румя","elevation":23.0,"timezone":"Europe/Warsaw","admin1_name":"Pomerania"},{"name":"Lębork","lat":54.53921,"lon":17.75012,"population":35161,"iso_a3":"POL","country":"Poland","is_capital":false,"name_en":"Lębork","name_es":"Lębork","name_fr":"Lębork","name_it":"Lębork","name_ru":"Лемборк","elevation":18.0,"timezone":"Europe/Warsaw","admin1_name":"Pomerania"},{"name":"Sopot","lat":54.4418,"lon":18.56003,"population":35049,"iso_a3":"POL","country":"Poland","is_capital":false,"name_en":"Sopot","name_es":"Sopot","name_fr":"Sopot","name_it":"Sopot","name_ru":"Сопот","elevation":20.0,"timezone":"Europe/Warsaw","admin1_name":"Pomerania"}]