[{"name":"Częstochowa","lat":50.79646,"lon":19.12409,"population":248125,"iso_a3":"POL","country":"Poland","is_capital":false,"name_en":"Częstochowa","name_es":"Częstochowa","name_fr":"Częstochowa","name_it":"Częstochowa","name_ru":"Ченстохова","elevation":253.0,"timezone":"Europe/Warsaw","admin1_name":"Silesia"},{"name":"Kalisz","lat":51.76109,"lon":18.09102,"population":108759,"iso_a3":"POL","country":"Poland","is_capital":false,"name_en":"Kalisz","name_es":"Kalisz","name_fr":"Kalisz","name_it":"Kalisz","name_ru":"Калиш","elevation":109.0,"timezone":"Europe/Warsaw","admin1_name":"Greater Poland"},{"name":"Konin","lat":52.22338,"lon":18.25121,"population":81258,"iso_a3":"POL","country":"Poland","is_capital":false,"name_en":"Konin","name_es":"Konin","name_fr":"Konin","name_it":"Konin","name_ru":"Конин","elevation":83.0,"timezone":"Europe/Warsaw","admin1_name":"Greater Poland"},{"name":"Ostrów Wielkopolski","lat":51.65501,"lon":17.80686,"population":72898,"iso_a3":"POL","country":"Poland","is_capital":false,"name_en":"Ostrów Wielkopolski","name_es":"Ostrów Wielkopolski","name_fr":"Ostrów Wielkopolski","name_it":"Ostrów Wielkopolski","name_ru":"Острув-Велькопольски","elevation":130.0,"timezone":"Europe/Warsaw","admin1_name":"Greater Poland"},{"name":"Pabianice","lat":51.66446,"lon":19.35473,"population":70542,"iso_a3":"POL","country":"Poland","is_capital":false,"name_en":"Pabianice","name_es":"Pabianice","name_fr":"Pabianice","name_it":"Pabianice","name_ru":"Пабьянице","elevation":179.0,"timezone":"Europe/Warsaw","admin1_name":"Łódź Voivodeship"},{"name":"Bełchatów","lat":51.36883,"lon":19.35671,"population":62896,"iso_a3":"POL","country":"Poland","is_capital":false,"name_en":"Bełchatów","name_es":"Bełchatów","name_fr":"Bełchatów","name_it":"Bełchatów","name_ru":"Белхатув","elevation":202.0,"timezone":"Europe/Warsaw","admin1_name":"Łódź Voivodeship"},{"name":"Zgierz","lat":51.85561,"lon":19.40623,"population":58036,"iso_a3":"POL","country":"Poland","is_capital":false,"name_en":"Zgierz","name_es":"Zgierz","name_fr":"Zgierz","name_it":"Zgierz","name_ru":"Згеж","elevation":187.0,"timezone":"Europe/Warsaw","admin1_name":"Łódź Voivodeship"},{"name":"Kutno","lat":52.23064,"lon":19.36409,"population":48323,"iso_a3":"POL","country":"Poland","is_capital":false,"name_en":"Kutno","name_es":"Kutno","name_fr":"Kutno","name_it":"Kutno","name_ru":"Кутно","elevation":112.0,"timezone":"Europe/Warsaw","admin1_name":"Łódź Voivodeship"},{"name":"Radomsko","lat":51.06713,"lon":19.44477,"population":44700,"iso_a3":"POL","country":"Poland","is_capital":false,"name_en":"Radomsko","name_es":"Radomsko","name_fr":"Radomsko","name_it":"Radomsko","name_ru":"Радомско","elevation":223.0,"timezone":"Europe/Warsaw","admin1_name":"Łódź Voivodeship"},{"name":"Zduńska Wola","lat":51.59915,"lon":18.93974,"population":44515,"iso_a3":"POL","country":"Poland","is_capital":false,"name_en":"Zduńska Wola","name_es":"Zduńska Wola","name_fr":"Zduńska Wola","name_it":"Zduńska Wola","name_ru":"Здуньская-Воля","elevation":180.0,"timezone":"Europe/Warsaw","admin1_name":"Łódź Voivodeship"},{"name":"Sieradz","lat":51.59584,"lon":18.73023,"population":44436,"iso_a3":"POL","country":"Poland","is_capital":false,"name_en":"Sieradz","name_es":"Sieradz","name_fr":"Sieradz","name_it":"Sieradz","name_ru":"Серадз","elevation":137.0,"timezone":"Europe/Warsaw","admin1_name":"Łódź Voivodeship"},{"name":"Brzeg","lat":50.86079,"lon":17.4674,"population":38259,"iso_a3":"POL","country":"Poland","is_capital":false,"name_en":"Brzeg","name_es":"Brzeg","name_fr":"Brzeg","name_it":"Brzeg","name_ru":"Бжег","elevation":147.0,"timezone":"Europe/Warsaw","admin1_name":"Opole Voivodeship"},{"name":"Oleśnica","lat":51.21338,"lon":17.38986,"population":36956,"iso_a3":"POL","country":"Poland","is_capital":false,"name_en":"Oleśnica","name_es":"Oleśnica","name_fr":"Oleśnica","name_it":"Oleśnica","name_ru":"Олесница","elevation":153.0,"timezone":"Europe/Warsaw","admin1_name":"Lower Silesia"},{"name":"Oława","lat":50.9466,"lon":17.2926,"population":33029,"iso_a3":"POL","country":"Poland","is_capital":false,"name_en":"Oława","name_es":"Oława","name_fr":"Oława","name_it":"Oława","name_ru":"Олава","elevation":129.0,"timezone":"Europe/Warsaw","admin1_name":"Lower Silesia"},{"name":"Śrem","lat":52.08868,"lon":17.01508,"population":30404,"iso_a3":"POL","country":"Poland","is_capital":false,"name_en":"Gmina Śrem","name_es":"Gmina Śrem","name_fr":"Gmina Śrem","name_it":"Gmina Śrem","name_ru":"Срем","elevation":79.0,"timezone":"Europe/Warsaw","admin1_name":"Greater Poland"}]