[{"name":"Bandundu Province","lat":-3.31687,"lon":17.38063,"population":202904,"iso_a3":"COD","country":"DR Congo","is_capital":false,"name_en":"Bandundu Province","name_es":"Bandundu Province","name_fr":"Bandundu","name_it":"Provincia di Bandundu","name_ru":"Бандунду","elevation":322.0,"timezone":"Africa/Kinshasa","admin1_name":"Kwilu"},{"name":"Idiofa","lat":-4.96589,"lon":19.59151,"population":87882,"iso_a3":"COD","country":"DR Congo","is_capital":false,"name_en":"Idiofa","name_es":"Idiofa","name_fr":"Idiofa","name_it":"Idiofa","name_ru":"Idiofa","elevation":681.0,"timezone":"Africa/Kinshasa","admin1_name":"Kwilu"},{"name":"Bulungu","lat":-4.54437,"lon":18.60364,"population":81393,"iso_a3":"COD","country":"DR Congo","is_capital":false,"name_en":"Bulungu","name_es":"Bulungu","name_fr":"Bulungu","name_it":"Bulungu","name_ru":"Bulungu","elevation":400.0,"timezone":"Africa/Kinshasa","admin1_name":"Kwilu"},{"name":"Mangai","lat":-4.02328,"lon":19.53385,"population":63713,"iso_a3":"COD","country":"DR Congo","is_capital":false,"name_en":"Mangai","name_es":"Mangai","name_fr":"Mangai","name_it":"Mangai","name_ru":"Mangai","elevation":342.0,"timezone":"Africa/Kinshasa","admin1_name":"Kwilu"},{"name":"Mushie","lat":-3.01728,"lon":16.92238,"population":61336,"iso_a3":"COD","country":"DR Congo","is_capital":false,"name_en":"Mushie","name_es":"Mushie","name_fr":"Mushie","name_it":"Mushie","name_ru":"Mushie","elevation":325.0,"timezone":"Africa/Kinshasa","admin1_name":"Mai-Ndombe"},{"name":"Masi-Manimba","lat":-4.77549,"lon":17.89095,"population":45775,"iso_a3":"COD","country":"DR Congo","is_capital":false,"name_en":"Masi-Manimba","name_es":"Masi-Manimba","name_fr":"Masi-Manimba","name_it":"Masi-Manimba","name_ru":"Masi-Manimba","elevation":487.0,"timezone":"Africa/Kinshasa","admin1_name":"Kwilu"},{"name":"Dungu","lat":-3.62437,"lon":18.84943,"population":41076,"iso_a3":"COD","country":"DR Congo","is_capital":false,"name_en":"Dungu","name_es":"Dungu","name_fr":"Dungu","name_it":"Dungu","name_ru":"Dungu","elevation":331.0,"timezone":"Africa/Kinshasa","admin1_name":"Mai-Ndombe"}]