[{"name":"Klaipėda","lat":55.7068,"lon":21.13912,"population":172292,"iso_a3":"LTU","country":"Lithuania","is_capital":false,"name_en":"Klaipėda","name_es":"Klaipėda","name_fr":"Klaipėda","name_it":"Klaipėda","name_ru":"Клайпеда","elevation":6.0,"timezone":"Europe/Vilnius","admin1_name":"Klaipėda County"},{"name":"Kaliningrad","lat":54.70639,"lon":20.51102,"population":475056,"iso_a3":"RUS","country":"Russia","is_capital":false,"name_en":"Kaliningrad","name_es":"Kaliningrado","name_fr":"Kaliningrad","name_it":"Kaliningrad","name_ru":"Калининград","elevation":2.0,"timezone":"Europe/Kaliningrad","admin1_name":"Kaliningrad Oblast"},{"name":"Chernyakhovsk","lat":54.63345,"lon":21.81557,"population":45187,"iso_a3":"RUS","country":"Russia","is_capital":false,"name_en":"Chernyakhovsk","name_es":"Chernyakhovsk","name_fr":"Chernyakhovsk","name_it":"Černjachovsk","name_ru":"Черняховск","elevation":38.0,"timezone":"Europe/Kaliningrad","admin1_name":"Kaliningrad Oblast"},{"name":"Sovetsk","lat":55.08392,"lon":21.87851,"population":43309,"iso_a3":"RUS","country":"Russia","is_capital":false,"name_en":"Sovetsk","name_es":"Sovetsk","name_fr":"Sovetsk","name_it":"Sovetsk","name_ru":"Советск","elevation":13.0,"timezone":"Europe/Kaliningrad","admin1_name":"Kaliningrad Oblast"},{"name":"Baltiysk","lat":54.65455,"lon":19.90929,"population":34540,"iso_a3":"RUS","country":"Russia","is_capital":false,"name_en":"Baltiysk","name_es":"Baltiysk","name_fr":"Baltiysk","name_it":"Baltiysk","name_ru":"Балтийск","elevation":16.0,"timezone":"Europe/Kaliningrad","admin1_name":"Kaliningrad Oblast"}]