[{"name":"Niš","lat":43.32472,"lon":21.90333,"population":250000,"iso_a3":"SRB","country":"Serbia","is_capital":false,"name_en":"Niš","name_es":"Niš","name_fr":"Niš","name_it":"Niš","name_ru":"Ниш","elevation":194.0,"timezone":"Europe/Belgrade","admin1_name":"Central Serbia"},{"name":"Zemun","lat":44.8458,"lon":20.40116,"population":155591,"iso_a3":"SRB","country":"Serbia","is_capital":false,"name_en":"Zemun","name_es":"Zemun","name_fr":"Zemun","name_it":"Zemun","name_ru":"Земун","elevation":100.0,"timezone":"Europe/Belgrade","admin1_name":"Central Serbia"},{"name":"Kragujevac","lat":44.01667,"lon":20.91667,"population":147473,"iso_a3":"SRB","country":"Serbia","is_capital":false,"name_en":"Kragujevac","name_es":"Kragujevac","name_fr":"Kragujevac","name_it":"Kragujevac","name_ru":"Крагуевац","elevation":182.0,"timezone":"Europe/Belgrade","admin1_name":"Central Serbia"},{"name":"Čačak","lat":43.89139,"lon":20.34972,"population":117072,"iso_a3":"SRB","country":"Serbia","is_capital":false,"name_en":"Čačak","name_es":"Čačak","name_fr":"Čačak","name_it":"Čačak","name_ru":"Чачак","elevation":241.0,"timezone":"Europe/Belgrade","admin1_name":"Central Serbia"},{"name":"Novi Pazar","lat":43.13667,"lon":20.51222,"population":85996,"iso_a3":"SRB","country":"Serbia","is_capital":false,"name_en":"Novi Pazar","name_es":"Novi Pazar","name_fr":"Novi Pazar","name_it":"Novi Pazar","name_ru":"Нови-Пазар","elevation":511.0,"timezone":"Europe/Belgrade","admin1_name":"Central Serbia"},{"name":"Kraljevo","lat":43.72583,"lon":20.68944,"population":82846,"iso_a3":"SRB","country":"Serbia","is_capital":false,"name_en":"Kraljevo","name_es":"Kraljevo","name_fr":"Kraljevo","name_it":"Kraljevo","name_ru":"Кралево","elevation":207.0,"timezone":"Europe/Belgrade","admin1_name":"Central Serbia"},{"name":"Pančevo","lat":44.87177,"lon":20.64167,"population":76654,"iso_a3":"SRB","country":"Serbia","is_capital":false,"name_en":"Pančevo","name_es":"Pančevo","name_fr":"Pančevo","name_it":"Pančevo","name_ru":"Панчево","elevation":83.0,"timezone":"Europe/Belgrade","admin1_name":"Vojvodina"},{"name":"Kruševac","lat":43.58,"lon":21.33389,"population":75256,"iso_a3":"SRB","country":"Serbia","is_capital":false,"name_en":"Kruševac","name_es":"Kruševac","name_fr":"Kruševac","name_it":"Kruševac","name_ru":"Крушевац","elevation":162.0,"timezone":"Europe/Belgrade","admin1_name":"Central Serbia"},{"name":"Užice","lat":43.85861,"lon":19.84878,"population":63577,"iso_a3":"SRB","country":"Serbia","is_capital":false,"name_en":"Užice","name_es":"Užice","name_fr":"Užice","name_it":"Užice","name_ru":"Ужице","elevation":438.0,"timezone":"Europe/Belgrade","admin1_name":"Central Serbia"},{"name":"Smederevo","lat":44.66436,"lon":20.92763,"population":62000,"iso_a3":"SRB","country":"Serbia","is_capital":false,"name_en":"Smederevo","name_es":"Smederevo","name_fr":"Smederevo","name_it":"Smederevo","name_ru":"Смедерево","elevation":80.0,"timezone":"Europe/Belgrade","admin1_name":"Central Serbia"},{"name":"Valjevo","lat":44.27513,"lon":19.89821,"population":61035,"iso_a3":"SRB","country":"Serbia","is_capital":false,"name_en":"Valjevo","name_es":"Valjevo","name_fr":"Valjevo","name_it":"Valjevo","name_ru":"Валево","elevation":180.0,"timezone":"Europe/Belgrade","admin1_name":"Central Serbia"},{"name":"Šabac","lat":44.74667,"lon":19.69,"population":55114,"iso_a3":"SRB","country":"Serbia","is_capital":false,"name_en":"Šabac","name_es":"Šabac","name_fr":"Šabac","name_it":"Šabac","name_ru":"Шабац","elevation":79.0,"timezone":"Europe/Belgrade","admin1_name":"Central Serbia"},{"name":"Zaječar","lat":43.90358,"lon":22.26405,"population":49800,"iso_a3":"SRB","country":"Serbia","is_capital":false,"name_en":"Zaječar","name_es":"Zaječar","name_fr":"Zaječar","name_it":"Zaječar","name_ru":"Заечар","elevation":130.0,"timezone":"Europe/Belgrade","admin1_name":"Central Serbia"},{"name":"Trstenik","lat":43.61694,"lon":21.0025,"population":49043,"iso_a3":"SRB","country":"Serbia","is_capital":false,"name_en":"Trstenik","name_es":"Trstenik","name_fr":"Trstenik","name_it":"Trstenik","name_ru":"Трстеник","elevation":170.0,"timezone":"Europe/Belgrade","admin1_name":"Central Serbia"},{"name":"Požarevac","lat":44.62133,"lon":21.18782,"population":41736,"iso_a3":"SRB","country":"Serbia","is_capital":false,"name_en":"Požarevac","name_es":"Požarevac","name_fr":"Požarevac","name_it":"Požarevac","name_ru":"Пожаревац","elevation":80.0,"timezone":"Europe/Belgrade","admin1_name":"Central Serbia"},{"name":"Bor","lat":44.07488,"lon":22.09591,"population":39387,"iso_a3":"SRB","country":"Serbia","is_capital":false,"name_en":"Bor","name_es":"Bor","name_fr":"Bor","name_it":"Bor","name_ru":"Бор","elevation":405.0,"timezone":"Europe/Belgrade","admin1_name":"Central Serbia"},{"name":"Jagodina","lat":43.97713,"lon":21.26121,"population":35589,"iso_a3":"SRB","country":"Serbia","is_capital":false,"name_en":"Jagodina","name_es":"Jagodina","name_fr":"Jagodina","name_it":"Jagodina","name_ru":"Ягодина","elevation":120.0,"timezone":"Europe/Belgrade","admin1_name":"Central Serbia"},{"name":"Ruma","lat":45.00806,"lon":19.82222,"population":32229,"iso_a3":"SRB","country":"Serbia","is_capital":false,"name_en":"Ruma","name_es":"Ruma","name_fr":"Ruma","name_it":"Ruma","name_ru":"Рума","elevation":114.0,"timezone":"Europe/Belgrade","admin1_name":"Vojvodina"}]