[{"name":"Kouango","lat":4.99337,"lon":19.96186,"population":36575,"iso_a3":"CAF","country":"Central African Republic","is_capital":false,"name_en":"Kouango","name_es":"Kouango","name_fr":"Kouango","name_it":"Kouango","name_ru":"Kouango","elevation":363.0,"timezone":"Africa/Bangui","admin1_name":"Ouaka"},{"name":"Alindao","lat":5.02667,"lon":21.20876,"population":32588,"iso_a3":"CAF","country":"Central African Republic","is_capital":false,"name_en":"Alindao","name_es":"Alindao","name_fr":"Alindao","name_it":"Alindao","name_ru":"Alindao","elevation":441.0,"timezone":"Africa/Bangui","admin1_name":"Basse-Kotto"},{"name":"Gemena","lat":3.25651,"lon":19.77234,"population":197159,"iso_a3":"COD","country":"DR Congo","is_capital":false,"name_en":"Gemena","name_es":"Gemena","name_fr":"Gemena","name_it":"Gemena","name_ru":"Гемене","elevation":420.0,"timezone":"Africa/Kinshasa","admin1_name":"Sud-Ubangi"},{"name":"Gbadolite","lat":4.279,"lon":21.00284,"population":73835,"iso_a3":"COD","country":"DR Congo","is_capital":false,"name_en":"Gbadolite","name_es":"Gbadolite","name_fr":"Gbadolite","name_it":"Gbadolite","name_ru":"Гбадолите","elevation":416.0,"timezone":"Africa/Kinshasa","admin1_name":"Nord-Ubangi"},{"name":"Businga","lat":3.33863,"lon":20.88577,"population":48339,"iso_a3":"COD","country":"DR Congo","is_capital":false,"name_en":"Businga","name_es":"Businga","name_fr":"Businga","name_it":"Businga","name_ru":"Businga","elevation":362.0,"timezone":"Africa/Kinshasa","admin1_name":"Nord-Ubangi"}]