[{"name":"Plovdiv","lat":42.15387,"lon":24.75001,"population":329489,"iso_a3":"BGR","country":"Bulgaria","is_capital":false,"name_en":"Plovdiv","name_es":"Plovdiv","name_fr":"Plovdiv","name_it":"Filippopoli","name_ru":"Пловдив","elevation":163.0,"timezone":"Europe/Sofia","admin1_name":"Plovdiv"},{"name":"Pernik","lat":42.59671,"lon":23.03318,"population":82467,"iso_a3":"BGR","country":"Bulgaria","is_capital":false,"name_en":"Pernik","name_es":"Pernik","name_fr":"Pernik","name_it":"Pernik","name_ru":"Перник","elevation":751.0,"timezone":"Europe/Sofia","admin1_name":"Pernik"},{"name":"Blagoevgrad","lat":42.01457,"lon":23.09804,"population":67810,"iso_a3":"BGR","country":"Bulgaria","is_capital":false,"name_en":"Blagoevgrad","name_es":"Blagoevgrad","name_fr":"Blagoevgrad","name_it":"Blagoevgrad","name_ru":"Благоевград","elevation":408.0,"timezone":"Europe/Sofia","admin1_name":"Blagoevgrad"},{"name":"Pazardzhik","lat":42.19934,"lon":24.33318,"population":55220,"iso_a3":"BGR","country":"Bulgaria","is_capital":false,"name_en":"Pazardzhik","name_es":"Pazardzhik","name_fr":"Pazardzhik","name_it":"Pazardzhik","name_ru":"Пазарджик","elevation":213.0,"timezone":"Europe/Sofia","admin1_name":"Pazardzhik"},{"name":"Asenovgrad","lat":42.01667,"lon":24.86667,"population":54778,"iso_a3":"BGR","country":"Bulgaria","is_capital":false,"name_en":"Asenovgrad","name_es":"Asenovgrad","name_fr":"Asenovgrad","name_it":"Asenovgrad","name_ru":"Asenovgrad","elevation":226.0,"timezone":"Europe/Sofia","admin1_name":"Plovdiv"},{"name":"Kyustendil","lat":42.28314,"lon":22.69224,"population":46856,"iso_a3":"BGR","country":"Bulgaria","is_capital":false,"name_en":"Kyustendil","name_es":"Kyustendil","name_fr":"Kyustendil","name_it":"Kyustendil","name_ru":"Kyustendil","elevation":514.0,"timezone":"Europe/Sofia","admin1_name":"Kyustendil"},{"name":"Dupnitsa","lat":42.26478,"lon":23.11723,"population":34764,"iso_a3":"BGR","country":"Bulgaria","is_capital":false,"name_en":"Dupnitsa","name_es":"Dupnitsa","name_fr":"Doupnitsa","name_it":"Dupnitsa","name_ru":"Дупница","elevation":536.0,"timezone":"Europe/Sofia","admin1_name":"Kyustendil"},{"name":"Petrich","lat":41.39846,"lon":23.20702,"population":30722,"iso_a3":"BGR","country":"Bulgaria","is_capital":false,"name_en":"Petrich","name_es":"Petrich","name_fr":"Pétritch","name_it":"Petrich","name_ru":"Петрич","elevation":185.0,"timezone":"Europe/Sofia","admin1_name":"Blagoevgrad"},{"name":"Smolyan","lat":41.57439,"lon":24.71204,"population":30689,"iso_a3":"BGR","country":"Bulgaria","is_capital":false,"name_en":"Smolyan","name_es":"Smolyan","name_fr":"Smolyan","name_it":"Smolyan","name_ru":"Smolyan","elevation":907.0,"timezone":"Europe/Sofia","admin1_name":"Smolyan"},{"name":"Karlovo","lat":42.63333,"lon":24.8,"population":30340,"iso_a3":"BGR","country":"Bulgaria","is_capital":false,"name_en":"Karlovo","name_es":"Karlovo","name_fr":"Karlovo","name_it":"Karlovo","name_ru":"Карлово","elevation":406.0,"timezone":"Europe/Sofia","admin1_name":"Plovdiv"},{"name":"Sérres","lat":41.08499,"lon":23.54757,"population":58287,"iso_a3":"GRC","country":"Greece","is_capital":false,"name_en":"Serres","name_es":"Serres","name_fr":"Serrès","name_it":"Serres","name_ru":"Серре","elevation":41.0,"timezone":"Europe/Athens","admin1_name":"Central Macedonia"},{"name":"Xánthi","lat":41.13488,"lon":24.888,"population":48221,"iso_a3":"GRC","country":"Greece","is_capital":false,"name_en":"Xánthi","name_es":"Xánthi","name_fr":"Xánthi","name_it":"Xánthi","name_ru":"Ксанти","elevation":81.0,"timezone":"Europe/Athens","admin1_name":"East Macedonia and Thrace"},{"name":"Dráma","lat":41.15283,"lon":24.1473,"population":44823,"iso_a3":"GRC","country":"Greece","is_capital":false,"name_en":"Drama","name_es":"Drama","name_fr":"Drama","name_it":"Drama","name_ru":"Drama","elevation":122.0,"timezone":"Europe/Athens","admin1_name":"East Macedonia and Thrace"},{"name":"Strumica","lat":41.43763,"lon":22.64288,"population":33825,"iso_a3":"MKD","country":"North Macedonia","is_capital":false,"name_en":"Strumica","name_es":"Strumica","name_fr":"Strumica","name_it":"Strumica","name_ru":"Strumica","elevation":228.0,"timezone":"Europe/Skopje","admin1_name":"Strumica"}]