[{"name":"Thessaloníki","lat":40.64072,"lon":22.93493,"population":317778,"iso_a3":"GRC","country":"Greece","is_capital":false,"name_en":"Thessaloniki","name_es":"Salónica","name_fr":"Thessalonique","name_it":"Salonicco","name_ru":"Салоники","elevation":-9999.0,"timezone":"Europe/Athens","admin1_name":"Central Macedonia"},{"name":"Kalamariá","lat":40.5825,"lon":22.95028,"population":91518,"iso_a3":"GRC","country":"Greece","is_capital":false,"name_en":"Kalamaria","name_es":"Kalamaria","name_fr":"Kalamaria","name_it":"Kalamaria","name_ru":"Каламария","elevation":39.0,"timezone":"Europe/Athens","admin1_name":"Central Macedonia"},{"name":"Volos","lat":39.36923,"lon":22.94769,"population":86048,"iso_a3":"GRC","country":"Greece","is_capital":false,"name_en":"Volos","name_es":"Volos","name_fr":"Volos","name_it":"Volos","name_ru":"Volos","elevation":52.0,"timezone":"Europe/Athens","admin1_name":"Thessaly"},{"name":"Kavála","lat":40.93959,"lon":24.40687,"population":54027,"iso_a3":"GRC","country":"Greece","is_capital":false,"name_en":"Kavala","name_es":"Kavala","name_fr":"Kavala","name_it":"Kavala","name_ru":"Кавала","elevation":34.0,"timezone":"Europe/Athens","admin1_name":"East Macedonia and Thrace"},{"name":"Kateríni","lat":40.26956,"lon":22.50608,"population":53293,"iso_a3":"GRC","country":"Greece","is_capital":false,"name_en":"Katerini","name_es":"Katerini","name_fr":"Katerini","name_it":"Katerini","name_ru":"Katerini","elevation":40.0,"timezone":"Europe/Athens","admin1_name":"Central Macedonia"}]