[{"name":"Satu Mare","lat":47.79926,"lon":22.86255,"population":112490,"iso_a3":"ROU","country":"Romania","is_capital":false,"name_en":"Satu Mare","name_es":"Satu Mare","name_fr":"Satu Mare","name_it":"Satu Mare","name_ru":"Сату-Маре","elevation":124.0,"timezone":"Europe/Bucharest","admin1_name":"Satu Mare County"},{"name":"Baia Mare","lat":47.65729,"lon":23.56808,"population":108759,"iso_a3":"ROU","country":"Romania","is_capital":false,"name_en":"Baia Mare","name_es":"Baia Mare","name_fr":"Baia Mare","name_it":"Baia Mare","name_ru":"Бая-Маре","elevation":220.0,"timezone":"Europe/Bucharest","admin1_name":"Maramureş"},{"name":"Bistriţa","lat":47.13316,"lon":24.50011,"population":78877,"iso_a3":"ROU","country":"Romania","is_capital":false,"name_en":"Bistriţa","name_es":"Bistriţa","name_fr":"Bistriţa","name_it":"Bistriţa","name_ru":"Bistriţa","elevation":362.0,"timezone":"Europe/Bucharest","admin1_name":"Bistrița-Năsăud County"},{"name":"Zalău","lat":47.2,"lon":23.05,"population":52359,"iso_a3":"ROU","country":"Romania","is_capital":false,"name_en":"Zalău","name_es":"Zalău","name_fr":"Zalău","name_it":"Zalău","name_ru":"Залэу","elevation":261.0,"timezone":"Europe/Bucharest","admin1_name":"Sălaj County"},{"name":"Sighetu Marmaţiei","lat":47.93195,"lon":23.88603,"population":40653,"iso_a3":"ROU","country":"Romania","is_capital":false,"name_en":"Sighetu Marmaţiei","name_es":"Sighetu Marmaţiei","name_fr":"Sighetu Marmaţiei","name_it":"Sighetu Marmaţiei","name_ru":"Sighetu Marmaţiei","elevation":270.0,"timezone":"Europe/Bucharest","admin1_name":"Maramureş"},{"name":"Dej","lat":47.15,"lon":23.86667,"population":38033,"iso_a3":"ROU","country":"Romania","is_capital":false,"name_en":"Dej","name_es":"Dej","name_fr":"Dej","name_it":"Dej","name_ru":"Дей","elevation":231.0,"timezone":"Europe/Bucharest","admin1_name":"Cluj County"},{"name":"Mukachevo","lat":48.44248,"lon":22.718,"population":85569,"iso_a3":"UKR","country":"Ukraine","is_capital":false,"name_en":"Mukachevo","name_es":"Mukachevo","name_fr":"Moukatchévo","name_it":"Mukačeve","name_ru":"Мукачево","elevation":126.0,"timezone":"Europe/Kyiv","admin1_name":"Zakarpattia"},{"name":"Kolomyia","lat":48.52496,"lon":25.03712,"population":60821,"iso_a3":"UKR","country":"Ukraine","is_capital":false,"name_en":"Kolomyia","name_es":"Kolomyia","name_fr":"Kolomyia","name_it":"Kolomyia","name_ru":"Коломыя","elevation":289.0,"timezone":"Europe/Kyiv","admin1_name":"Ivano-Frankivsk"}]