[{"name":"Kabinda","lat":-6.13791,"lon":24.48179,"population":219396,"iso_a3":"COD","country":"DR Congo","is_capital":false,"name_en":"Kabinda","name_es":"Kabinda","name_fr":"Kabinda","name_it":"Kabinda","name_ru":"Кабинда","elevation":884.0,"timezone":"Africa/Lubumbashi","admin1_name":"Lomami"},{"name":"Gandajika","lat":-6.74504,"lon":23.95328,"population":208051,"iso_a3":"COD","country":"DR Congo","is_capital":false,"name_en":"Gandajika","name_es":"Gandajika","name_fr":"Gandajika","name_it":"Gandajika","name_ru":"Gandajika","elevation":802.0,"timezone":"Africa/Lubumbashi","admin1_name":"Lomami"},{"name":"Mwene-Ditu","lat":-7.00906,"lon":23.45278,"population":189177,"iso_a3":"COD","country":"DR Congo","is_capital":false,"name_en":"Mwene-Ditu","name_es":"Mwene-Ditu","name_fr":"Mwene-Ditu","name_it":"Mwene-Ditu","name_ru":"Мвене-Диту","elevation":970.0,"timezone":"Africa/Lubumbashi","admin1_name":"Lomami"},{"name":"Kanyama","lat":-7.51668,"lon":24.17404,"population":80043,"iso_a3":"COD","country":"DR Congo","is_capital":false,"name_en":"Kanyama","name_es":"Kanyama","name_fr":"Kanyama","name_it":"Kanyama","name_ru":"Kanyama","elevation":892.0,"timezone":"Africa/Lubumbashi","admin1_name":"Haut-Lomami"},{"name":"Miabi","lat":-6.22149,"lon":23.39254,"population":79929,"iso_a3":"COD","country":"DR Congo","is_capital":false,"name_en":"Miabi","name_es":"Miabi","name_fr":"Miabi","name_it":"Miabi","name_ru":"Miabi","elevation":782.0,"timezone":"Africa/Lubumbashi","admin1_name":"East Kasai"},{"name":"Luputa","lat":-7.16177,"lon":23.70057,"population":54676,"iso_a3":"COD","country":"DR Congo","is_capital":false,"name_en":"Luputa","name_es":"Luputa","name_fr":"Luputa","name_it":"Luputa","name_ru":"Luputa","elevation":879.0,"timezone":"Africa/Lubumbashi","admin1_name":"Lomami"},{"name":"Kabeya-Kamwanga","lat":-5.9988,"lon":23.25386,"population":44093,"iso_a3":"COD","country":"DR Congo","is_capital":false,"name_en":"Kabeya-Kamwanga","name_es":"Kabeya-Kamwanga","name_fr":"Kabeya-Kamwanga","name_it":"Kabeya-Kamwanga","name_ru":"Kabeya-Kamwanga","elevation":649.0,"timezone":"Africa/Lubumbashi","admin1_name":"East Kasai"}]