[{"name":"Karşıyaka","lat":38.45772,"lon":27.1142,"population":339624,"iso_a3":"TUR","country":"Turkey","is_capital":false,"name_en":"Cordaleo","name_es":"Cordaleo","name_fr":"Cordaleo","name_it":"Cordaleo","name_ru":"Cordaleo","elevation":13.0,"timezone":"Europe/Istanbul","admin1_name":"İzmir Province"},{"name":"Manisa","lat":38.61202,"lon":27.42647,"population":243971,"iso_a3":"TUR","country":"Turkey","is_capital":false,"name_en":"Manisa","name_es":"Manisa","name_fr":"Manisa","name_it":"Manisa","name_ru":"Маниса","elevation":77.0,"timezone":"Europe/Istanbul","admin1_name":"Manisa"},{"name":"Çiğli","lat":38.49645,"lon":27.07029,"population":194525,"iso_a3":"TUR","country":"Turkey","is_capital":false,"name_en":"Çiğli","name_es":"Çiğli","name_fr":"Çiğli","name_it":"Çiğli","name_ru":"Çiğli","elevation":65.0,"timezone":"Europe/Istanbul","admin1_name":"İzmir Province"},{"name":"Aydın","lat":37.84501,"lon":27.83963,"population":163022,"iso_a3":"TUR","country":"Turkey","is_capital":false,"name_en":"Aydin","name_es":"Aydin","name_fr":"Aydin","name_it":"Tralli","name_ru":"Айдын","elevation":67.0,"timezone":"Europe/Istanbul","admin1_name":"Aydın"},{"name":"Turgutlu","lat":38.49533,"lon":27.6997,"population":103292,"iso_a3":"TUR","country":"Turkey","is_capital":false,"name_en":"Turgutlu","name_es":"Turgutlu","name_fr":"Turgutlu","name_it":"Turgutlu","name_ru":"Turgutlu","elevation":98.0,"timezone":"Europe/Istanbul","admin1_name":"Manisa"},{"name":"Söke","lat":37.7482,"lon":27.40614,"population":68230,"iso_a3":"TUR","country":"Turkey","is_capital":false,"name_en":"Söke","name_es":"Söke","name_fr":"Söke","name_it":"Söke","name_ru":"Сок","elevation":42.0,"timezone":"Europe/Istanbul","admin1_name":"Aydın"},{"name":"Ödemiş","lat":38.2278,"lon":27.96955,"population":67153,"iso_a3":"TUR","country":"Turkey","is_capital":false,"name_en":"Ödemiş","name_es":"Ödemiş","name_fr":"Ödemiş","name_it":"Ödemiş","name_ru":"Ödemiş","elevation":129.0,"timezone":"Europe/Istanbul","admin1_name":"İzmir Province"},{"name":"Kuşadası","lat":37.86014,"lon":27.25713,"population":63177,"iso_a3":"TUR","country":"Turkey","is_capital":false,"name_en":"Kusadasi","name_es":"Kusadasi","name_fr":"Kuşadası","name_it":"Kusadasi","name_ru":"Кушадасы","elevation":9.0,"timezone":"Europe/Istanbul","admin1_name":"Aydın"},{"name":"Menemen","lat":38.60754,"lon":27.06938,"population":53489,"iso_a3":"TUR","country":"Turkey","is_capital":false,"name_en":"Menemen","name_es":"Menemen","name_fr":"Menemen","name_it":"Distretto di Menemen","name_ru":"Менемен","elevation":17.0,"timezone":"Europe/Istanbul","admin1_name":"İzmir Province"},{"name":"Torbalı","lat":38.182,"lon":27.335,"population":50303,"iso_a3":"TUR","country":"Turkey","is_capital":false,"name_en":"Torbalı","name_es":"Torbalı","name_fr":"Torbalı","name_it":"Torbalı","name_ru":"Торбалы","elevation":62.0,"timezone":"Europe/Istanbul","admin1_name":"İzmir Province"},{"name":"Tire","lat":38.08877,"lon":27.73508,"population":47220,"iso_a3":"TUR","country":"Turkey","is_capital":false,"name_en":"Tire","name_es":"Tire","name_fr":"Tire","name_it":"Tire","name_ru":"Tire","elevation":120.0,"timezone":"Europe/Istanbul","admin1_name":"İzmir Province"},{"name":"Urla","lat":38.32292,"lon":26.76403,"population":45199,"iso_a3":"TUR","country":"Turkey","is_capital":false,"name_en":"Urla","name_es":"Urla","name_fr":"Urla","name_it":"Urla","name_ru":"Урла","elevation":67.0,"timezone":"Europe/Istanbul","admin1_name":"İzmir Province"},{"name":"Aliağa","lat":38.79975,"lon":26.97203,"population":44883,"iso_a3":"TUR","country":"Turkey","is_capital":false,"name_en":"Aliağa","name_es":"Aliağa","name_fr":"Aliağa","name_it":"Aliağa","name_ru":"Алиага","elevation":24.0,"timezone":"Europe/Istanbul","admin1_name":"İzmir Province"},{"name":"Milas","lat":37.31639,"lon":27.78389,"population":43193,"iso_a3":"TUR","country":"Turkey","is_capital":false,"name_en":"Milas","name_es":"Milas","name_fr":"Milas","name_it":"Milas","name_ru":"Милас","elevation":52.0,"timezone":"Europe/Istanbul","admin1_name":"Muğla"},{"name":"Bodrum","lat":37.03833,"lon":27.42917,"population":39317,"iso_a3":"TUR","country":"Turkey","is_capital":false,"name_en":"Bodrum","name_es":"Bodrum","name_fr":"Bodrum","name_it":"Bodrum","name_ru":"Бодрум","elevation":11.0,"timezone":"Europe/Istanbul","admin1_name":"Muğla"},{"name":"Kemalpaşa","lat":38.42621,"lon":27.41731,"population":30411,"iso_a3":"TUR","country":"Turkey","is_capital":false,"name_en":"Kemalpaşa","name_es":"Kemalpaşa","name_fr":"Kemalpaşa","name_it":"Kemalpaşa","name_ru":"Кемальпаша","elevation":211.0,"timezone":"Europe/Istanbul","admin1_name":"İzmir Province"}]