[{"name":"Bălţi","lat":47.76291,"lon":27.92854,"population":125000,"iso_a3":"MDA","country":"Moldova","is_capital":false,"name_en":"Bălţi","name_es":"Bălţi","name_fr":"Bălţi","name_it":"Bălţi","name_ru":"Бельцы","elevation":110.0,"timezone":"Europe/Chisinau","admin1_name":"Bălţi"},{"name":"Ungheni","lat":47.21023,"lon":27.80013,"population":34422,"iso_a3":"MDA","country":"Moldova","is_capital":false,"name_en":"Ungheni","name_es":"Ungheni","name_fr":"Ungheni","name_it":"Ungheni","name_ru":"Унгень","elevation":66.0,"timezone":"Europe/Chisinau","admin1_name":"Ungheni"},{"name":"Iaşi","lat":47.16667,"lon":27.6,"population":378954,"iso_a3":"ROU","country":"Romania","is_capital":false,"name_en":"Iași","name_es":"Iași","name_fr":"Iași","name_it":"Iași","name_ru":"Яссы","elevation":66.0,"timezone":"Europe/Bucharest","admin1_name":"Iași County"},{"name":"Botoşani","lat":47.75,"lon":26.66667,"population":90010,"iso_a3":"ROU","country":"Romania","is_capital":false,"name_en":"Botoșani","name_es":"Botoşani","name_fr":"Botoşani","name_it":"Botoșani","name_ru":"Ботошани","elevation":159.0,"timezone":"Europe/Bucharest","admin1_name":"Botoșani County"},{"name":"Suceava","lat":47.63333,"lon":26.25,"population":84308,"iso_a3":"ROU","country":"Romania","is_capital":false,"name_en":"Suceava","name_es":"Suceava","name_fr":"Suceava","name_it":"Suceava","name_ru":"Сучава","elevation":360.0,"timezone":"Europe/Bucharest","admin1_name":"Suceava"},{"name":"Paşcani","lat":47.2469,"lon":26.72291,"population":45000,"iso_a3":"ROU","country":"Romania","is_capital":false,"name_en":"Paşcani","name_es":"Paşcani","name_fr":"Paşcani","name_it":"Paşcani","name_ru":"Paşcani","elevation":242.0,"timezone":"Europe/Bucharest","admin1_name":"Iași County"},{"name":"Dorohoi","lat":47.95,"lon":26.4,"population":30776,"iso_a3":"ROU","country":"Romania","is_capital":false,"name_en":"Dorohoi","name_es":"Dorohoi","name_fr":"Dorohoi","name_it":"Dorohoi","name_ru":"Дорохой","elevation":151.0,"timezone":"Europe/Bucharest","admin1_name":"Botoșani County"},{"name":"Chernivtsi","lat":48.29045,"lon":25.93241,"population":265471,"iso_a3":"UKR","country":"Ukraine","is_capital":false,"name_en":"Chernivtsi","name_es":"Chernivtsi","name_fr":"Tchernivtsi","name_it":"Černivci","name_ru":"Черновцы","elevation":260.0,"timezone":"Europe/Kyiv","admin1_name":"Chernivtsi"},{"name":"Kamianets-Podilskyi","lat":48.67882,"lon":26.58516,"population":97908,"iso_a3":"UKR","country":"Ukraine","is_capital":false,"name_en":"Kamianets-Podilskyi","name_es":"Kamianets-Podilskyi","name_fr":"Kamianets-Podilskyï","name_it":"Kamianets-Podilskyi","name_ru":"Каменец-Подольский","elevation":219.0,"timezone":"Europe/Kyiv","admin1_name":"Khmelnytskyi"},{"name":"Mohyliv-Podilskyy","lat":48.44278,"lon":27.79975,"population":30589,"iso_a3":"UKR","country":"Ukraine","is_capital":false,"name_en":"Mohyliv-Podilskyi","name_es":"Mohyliv-Podilskyi","name_fr":"Mohyliv-Podilskyï","name_it":"Mohyliv-Podilskyi","name_ru":"Могилёв-Подольский","elevation":66.0,"timezone":"Europe/Kyiv","admin1_name":"Vinnytsia"}]