[{"name":"Kindu","lat":-2.94373,"lon":25.92237,"population":234651,"iso_a3":"COD","country":"DR Congo","is_capital":false,"name_en":"Kindu","name_es":"Kindu","name_fr":"Kindu","name_it":"Kindu","name_ru":"Кинду","elevation":464.0,"timezone":"Africa/Lubumbashi","admin1_name":"Maniema"},{"name":"Kongolo","lat":-5.38532,"lon":27.00029,"population":86932,"iso_a3":"COD","country":"DR Congo","is_capital":false,"name_en":"Kongolo","name_es":"Kongolo","name_fr":"Kongolo","name_it":"Kongolo","name_ru":"Конголо","elevation":562.0,"timezone":"Africa/Lubumbashi","admin1_name":"Tanganyika"},{"name":"Kasongo","lat":-4.42741,"lon":26.66656,"population":81629,"iso_a3":"COD","country":"DR Congo","is_capital":false,"name_en":"Kasongo","name_es":"Kasongo","name_fr":"Kasongo","name_it":"Kasongo","name_ru":"Касонго","elevation":640.0,"timezone":"Africa/Lubumbashi","admin1_name":"Maniema"},{"name":"Lubao","lat":-5.38771,"lon":25.74885,"population":37818,"iso_a3":"COD","country":"DR Congo","is_capital":false,"name_en":"Lubao","name_es":"Lubao","name_fr":"Lubao","name_it":"Lubao","name_ru":"Lubao","elevation":694.0,"timezone":"Africa/Lubumbashi","admin1_name":"Lomami"},{"name":"Kampene","lat":-3.59678,"lon":26.66715,"population":37034,"iso_a3":"COD","country":"DR Congo","is_capital":false,"name_en":"Kampene","name_es":"Kampene","name_fr":"Kampene","name_it":"Kampene","name_ru":"Kampene","elevation":652.0,"timezone":"Africa/Lubumbashi","admin1_name":"Maniema"}]