[{"name":"Molepolole","lat":-24.40659,"lon":25.49508,"population":74861,"iso_a3":"BWA","country":"Botswana","is_capital":false,"name_en":"Molepolole","name_es":"Molepolole","name_fr":"Molepolole","name_it":"Molepolole","name_ru":"Молепололе","elevation":1146.0,"timezone":"Africa/Gaborone","admin1_name":"Kweneng"},{"name":"Serowe","lat":-22.38754,"lon":26.71077,"population":55676,"iso_a3":"BWA","country":"Botswana","is_capital":false,"name_en":"Serowe","name_es":"Serowe","name_fr":"Serowe","name_it":"Serowe","name_ru":"Серова","elevation":1147.0,"timezone":"Africa/Gaborone","admin1_name":"Central"},{"name":"Palapye","lat":-22.54605,"lon":27.12507,"population":52636,"iso_a3":"BWA","country":"Botswana","is_capital":false,"name_en":"Palapye","name_es":"Palapye","name_fr":"Palapye","name_it":"Palapye","name_ru":"Палапье","elevation":926.0,"timezone":"Africa/Gaborone","admin1_name":"Central"},{"name":"Mochudi","lat":-24.41667,"lon":26.15,"population":50321,"iso_a3":"BWA","country":"Botswana","is_capital":false,"name_en":"Mochudi","name_es":"Mochudi","name_fr":"Mochudi","name_it":"Mochudi","name_ru":"Мочуди","elevation":952.0,"timezone":"Africa/Gaborone","admin1_name":"Kgatleng"},{"name":"Mahalapye","lat":-23.10407,"lon":26.81421,"population":48431,"iso_a3":"BWA","country":"Botswana","is_capital":false,"name_en":"Mahalapye","name_es":"Mahalapye","name_fr":"Mahalapye","name_it":"Mahalapye","name_ru":"Махалапье","elevation":1025.0,"timezone":"Africa/Gaborone","admin1_name":"Central"},{"name":"Selebi-Phikwe","lat":-21.97895,"lon":27.84296,"population":42488,"iso_a3":"BWA","country":"Botswana","is_capital":false,"name_en":"Selebi-Phikwe","name_es":"Selebi-Phikwe","name_fr":"Selebi-Phikwe","name_it":"Selebi Pikwe","name_ru":"Селеби-Пхикве","elevation":870.0,"timezone":"Africa/Gaborone","admin1_name":"Selibe Phikwe"}]