[{"name":"Muratpaşa","lat":36.89157,"lon":30.76498,"population":450000,"iso_a3":"TUR","country":"Turkey","is_capital":false,"name_en":"Muratpaşa","name_es":"Muratpaşa","name_fr":"Muratpaşa","name_it":"Muratpaşa","name_ru":"Muratpaşa","elevation":53.0,"timezone":"Europe/Istanbul","admin1_name":"Antalya"},{"name":"Uşak","lat":38.67351,"lon":29.4058,"population":369433,"iso_a3":"TUR","country":"Turkey","is_capital":false,"name_en":"Uşak","name_es":"Uşak","name_fr":"Uşak","name_it":"Uşak","name_ru":"Ушак","elevation":910.0,"timezone":"Europe/Istanbul","admin1_name":"Uşak"},{"name":"Denizli","lat":37.77417,"lon":29.0875,"population":313238,"iso_a3":"TUR","country":"Turkey","is_capital":false,"name_en":"Denizli","name_es":"Denizli","name_fr":"Denizli","name_it":"Denizli","name_ru":"Денизли","elevation":405.0,"timezone":"Europe/Istanbul","admin1_name":"Denizli"},{"name":"Merkezefendi","lat":37.80544,"lon":29.04236,"population":280341,"iso_a3":"TUR","country":"Turkey","is_capital":false,"name_en":"Merkezefendi","name_es":"Merkezefendi","name_fr":"Merkezefendi","name_it":"Merkezefendi","name_ru":"Merkezefendi","elevation":439.0,"timezone":"Europe/Istanbul","admin1_name":"Denizli"},{"name":"Afyonkarahisar","lat":38.75667,"lon":30.54333,"population":251799,"iso_a3":"TUR","country":"Turkey","is_capital":false,"name_en":"Afyonkarahisar","name_es":"Afyonkarahisar","name_fr":"Afyonkarahisar","name_it":"Afyonkarahisar","name_ru":"Афьонкарахисар","elevation":1019.0,"timezone":"Europe/Istanbul","admin1_name":"Afyonkarahisar Province"},{"name":"Isparta","lat":37.76444,"lon":30.55222,"population":172334,"iso_a3":"TUR","country":"Turkey","is_capital":false,"name_en":"Isparta","name_es":"Isparta","name_fr":"Isparta","name_it":"Isparta","name_ru":"Испарта","elevation":1069.0,"timezone":"Europe/Istanbul","admin1_name":"Isparta"},{"name":"Nazilli","lat":37.91631,"lon":28.32225,"population":119370,"iso_a3":"TUR","country":"Turkey","is_capital":false,"name_en":"Nazilli","name_es":"Nazilli","name_fr":"Nazilli","name_it":"Nazilli","name_ru":"Назилли","elevation":89.0,"timezone":"Europe/Istanbul","admin1_name":"Aydın"},{"name":"Salihli","lat":38.48258,"lon":28.14774,"population":119311,"iso_a3":"TUR","country":"Turkey","is_capital":false,"name_en":"Salihli","name_es":"Salihli","name_fr":"Salihli","name_it":"Salihli","name_ru":"Salihli","elevation":109.0,"timezone":"Europe/Istanbul","admin1_name":"Manisa"},{"name":"Burdur","lat":37.72028,"lon":30.29083,"population":95436,"iso_a3":"TUR","country":"Turkey","is_capital":false,"name_en":"Burdur","name_es":"Burdur","name_fr":"Burdur","name_it":"Burdur","name_ru":"Бурдур","elevation":956.0,"timezone":"Europe/Istanbul","admin1_name":"Burdur"},{"name":"Muğla","lat":37.21807,"lon":28.3665,"population":92328,"iso_a3":"TUR","country":"Turkey","is_capital":false,"name_en":"Muğla","name_es":"Muğla","name_fr":"Muğla","name_it":"Muğla","name_ru":"Мугла","elevation":672.0,"timezone":"Europe/Istanbul","admin1_name":"Muğla"},{"name":"Fethiye","lat":36.64038,"lon":29.12758,"population":60437,"iso_a3":"TUR","country":"Turkey","is_capital":false,"name_en":"Fethiye","name_es":"Fethiye","name_fr":"Fethiye","name_it":"Fethiye","name_ru":"Фетхие","elevation":9.0,"timezone":"Europe/Istanbul","admin1_name":"Muğla"},{"name":"Alaşehir","lat":38.35083,"lon":28.51718,"population":48147,"iso_a3":"TUR","country":"Turkey","is_capital":false,"name_en":"Alaşehir","name_es":"Alaşehir","name_fr":"Alaşehir","name_it":"Alaşehir","name_ru":"Алашехир","elevation":207.0,"timezone":"Europe/Istanbul","admin1_name":"Manisa"},{"name":"Sandıklı","lat":38.46472,"lon":30.26946,"population":42981,"iso_a3":"TUR","country":"Turkey","is_capital":false,"name_en":"Sandıklı","name_es":"Sandıklı","name_fr":"Sandıklı","name_it":"Sandıklı","name_ru":"Сандикли","elevation":1086.0,"timezone":"Europe/Istanbul","admin1_name":"Afyonkarahisar Province"},{"name":"Dinar","lat":38.065,"lon":30.16557,"population":35359,"iso_a3":"TUR","country":"Turkey","is_capital":false,"name_en":"Dinar","name_es":"Dinar","name_fr":"Dinar","name_it":"Distretto di Dinar","name_ru":"Динар","elevation":863.0,"timezone":"Europe/Istanbul","admin1_name":"Afyonkarahisar Province"},{"name":"Marmaris","lat":36.855,"lon":28.27417,"population":33731,"iso_a3":"TUR","country":"Turkey","is_capital":false,"name_en":"Marmaris","name_es":"Marmaris","name_fr":"Marmaris","name_it":"Marmaris","name_ru":"Мармарис","elevation":8.0,"timezone":"Europe/Istanbul","admin1_name":"Muğla"},{"name":"Kula","lat":38.54726,"lon":28.64976,"population":31100,"iso_a3":"TUR","country":"Turkey","is_capital":false,"name_en":"Kula","name_es":"Kula","name_fr":"Kula","name_it":"Kula","name_ru":"Кул","elevation":671.0,"timezone":"Europe/Istanbul","admin1_name":"Manisa"}]