[{"name":"Sultangazi","lat":41.10652,"lon":28.86847,"population":436935,"iso_a3":"TUR","country":"Turkey","is_capital":false,"name_en":"Sultangazi","name_es":"Sultangazi","name_fr":"Sultangazi","name_it":"Sultangazi","name_ru":"Sultangazi","elevation":144.0,"timezone":"Europe/Istanbul","admin1_name":"Istanbul"},{"name":"Sancaktepe","lat":41.00244,"lon":29.23187,"population":241000,"iso_a3":"TUR","country":"Turkey","is_capital":false,"name_en":"Sancaktepe","name_es":"Sancaktepe","name_fr":"Sancaktepe","name_it":"Sancaktepe","name_ru":"Sancaktepe","elevation":114.0,"timezone":"Europe/Istanbul","admin1_name":"Istanbul"},{"name":"Esenyurt","lat":41.02697,"lon":28.67732,"population":211330,"iso_a3":"TUR","country":"Turkey","is_capital":false,"name_en":"Esenyurt","name_es":"Esenyurt","name_fr":"Esenyurt","name_it":"Esenyurt","name_ru":"Esenyurt","elevation":97.0,"timezone":"Europe/Istanbul","admin1_name":"Istanbul"},{"name":"Arnavutköy","lat":41.18355,"lon":28.7402,"population":198165,"iso_a3":"TUR","country":"Turkey","is_capital":false,"name_en":"Arnavutköy","name_es":"Arnavutköy","name_fr":"Arnavutköy","name_it":"Arnavutköy","name_ru":"Arnavutköy","elevation":147.0,"timezone":"Europe/Istanbul","admin1_name":"Istanbul"},{"name":"Başakşehir","lat":41.106,"lon":28.791,"population":193750,"iso_a3":"TUR","country":"Turkey","is_capital":false,"name_en":"Başakşehir","name_es":"Başakşehir","name_fr":"Başakşehir","name_it":"Başakşehir","name_ru":"Başakşehir","elevation":155.0,"timezone":"Europe/Istanbul","admin1_name":"Istanbul"},{"name":"Büyükçekmece","lat":41.02072,"lon":28.58502,"population":163140,"iso_a3":"TUR","country":"Turkey","is_capital":false,"name_en":"Büyükçekmece","name_es":"Büyükçekmece","name_fr":"Büyükçekmece","name_it":"Büyükçekmece","name_ru":"Büyükçekmece","elevation":5.0,"timezone":"Europe/Istanbul","admin1_name":"Istanbul"},{"name":"Beylikdüzü","lat":40.982,"lon":28.6399,"population":122452,"iso_a3":"TUR","country":"Turkey","is_capital":false,"name_en":"Beylikduzu","name_es":"Beylikduzu","name_fr":"Beylikduzu","name_it":"Beylikduzu","name_ru":"Beylikduzu","elevation":102.0,"timezone":"Europe/Istanbul","admin1_name":"Istanbul"},{"name":"Silivri","lat":41.07393,"lon":28.24644,"population":53167,"iso_a3":"TUR","country":"Turkey","is_capital":false,"name_en":"Siliviri","name_es":"Siliviri","name_fr":"Siliviri","name_it":"Siliviri","name_ru":"Siliviri","elevation":9.0,"timezone":"Europe/Istanbul","admin1_name":"Istanbul"},{"name":"Kavaklı","lat":41.09258,"lon":28.33172,"population":50502,"iso_a3":"TUR","country":"Turkey","is_capital":false,"name_en":"Kavaklı","name_es":"Kavaklı","name_fr":"Kavaklı","name_it":"Kavaklı","name_ru":"Каваклы","elevation":81.0,"timezone":"Europe/Istanbul","admin1_name":"Istanbul"},{"name":"Karasu Mahallesi","lat":41.07096,"lon":30.78543,"population":39508,"iso_a3":"TUR","country":"Turkey","is_capital":false,"name_en":"Karasu Mahallesi","name_es":"Karasu Mahallesi","name_fr":"Karasu Mahallesi","name_it":"Karasu Mahallesi","name_ru":"Карасу","elevation":12.0,"timezone":"Europe/Istanbul","admin1_name":"Sakarya"},{"name":"Karasu","lat":41.10442,"lon":30.69664,"population":30746,"iso_a3":"TUR","country":"Turkey","is_capital":false,"name_en":"Karasu","name_es":"Karasu","name_fr":"Karasu","name_it":"Karasu","name_ru":"Karasu","elevation":6.0,"timezone":"Europe/Istanbul","admin1_name":"Sakarya"}]