[{"name":"Minya","lat":28.09193,"lon":30.75813,"population":283605,"iso_a3":"EGY","country":"Egypt","is_capital":false,"name_en":"Minya","name_es":"Minya","name_fr":"Minya","name_it":"Minya","name_ru":"Эль-Минья","elevation":52.0,"timezone":"Africa/Cairo","admin1_name":"Minya"},{"name":"Mallawī","lat":27.73264,"lon":30.84129,"population":212628,"iso_a3":"EGY","country":"Egypt","is_capital":false,"name_en":"Mallawī","name_es":"Mallawī","name_fr":"Mallawī","name_it":"Mallawī","name_ru":"Маллави","elevation":53.0,"timezone":"Africa/Cairo","admin1_name":"Minya"},{"name":"Samālūţ","lat":28.31214,"lon":30.71007,"population":142009,"iso_a3":"EGY","country":"Egypt","is_capital":false,"name_en":"Samālūţ","name_es":"Samālūţ","name_fr":"Samālūţ","name_it":"Samālūţ","name_ru":"Samālūţ","elevation":41.0,"timezone":"Africa/Cairo","admin1_name":"Minya"},{"name":"Sinnūris","lat":29.41345,"lon":30.86579,"population":133532,"iso_a3":"EGY","country":"Egypt","is_capital":false,"name_en":"Sinnūris","name_es":"Sinnūris","name_fr":"Sinnūris","name_it":"Sinnūris","name_ru":"Sinnūris","elevation":14.0,"timezone":"Africa/Cairo","admin1_name":"Faiyum"},{"name":"Maghāghah","lat":28.64776,"lon":30.841,"population":118223,"iso_a3":"EGY","country":"Egypt","is_capital":false,"name_en":"Maghāghah","name_es":"Maghāghah","name_fr":"Maghāghah","name_it":"Maghāghah","name_ru":"Maghāghah","elevation":39.0,"timezone":"Africa/Cairo","admin1_name":"Minya"},{"name":"Banī Mazār","lat":28.49456,"lon":30.80526,"population":115759,"iso_a3":"EGY","country":"Egypt","is_capital":false,"name_en":"Banī Mazār","name_es":"Banī Mazār","name_fr":"Banī Mazār","name_it":"Banī Mazār","name_ru":"Banī Mazār","elevation":38.0,"timezone":"Africa/Cairo","admin1_name":"Minya"},{"name":"Al Fashn","lat":28.82306,"lon":30.89903,"population":112999,"iso_a3":"EGY","country":"Egypt","is_capital":false,"name_en":"Al Fashn","name_es":"Al Fashn","name_fr":"Al Fashn","name_it":"Al Fashn","name_ru":"Эль-Фашн","elevation":39.0,"timezone":"Africa/Cairo","admin1_name":"Beni Suweif"},{"name":"Dayrūţ","lat":27.55642,"lon":30.81057,"population":102570,"iso_a3":"EGY","country":"Egypt","is_capital":false,"name_en":"Dayrūţ","name_es":"Dayrūţ","name_fr":"Dayrūţ","name_it":"Dayrūţ","name_ru":"Dayrūţ","elevation":51.0,"timezone":"Africa/Cairo","admin1_name":"Asyut"},{"name":"Al Qūşīyah","lat":27.44023,"lon":30.81712,"population":99598,"iso_a3":"EGY","country":"Egypt","is_capital":false,"name_en":"Al Qūşīyah","name_es":"Al Qūşīyah","name_fr":"Al Qūşīyah","name_it":"Al Qūşīyah","name_ru":"Al Qūşīyah","elevation":54.0,"timezone":"Africa/Cairo","admin1_name":"Asyut"},{"name":"Abū Qurqāş","lat":27.93043,"lon":30.83826,"population":90266,"iso_a3":"EGY","country":"Egypt","is_capital":false,"name_en":"Abū Qurqāş","name_es":"Abū Qurqāş","name_fr":"Abū Qurqāş","name_it":"Abū Qurqāş","name_ru":"Abū Qurqāş","elevation":54.0,"timezone":"Africa/Cairo","admin1_name":"Minya"},{"name":"Ibshawāy","lat":29.35896,"lon":30.68061,"population":86186,"iso_a3":"EGY","country":"Egypt","is_capital":false,"name_en":"Ibshawāy","name_es":"Ibshawāy","name_fr":"Ibshawāy","name_it":"Ibshawāy","name_ru":"Ibshawāy","elevation":4.0,"timezone":"Africa/Cairo","admin1_name":"Faiyum"},{"name":"Maţāy","lat":28.41866,"lon":30.77861,"population":82328,"iso_a3":"EGY","country":"Egypt","is_capital":false,"name_en":"Maţāy","name_es":"Maţāy","name_fr":"Maţāy","name_it":"Maţāy","name_ru":"Maţāy","elevation":38.0,"timezone":"Africa/Cairo","admin1_name":"Minya"},{"name":"Iţsā","lat":29.2376,"lon":30.78944,"population":74357,"iso_a3":"EGY","country":"Egypt","is_capital":false,"name_en":"Iţsā","name_es":"Iţsā","name_fr":"Iţsā","name_it":"Iţsā","name_ru":"Iţsā","elevation":20.0,"timezone":"Africa/Cairo","admin1_name":"Faiyum"},{"name":"Sumusţā al Waqf","lat":28.92095,"lon":30.85367,"population":64965,"iso_a3":"EGY","country":"Egypt","is_capital":false,"name_en":"Sumusţā al Waqf","name_es":"Sumusţā al Waqf","name_fr":"Sumusţā al Waqf","name_it":"Sumusţā al Waqf","name_ru":"Sumusţā al Waqf","elevation":32.0,"timezone":"Africa/Cairo","admin1_name":"Beni Suweif"},{"name":"Dayr Mawās","lat":27.64148,"lon":30.85012,"population":60835,"iso_a3":"EGY","country":"Egypt","is_capital":false,"name_en":"Dayr Mawās","name_es":"Dayr Mawās","name_fr":"Dayr Mawās","name_it":"Dayr Mawās","name_ru":"Dayr Mawās","elevation":51.0,"timezone":"Africa/Cairo","admin1_name":"Minya"},{"name":"Banī ‘Ubayd","lat":27.95243,"lon":30.78082,"population":46060,"iso_a3":"EGY","country":"Egypt","is_capital":false,"name_en":"Banī ‘Ubayd","name_es":"Banī ‘Ubayd","name_fr":"Banī ‘Ubayd","name_it":"Banī ‘Ubayd","name_ru":"Banī ‘Ubayd","elevation":48.0,"timezone":"Africa/Cairo","admin1_name":"Minya"}]