[{"name":"Pweto","lat":-8.46604,"lon":28.90079,"population":38298,"iso_a3":"COD","country":"DR Congo","is_capital":false,"name_en":"Pweto","name_es":"Pweto","name_fr":"Pweto","name_it":"Pweto","name_ru":"Pweto","elevation":954.0,"timezone":"Africa/Lubumbashi","admin1_name":"Haut-Katanga"},{"name":"Nchelenge","lat":-9.34506,"lon":28.73396,"population":77746,"iso_a3":"ZMB","country":"Zambia","is_capital":false,"name_en":"Nchelenge","name_es":"Nchelenge","name_fr":"Nchelenge","name_it":"Nchelenge","name_ru":"Нчеленге","elevation":933.0,"timezone":"Africa/Lusaka"},{"name":"Kaputa","lat":-8.46887,"lon":29.66193,"population":35663,"iso_a3":"ZMB","country":"Zambia","is_capital":false,"name_en":"Kaputa","name_es":"Kaputa","name_fr":"Kaputa","name_it":"Kaputa","name_ru":"Kaputa","elevation":950.0,"timezone":"Africa/Lusaka"},{"name":"Kawambwa","lat":-9.7915,"lon":29.07913,"population":31161,"iso_a3":"ZMB","country":"Zambia","is_capital":false,"name_en":"Kawambwa","name_es":"Kawambwa","name_fr":"Kawambwa","name_it":"Kawambwa","name_ru":"Kawambwa","elevation":1342.0,"timezone":"Africa/Lusaka"},{"name":"Mporokoso","lat":-9.37273,"lon":30.12501,"population":30381,"iso_a3":"ZMB","country":"Zambia","is_capital":false,"name_en":"Mporokoso","name_es":"Mporokoso","name_fr":"Mporokoso","name_it":"Mporokoso","name_ru":"Mporokoso","elevation":1442.0,"timezone":"Africa/Lusaka"}]