[{"name":"Watsa","lat":3.03716,"lon":29.53551,"population":47278,"iso_a3":"COD","country":"DR Congo","is_capital":false,"name_en":"Watsa","name_es":"Watsa","name_fr":"Watsa","name_it":"Watsa","name_ru":"Watsa","elevation":1018.0,"timezone":"Africa/Lubumbashi","admin1_name":"Haut-Uele"},{"name":"Aru","lat":2.86218,"lon":30.84138,"population":45516,"iso_a3":"COD","country":"DR Congo","is_capital":false,"name_en":"Aru","name_es":"Aru","name_fr":"Aru","name_it":"Aru","name_ru":"Aru","elevation":1350.0,"timezone":"Africa/Lubumbashi","admin1_name":"Ituri"},{"name":"Yei","lat":4.09444,"lon":30.67639,"population":260720,"iso_a3":"SSD","country":"South Sudan","is_capital":false,"name_en":"Yei","name_es":"Yei","name_fr":"Yei","name_it":"Yei","name_ru":"Ей","elevation":836.0,"timezone":"Africa/Juba","admin1_name":"Central Equatoria"},{"name":"Yambio","lat":4.57083,"lon":28.39417,"population":40382,"iso_a3":"SSD","country":"South Sudan","is_capital":false,"name_en":"Yambio","name_es":"Yambio","name_fr":"Yambio","name_it":"Yambio","name_ru":"Ямбио","elevation":655.0,"timezone":"Africa/Juba","admin1_name":"Western Equatoria"},{"name":"Arua","lat":3.02013,"lon":30.91105,"population":72400,"iso_a3":"UGA","country":"Uganda","is_capital":false,"name_en":"Arua","name_es":"Arua","name_fr":"Arua","name_it":"Arua","name_ru":"Аруа","elevation":1215.0,"timezone":"Africa/Kampala","admin1_name":"Northern Region"}]