[{"name":"Boksburg","lat":-26.21197,"lon":28.25958,"population":445168,"iso_a3":"ZAF","country":"South Africa","is_capital":false,"name_en":"Boksburg","name_es":"Boksburg","name_fr":"Boksburg","name_it":"Boksburg","name_ru":"Боксбург","elevation":1624.0,"timezone":"Africa/Johannesburg"},{"name":"Emalahleni","lat":-25.87133,"lon":29.23323,"population":373403,"iso_a3":"ZAF","country":"South Africa","is_capital":false,"name_en":"Emalahleni","name_es":"Emalahleni","name_fr":"Emalahleni","name_it":"Emalahleni","name_ru":"Эмалахлени","elevation":1629.0,"timezone":"Africa/Johannesburg"},{"name":"Brakpan","lat":-26.23656,"lon":28.36938,"population":305692,"iso_a3":"ZAF","country":"South Africa","is_capital":false,"name_en":"Brakpan","name_es":"Brakpan","name_fr":"Brakpan","name_it":"Brakpan","name_ru":"Brakpan","elevation":1631.0,"timezone":"Africa/Johannesburg"},{"name":"Germiston","lat":-26.23481,"lon":28.17665,"population":255863,"iso_a3":"ZAF","country":"South Africa","is_capital":false,"name_en":"Germiston","name_es":"Germiston","name_fr":"Germinston","name_it":"Germiston","name_ru":"Джермистон","elevation":1649.0,"timezone":"Africa/Johannesburg"},{"name":"Centurion","lat":-25.85891,"lon":28.18577,"population":236580,"iso_a3":"ZAF","country":"South Africa","is_capital":false,"name_en":"Centurion","name_es":"Centurion","name_fr":"Centurion","name_it":"Centurion","name_ru":"Центурион","elevation":1432.0,"timezone":"Africa/Johannesburg"},{"name":"Middelburg","lat":-25.77507,"lon":29.46482,"population":196263,"iso_a3":"ZAF","country":"South Africa","is_capital":false,"name_en":"Middelburg","name_es":"Middelburg","name_fr":"Middelburg","name_it":"Middelburg","name_ru":"Мидделбург","elevation":1479.0,"timezone":"Africa/Johannesburg"},{"name":"Etwatwa","lat":-26.12516,"lon":28.45472,"population":151866,"iso_a3":"ZAF","country":"South Africa","is_capital":false,"name_en":"Etwatwa","name_es":"Etwatwa","name_fr":"Etwatwa","name_it":"Etwatwa","name_ru":"Etwatwa","elevation":1587.0,"timezone":"Africa/Johannesburg"},{"name":"eMbalenhle","lat":-26.53333,"lon":29.06667,"population":142443,"iso_a3":"ZAF","country":"South Africa","is_capital":false,"name_en":"eMbalenhle","name_es":"eMbalenhle","name_fr":"eMbalenhle","name_it":"eMbalenhle","name_ru":"eMbalenhle","elevation":1575.0,"timezone":"Africa/Johannesburg"},{"name":"Nigel","lat":-26.43138,"lon":28.47713,"population":140644,"iso_a3":"ZAF","country":"South Africa","is_capital":false,"name_en":"Nigel","name_es":"Nigel","name_fr":"Nigel","name_it":"Nigel","name_ru":"Найджел","elevation":1566.0,"timezone":"Africa/Johannesburg"},{"name":"Somaroboro","lat":-25.34604,"lon":28.83431,"population":114369,"iso_a3":"ZAF","country":"South Africa","is_capital":false,"name_en":"Somaroboro","name_es":"Somaroboro","name_fr":"Somaroboro","name_it":"Somaroboro","name_ru":"Somaroboro","elevation":1368.0,"timezone":"Africa/Johannesburg"},{"name":"Hammanskraal","lat":-25.40892,"lon":28.287,"population":112950,"iso_a3":"ZAF","country":"South Africa","is_capital":false,"name_en":"Hammanskraal","name_es":"Hammanskraal","name_fr":"Hammanskraal","name_it":"Hammanskraal","name_ru":"Hammanskraal","elevation":1110.0,"timezone":"Africa/Johannesburg","admin1_name":"North West"},{"name":"Tokoza","lat":-26.36,"lon":28.129,"population":106000,"iso_a3":"ZAF","country":"South Africa","is_capital":false,"name_en":"Tokoza","name_es":"Tokoza","name_fr":"Tokoza","name_it":"Tokoza","name_ru":"Tokoza","elevation":1554.0,"timezone":"Africa/Johannesburg"},{"name":"Standerton","lat":-26.93366,"lon":29.24152,"population":101101,"iso_a3":"ZAF","country":"South Africa","is_capital":false,"name_en":"Standerton","name_es":"Standerton","name_fr":"Standerton","name_it":"Standerton","name_ru":"Standerton","elevation":1569.0,"timezone":"Africa/Johannesburg"},{"name":"Ermelo","lat":-26.53333,"lon":29.98333,"population":100324,"iso_a3":"ZAF","country":"South Africa","is_capital":false,"name_en":"Ermelo","name_es":"Ermelo","name_fr":"Ermelo","name_it":"Ermelo","name_ru":"Эрмело","elevation":1700.0,"timezone":"Africa/Johannesburg"},{"name":"Delmas","lat":-26.1466,"lon":28.68322,"population":92046,"iso_a3":"ZAF","country":"South Africa","is_capital":false,"name_en":"Delmas","name_es":"Delmas","name_fr":"Delmas","name_it":"Delmas","name_ru":"Дельмас","elevation":1558.0,"timezone":"Africa/Johannesburg"},{"name":"Bela Bela","lat":-24.88333,"lon":28.28333,"population":90210,"iso_a3":"ZAF","country":"South Africa","is_capital":false,"name_en":"Bela Bela","name_es":"Bela Bela","name_fr":"Bela Bela","name_it":"Bela Bela","name_ru":"Bela Bela","elevation":1136.0,"timezone":"Africa/Johannesburg"},{"name":"Heidelberg","lat":-26.50476,"lon":28.35921,"population":85858,"iso_a3":"ZAF","country":"South Africa","is_capital":false,"name_en":"Heidelberg","name_es":"Heidelberg","name_fr":"Heidelberg","name_it":"Heidelberg","name_ru":"Гейдельберг","elevation":1525.0,"timezone":"Africa/Johannesburg"},{"name":"Piet Retief","lat":-27.00706,"lon":30.81323,"population":84349,"iso_a3":"ZAF","country":"South Africa","is_capital":false,"name_en":"Piet Retief","name_es":"Piet Retief","name_fr":"Piet Retief","name_it":"Piet Retief","name_ru":"Piet Retief","elevation":1251.0,"timezone":"Africa/Johannesburg"},{"name":"Bethal","lat":-26.45794,"lon":29.46553,"population":72821,"iso_a3":"ZAF","country":"South Africa","is_capital":false,"name_en":"Bethal","name_es":"Bethal","name_fr":"Bethal","name_it":"Bethal","name_ru":"Bethal","elevation":1661.0,"timezone":"Africa/Johannesburg"},{"name":"Ekangala","lat":-25.668,"lon":28.73,"population":58099,"iso_a3":"ZAF","country":"South Africa","is_capital":false,"name_en":"Ekangala","name_es":"Ekangala","name_fr":"Ekangala","name_it":"Ekangala","name_ru":"Ekangala","elevation":1472.0,"timezone":"Africa/Johannesburg"},{"name":"Kwaggafontein","lat":-25.32729,"lon":28.94224,"population":54040,"iso_a3":"ZAF","country":"South Africa","is_capital":false,"name_en":"Kwaggafontein","name_es":"Kwaggafontein","name_fr":"Kwaggafontein","name_it":"Kwaggafontein","name_ru":"Kwaggafontein","elevation":1328.0,"timezone":"Africa/Johannesburg"},{"name":"Trichardt","lat":-26.49155,"lon":29.22878,"population":52776,"iso_a3":"ZAF","country":"South Africa","is_capital":false,"name_en":"Trichardt","name_es":"Trichardt","name_fr":"Trichardt","name_it":"Trichardt","name_ru":"Trichardt","elevation":1625.0,"timezone":"Africa/Johannesburg"},{"name":"Modimolle","lat":-24.7,"lon":28.4,"population":50306,"iso_a3":"ZAF","country":"South Africa","is_capital":false,"name_en":"Modimolle","name_es":"Modimolle","name_fr":"Modimolle","name_it":"Modimolle","name_ru":"Modimolle","elevation":1177.0,"timezone":"Africa/Johannesburg"},{"name":"Lydenburg","lat":-25.09598,"lon":30.44393,"population":49605,"iso_a3":"ZAF","country":"South Africa","is_capital":false,"name_en":"Lydenburg","name_es":"Lydenburg","name_fr":"Lydenburg","name_it":"Lydenburg","name_ru":"Машишинг","elevation":1371.0,"timezone":"Africa/Johannesburg"},{"name":"Edenvale","lat":-26.14095,"lon":28.15247,"population":49292,"iso_a3":"ZAF","country":"South Africa","is_capital":false,"name_en":"Edenvale","name_es":"Edenvale","name_fr":"Edenvale","name_it":"Edenvale","name_ru":"Edenvale","elevation":1651.0,"timezone":"Africa/Johannesburg"},{"name":"Balfour","lat":-26.66331,"lon":28.59016,"population":46008,"iso_a3":"ZAF","country":"South Africa","is_capital":false,"name_en":"Balfour","name_es":"Balfour","name_fr":"Balfour","name_it":"Balfour","name_ru":"Бальфур","elevation":1622.0,"timezone":"Africa/Johannesburg"},{"name":"Siyabuswa","lat":-25.11319,"lon":29.04454,"population":44189,"iso_a3":"ZAF","country":"South Africa","is_capital":false,"name_en":"Siyabuswa","name_es":"Siyabuswa","name_fr":"Siyabuswa","name_it":"Siyabuswa","name_ru":"Siyabuswa","elevation":935.0,"timezone":"Africa/Johannesburg"},{"name":"Bronkhorstspruit","lat":-25.81015,"lon":28.74248,"population":41209,"iso_a3":"ZAF","country":"South Africa","is_capital":false,"name_en":"Bronkhorstspruit","name_es":"Bronkhorstspruit","name_fr":"Bronkhorstspruit","name_it":"Bronkhorstspruit","name_ru":"Bronkhorstspruit","elevation":1399.0,"timezone":"Africa/Johannesburg"},{"name":"Leslie","lat":-26.36737,"lon":28.9189,"population":39514,"iso_a3":"ZAF","country":"South Africa","is_capital":false,"name_en":"Leslie","name_es":"Leslie","name_fr":"Leslie","name_it":"Leslie","name_ru":"Leslie","elevation":1675.0,"timezone":"Africa/Johannesburg"},{"name":"Lukwatini","lat":-26.05501,"lon":30.82292,"population":37362,"iso_a3":"ZAF","country":"South Africa","is_capital":false,"name_en":"Lukwatini","name_es":"Lukwatini","name_fr":"Lukwatini","name_it":"Lukwatini","name_ru":"Lukwatini","elevation":1012.0,"timezone":"Africa/Johannesburg"},{"name":"Cullinan","lat":-25.67088,"lon":28.52364,"population":34087,"iso_a3":"ZAF","country":"South Africa","is_capital":false,"name_en":"Cullinan","name_es":"Cullinan","name_fr":"Cullinan","name_it":"Cullinan","name_ru":"Куллинан","elevation":1449.0,"timezone":"Africa/Johannesburg"}]