[{"name":"Butha-Buthe","lat":-28.76659,"lon":28.24937,"population":40599,"iso_a3":"LSO","country":"Lesotho","is_capital":false,"name_en":"Butha-Buthe","name_es":"Butha-Buthe","name_fr":"Butha-Buthe","name_it":"Butha-Buthe","name_ru":"Бута-Бутэ","elevation":1716.0,"timezone":"Africa/Maseru","admin1_name":"Butha-Buthe"},{"name":"Newcastle","lat":-27.75796,"lon":29.9318,"population":404838,"iso_a3":"ZAF","country":"South Africa","is_capital":false,"name_en":"Newcastle","name_es":"Newcastle","name_fr":"Newcastle","name_it":"Newcastle","name_ru":"Newcastle","elevation":1195.0,"timezone":"Africa/Johannesburg"},{"name":"Vryheid","lat":-27.76952,"lon":30.79165,"population":150012,"iso_a3":"ZAF","country":"South Africa","is_capital":false,"name_en":"Vryheid","name_es":"Vryheid","name_fr":"Vryheid","name_it":"Vryheid","name_ru":"Vryheid","elevation":1170.0,"timezone":"Africa/Johannesburg"},{"name":"Ladysmith","lat":-28.55874,"lon":29.77896,"population":143446,"iso_a3":"ZAF","country":"South Africa","is_capital":false,"name_en":"Ladysmith","name_es":"Ladysmith","name_fr":"Ladysmith","name_it":"Ladysmith","name_ru":"Ladysmith","elevation":1010.0,"timezone":"Africa/Johannesburg"},{"name":"Bethlehem","lat":-28.23078,"lon":28.30707,"population":91075,"iso_a3":"ZAF","country":"South Africa","is_capital":false,"name_en":"Bethlehem","name_es":"Bethlehem","name_fr":"Bethlehem","name_it":"Bethlehem","name_ru":"Вифлеем","elevation":1630.0,"timezone":"Africa/Johannesburg"},{"name":"Dundee","lat":-28.16678,"lon":30.23371,"population":84413,"iso_a3":"ZAF","country":"South Africa","is_capital":false,"name_en":"Dundee","name_es":"Dundee","name_fr":"Dundee","name_it":"Dundee","name_ru":"Данди","elevation":1260.0,"timezone":"Africa/Johannesburg"},{"name":"Phuthaditjhaba","lat":-28.52423,"lon":28.81582,"population":84258,"iso_a3":"ZAF","country":"South Africa","is_capital":false,"name_en":"Phuthaditjhaba","name_es":"Phuthaditjhaba","name_fr":"Phuthaditjhaba","name_it":"Phuthaditjhaba","name_ru":"Phuthaditjhaba","elevation":1671.0,"timezone":"Africa/Johannesburg"},{"name":"Mondlo","lat":-27.98299,"lon":30.71769,"population":53892,"iso_a3":"ZAF","country":"South Africa","is_capital":false,"name_en":"Mondlo","name_es":"Mondlo","name_fr":"Mondlo","name_it":"Mondlo","name_ru":"Mondlo","elevation":1155.0,"timezone":"Africa/Johannesburg"},{"name":"Volksrust","lat":-27.36541,"lon":29.88175,"population":43378,"iso_a3":"ZAF","country":"South Africa","is_capital":false,"name_en":"Volksrust","name_es":"Volksrust","name_fr":"Volksrust","name_it":"Volksrust","name_ru":"Volksrust","elevation":1664.0,"timezone":"Africa/Johannesburg"},{"name":"Wembesi","lat":-29.04912,"lon":29.78232,"population":33849,"iso_a3":"ZAF","country":"South Africa","is_capital":false,"name_en":"Wembesi","name_es":"Wembesi","name_fr":"Wembesi","name_it":"Wembesi","name_ru":"Wembesi","elevation":1254.0,"timezone":"Africa/Johannesburg"},{"name":"Harrismith","lat":-28.27276,"lon":29.12946,"population":33390,"iso_a3":"ZAF","country":"South Africa","is_capital":false,"name_en":"Harrismith","name_es":"Harrismith","name_fr":"Harrismith","name_it":"Harrismith","name_ru":"Гаррисмит","elevation":1643.0,"timezone":"Africa/Johannesburg"},{"name":"Howick","lat":-29.47795,"lon":30.23057,"population":32453,"iso_a3":"ZAF","country":"South Africa","is_capital":false,"name_en":"Howick","name_es":"Howick","name_fr":"Howick","name_it":"Howick","name_ru":"Howick","elevation":1048.0,"timezone":"Africa/Johannesburg"},{"name":"Frankfort","lat":-27.27888,"lon":28.49696,"population":31323,"iso_a3":"ZAF","country":"South Africa","is_capital":false,"name_en":"Frankfort","name_es":"Frankfort","name_fr":"Frankfort","name_it":"Frankfort","name_ru":"Frankfort","elevation":1545.0,"timezone":"Africa/Johannesburg"}]