[{"name":"Esna","lat":25.29336,"lon":32.55402,"population":462787,"iso_a3":"EGY","country":"Egypt","is_capital":false,"name_en":"Esna","name_es":"Esna","name_fr":"Esna","name_it":"Esna","name_ru":"Эсна","elevation":86.0,"timezone":"Africa/Cairo","admin1_name":"Qena"},{"name":"Luxor","lat":25.69893,"lon":32.6421,"population":422407,"iso_a3":"EGY","country":"Egypt","is_capital":false,"name_en":"Luxor","name_es":"Lúxor","name_fr":"Louxor","name_it":"Luxor","name_ru":"Луксор","elevation":89.0,"timezone":"Africa/Cairo","admin1_name":"Luxor"},{"name":"Sohag","lat":26.55695,"lon":31.69478,"population":266944,"iso_a3":"EGY","country":"Egypt","is_capital":false,"name_en":"Sohag","name_es":"Sohag","name_fr":"Sohag","name_it":"Sohag","name_ru":"Сохаг","elevation":67.0,"timezone":"Africa/Cairo","admin1_name":"Sohag"},{"name":"Qina","lat":26.16418,"lon":32.72671,"population":252883,"iso_a3":"EGY","country":"Egypt","is_capital":false,"name_en":"Qina","name_es":"Qina","name_fr":"Qina","name_it":"Qina","name_ru":"Qina","elevation":80.0,"timezone":"Africa/Cairo","admin1_name":"Qena"},{"name":"Akhmīm","lat":26.5622,"lon":31.74566,"population":151430,"iso_a3":"EGY","country":"Egypt","is_capital":false,"name_en":"Akhmīm","name_es":"Akhmīm","name_fr":"Akhmīm","name_it":"Akhmīm","name_ru":"Ахмим","elevation":82.0,"timezone":"Africa/Cairo","admin1_name":"Sohag"},{"name":"Girga","lat":26.33721,"lon":31.89295,"population":151256,"iso_a3":"EGY","country":"Egypt","is_capital":false,"name_en":"Jirja","name_es":"Jirja","name_fr":"Jirja","name_it":"Jirja","name_ru":"Jirja","elevation":78.0,"timezone":"Africa/Cairo","admin1_name":"Sohag"},{"name":"Ţahţā","lat":26.76866,"lon":31.50198,"population":134314,"iso_a3":"EGY","country":"Egypt","is_capital":false,"name_en":"Ţahţā","name_es":"Ţahţā","name_fr":"Ţahţā","name_it":"Ţahţā","name_ru":"Тахта","elevation":66.0,"timezone":"Africa/Cairo","admin1_name":"Sohag"},{"name":"Abū Tīj","lat":27.04514,"lon":31.31845,"population":105418,"iso_a3":"EGY","country":"Egypt","is_capital":false,"name_en":"Abū Tīj","name_es":"Abū Tīj","name_fr":"Abū Tīj","name_it":"Abū Tīj","name_ru":"Abū Tīj","elevation":70.0,"timezone":"Africa/Cairo","admin1_name":"Asyut"},{"name":"Ţimā","lat":26.90843,"lon":31.43469,"population":101130,"iso_a3":"EGY","country":"Egypt","is_capital":false,"name_en":"Ţimā","name_es":"Ţimā","name_fr":"Ţimā","name_it":"Ţimā","name_ru":"Ţimā","elevation":66.0,"timezone":"Africa/Cairo","admin1_name":"Sohag"},{"name":"Al Minshāh","lat":26.4775,"lon":31.80394,"population":91149,"iso_a3":"EGY","country":"Egypt","is_capital":false,"name_en":"Al Minshāh","name_es":"Al Minshāh","name_fr":"Al Minshāh","name_it":"Al Minshāh","name_ru":"Al Minshāh","elevation":74.0,"timezone":"Africa/Cairo","admin1_name":"Sohag"},{"name":"Qūş","lat":25.91544,"lon":32.76287,"population":84386,"iso_a3":"EGY","country":"Egypt","is_capital":false,"name_en":"Qūş","name_es":"Qūş","name_fr":"Qūş","name_it":"Qūş","name_ru":"Qūş","elevation":83.0,"timezone":"Africa/Cairo","admin1_name":"Qena"},{"name":"Edfu","lat":24.97916,"lon":32.87722,"population":79510,"iso_a3":"EGY","country":"Egypt","is_capital":false,"name_en":"Edfu","name_es":"Edfu","name_fr":"Edfou","name_it":"Edfu","name_ru":"Идфу","elevation":90.0,"timezone":"Africa/Cairo","admin1_name":"Aswan"},{"name":"Armant","lat":25.61988,"lon":32.54305,"population":78695,"iso_a3":"EGY","country":"Egypt","is_capital":false,"name_en":"Armant","name_es":"Armant","name_fr":"Armant","name_it":"Armant","name_ru":"Armant","elevation":85.0,"timezone":"Africa/Cairo","admin1_name":"Qena"},{"name":"Juhaynah","lat":26.67418,"lon":31.49686,"population":76555,"iso_a3":"EGY","country":"Egypt","is_capital":false,"name_en":"Juhaynah","name_es":"Juhaynah","name_fr":"Juhaynah","name_it":"Juhaynah","name_ru":"Juhaynah","elevation":65.0,"timezone":"Africa/Cairo","admin1_name":"Sohag"},{"name":"Farshūţ","lat":26.05501,"lon":32.16274,"population":71013,"iso_a3":"EGY","country":"Egypt","is_capital":false,"name_en":"Farshūţ","name_es":"Farshūţ","name_fr":"Farshūţ","name_it":"Farshūţ","name_ru":"Farshūţ","elevation":77.0,"timezone":"Africa/Cairo","admin1_name":"Qena"},{"name":"Al Ghanāyim","lat":26.87524,"lon":31.32963,"population":70884,"iso_a3":"EGY","country":"Egypt","is_capital":false,"name_en":"Al Ghanāyim","name_es":"Al Ghanāyim","name_fr":"Al Ghanāyim","name_it":"Al Ghanāyim","name_ru":"Al Ghanāyim","elevation":61.0,"timezone":"Africa/Cairo","admin1_name":"Asyut"},{"name":"Al Balyanā","lat":26.23648,"lon":32.00387,"population":68413,"iso_a3":"EGY","country":"Egypt","is_capital":false,"name_en":"Al Balyanā","name_es":"Al Balyanā","name_fr":"Al Balyanā","name_it":"Al Balyanā","name_ru":"Al Balyanā","elevation":74.0,"timezone":"Africa/Cairo","admin1_name":"Sohag"},{"name":"Dishnā","lat":26.12242,"lon":32.46749,"population":64744,"iso_a3":"EGY","country":"Egypt","is_capital":false,"name_en":"Dishnā","name_es":"Dishnā","name_fr":"Dishnā","name_it":"Dishnā","name_ru":"Dishnā","elevation":79.0,"timezone":"Africa/Cairo","admin1_name":"Qena"},{"name":"Nag Hammâdi","lat":26.04949,"lon":32.24142,"population":59601,"iso_a3":"EGY","country":"Egypt","is_capital":false,"name_en":"Nag Hammâdi","name_es":"Nag Hammadi","name_fr":"Nag Hammadi","name_it":"Nag Hammâdi","name_ru":"Nag Hammâdi","elevation":78.0,"timezone":"Africa/Cairo","admin1_name":"Qena"},{"name":"Al Badārī","lat":26.99306,"lon":31.41605,"population":56033,"iso_a3":"EGY","country":"Egypt","is_capital":false,"name_en":"Al Badārī","name_es":"Al Badārī","name_fr":"Al Badārī","name_it":"Al Badārī","name_ru":"Al Badārī","elevation":62.0,"timezone":"Africa/Cairo","admin1_name":"Asyut"},{"name":"Al Marāghah","lat":26.69981,"lon":31.60464,"population":53643,"iso_a3":"EGY","country":"Egypt","is_capital":false,"name_en":"Al Marāghah","name_es":"Al Marāghah","name_fr":"Al Marāghah","name_it":"Al Marāghah","name_ru":"Al Marāghah","elevation":65.0,"timezone":"Africa/Cairo","admin1_name":"Sohag"},{"name":"Dār as Salām","lat":26.27845,"lon":32.05608,"population":38008,"iso_a3":"EGY","country":"Egypt","is_capital":false,"name_en":"Dār as Salām","name_es":"Dār as Salām","name_fr":"Dār as Salām","name_it":"Dār as Salām","name_ru":"Dār as Salām","elevation":69.0,"timezone":"Africa/Cairo","admin1_name":"Sohag"},{"name":"Al Waqf","lat":26.08657,"lon":32.42265,"population":34723,"iso_a3":"EGY","country":"Egypt","is_capital":false,"name_en":"Al Waqf","name_es":"Al Waqf","name_fr":"Al Waqf","name_it":"Al Waqf","name_ru":"Эль-Вакф","elevation":77.0,"timezone":"Africa/Cairo","admin1_name":"Qena"},{"name":"Sāqultah","lat":26.65817,"lon":31.67137,"population":34273,"iso_a3":"EGY","country":"Egypt","is_capital":false,"name_en":"Sāqultah","name_es":"Sāqultah","name_fr":"Sāqultah","name_it":"Sāqultah","name_ru":"Sāqultah","elevation":67.0,"timezone":"Africa/Cairo","admin1_name":"Sohag"},{"name":"Al Başalīyah Baḩrī","lat":25.15,"lon":32.71667,"population":32920,"iso_a3":"EGY","country":"Egypt","is_capital":false,"name_en":"Al Başalīyah Baḩrī","name_es":"Al Başalīyah Baḩrī","name_fr":"Al Başalīyah Baḩrī","name_it":"Al Başalīyah Baḩrī","name_ru":"Al Başalīyah Baḩrī","elevation":84.0,"timezone":"Africa/Cairo","admin1_name":"Aswan"}]