[{"name":"Al Khuşūş","lat":30.15293,"lon":31.31501,"population":488904,"iso_a3":"EGY","country":"Egypt","is_capital":false,"name_en":"Al Khuşūş","name_es":"Al Khuşūş","name_fr":"Al Khuşūş","name_it":"Al Khuşūş","name_ru":"Al Khuşūş","elevation":23.0,"timezone":"Africa/Cairo","admin1_name":"Qalyubia"},{"name":"Zagazig","lat":30.58768,"lon":31.502,"population":430445,"iso_a3":"EGY","country":"Egypt","is_capital":false,"name_en":"Zagazig","name_es":"Zagazig","name_fr":"Zagazig","name_it":"Zagazig","name_ru":"Эз-Заказик","elevation":16.0,"timezone":"Africa/Cairo","admin1_name":"Sharqia"},{"name":"Ismailia","lat":30.60427,"lon":32.27225,"population":429465,"iso_a3":"EGY","country":"Egypt","is_capital":false,"name_en":"Ismailia","name_es":"Ismailía","name_fr":"Ismaïlia","name_it":"Ismailia","name_ru":"Исмаилия","elevation":14.0,"timezone":"Africa/Cairo","admin1_name":"Ismailia"},{"name":"6th of October City","lat":29.81667,"lon":31.05,"population":368650,"iso_a3":"EGY","country":"Egypt","is_capital":false,"name_en":"6th of October City","name_es":"6th of October City","name_fr":"6th of October City","name_it":"6th of October City","name_ru":"6th of October City","elevation":126.0,"timezone":"Africa/Cairo","admin1_name":"Giza"},{"name":"New Cairo","lat":30.03,"lon":31.47,"population":313139,"iso_a3":"EGY","country":"Egypt","is_capital":false,"name_en":"New Cairo","name_es":"New Cairo","name_fr":"New Cairo","name_it":"New Cairo","name_ru":"New Cairo","elevation":271.0,"timezone":"Africa/Cairo","admin1_name":"Cairo"},{"name":"Damietta","lat":31.41648,"lon":31.81332,"population":305920,"iso_a3":"EGY","country":"Egypt","is_capital":false,"name_en":"Damietta","name_es":"Damieta","name_fr":"Damiette","name_it":"Damietta","name_ru":"Думъят","elevation":16.0,"timezone":"Africa/Cairo","admin1_name":"Damietta"},{"name":"Shibīn al Kawm","lat":30.55258,"lon":31.00904,"population":267945,"iso_a3":"EGY","country":"Egypt","is_capital":false,"name_en":"Shibīn al Kawm","name_es":"Shibīn al Kawm","name_fr":"Shibīn al Kawm","name_it":"Shibīn al Kawm","name_ru":"Shibīn al Kawm","elevation":23.0,"timezone":"Africa/Cairo","admin1_name":"Monufia"},{"name":"Al ‘Āshir min Ramaḑān","lat":30.29636,"lon":31.74633,"population":246148,"iso_a3":"EGY","country":"Egypt","is_capital":false,"name_en":"10th of Ramadan City","name_es":"Ciudad del Ramadon 10","name_fr":"Ville de 10 Ramadan","name_it":"Città del decimo Ramadan","name_ru":"Эль-Ашир-мин-Рамадан","elevation":111.0,"timezone":"Africa/Cairo","admin1_name":"Sharqia"},{"name":"Ḩalwān","lat":29.84144,"lon":31.30084,"population":230000,"iso_a3":"EGY","country":"Egypt","is_capital":false,"name_en":"Helwan","name_es":"Helwan","name_fr":"Helwan","name_it":"Helwan","name_ru":"Хелуан","elevation":28.0,"timezone":"Africa/Cairo","admin1_name":"Cairo"},{"name":"Kafr ash Shaykh","lat":31.11174,"lon":30.93991,"population":194569,"iso_a3":"EGY","country":"Egypt","is_capital":false,"name_en":"Kafr ash Shaykh","name_es":"Kafr ash Shaykh","name_fr":"Kafr ash Shaykh","name_it":"Kafr ash Shaykh","name_ru":"Kafr ash Shaykh","elevation":11.0,"timezone":"Africa/Cairo","admin1_name":"Kafr el-Sheikh"},{"name":"Bilbeis","lat":30.42039,"lon":31.56223,"population":185237,"iso_a3":"EGY","country":"Egypt","is_capital":false,"name_en":"Bilbeis","name_es":"Bilbeis","name_fr":"Bilbéïs","name_it":"Bilbeis","name_ru":"Бильбейс","elevation":17.0,"timezone":"Africa/Cairo","admin1_name":"Sharqia"},{"name":"Banhā","lat":30.45977,"lon":31.1842,"population":182254,"iso_a3":"EGY","country":"Egypt","is_capital":false,"name_en":"Banhā","name_es":"Banhā","name_fr":"Banhā","name_it":"Banhā","name_ru":"Бенха","elevation":20.0,"timezone":"Africa/Cairo","admin1_name":"Qalyubia"},{"name":"Al Maţarīyah","lat":31.18287,"lon":32.03108,"population":162045,"iso_a3":"EGY","country":"Egypt","is_capital":false,"name_en":"Al Maţarīyah","name_es":"Al Maţarīyah","name_fr":"Al Maţarīyah","name_it":"Al Maţarīyah","name_ru":"Al Maţarīyah","elevation":10.0,"timezone":"Africa/Cairo","admin1_name":"Dakahlia"},{"name":"Qalyub","lat":30.17922,"lon":31.2056,"population":156363,"iso_a3":"EGY","country":"Egypt","is_capital":false,"name_en":"Qalyub","name_es":"Qalyub","name_fr":"Qalyub","name_it":"Qalyub","name_ru":"Кальюб","elevation":22.0,"timezone":"Africa/Cairo","admin1_name":"Qalyubia"},{"name":"Al Ḩawāmidīyah","lat":29.9,"lon":31.25,"population":155055,"iso_a3":"EGY","country":"Egypt","is_capital":false,"name_en":"Al Ḩawāmidīyah","name_es":"Al Ḩawāmidīyah","name_fr":"Al Ḩawāmidīyah","name_it":"Al Ḩawāmidīyah","name_ru":"Al Ḩawāmidīyah","elevation":23.0,"timezone":"Africa/Cairo","admin1_name":"Giza"},{"name":"Abū Kabīr","lat":30.72508,"lon":31.67148,"population":154466,"iso_a3":"EGY","country":"Egypt","is_capital":false,"name_en":"Abū Kabīr","name_es":"Abū Kabīr","name_fr":"Abū Kabīr","name_it":"Abū Kabīr","name_ru":"Abū Kabīr","elevation":17.0,"timezone":"Africa/Cairo","admin1_name":"Sharqia"},{"name":"Mīt Ghamr","lat":30.71524,"lon":31.2592,"population":153754,"iso_a3":"EGY","country":"Egypt","is_capital":false,"name_en":"Mīt Ghamr","name_es":"Mīt Ghamr","name_fr":"Mīt Ghamr","name_it":"Mīt Ghamr","name_ru":"Mīt Ghamr","elevation":19.0,"timezone":"Africa/Cairo","admin1_name":"Dakahlia"},{"name":"Al-'Ubūr","lat":30.22886,"lon":31.48149,"population":138987,"iso_a3":"EGY","country":"Egypt","is_capital":false,"name_en":"Al-'Ubūr","name_es":"Al-'Ubūr","name_fr":"Al-'Ubūr","name_it":"Al-'Ubūr","name_ru":"Al-'Ubūr","elevation":30.0,"timezone":"Africa/Cairo","admin1_name":"Qalyubia"},{"name":"Kirdāsah","lat":30.03103,"lon":31.11109,"population":137588,"iso_a3":"EGY","country":"Egypt","is_capital":false,"name_en":"Kerdasa","name_es":"Kerdasa","name_fr":"Kerdasa","name_it":"Kerdasa","name_ru":"Kerdasa","elevation":20.0,"timezone":"Africa/Cairo","admin1_name":"Giza"},{"name":"Bilqās","lat":31.21452,"lon":31.35798,"population":137080,"iso_a3":"EGY","country":"Egypt","is_capital":false,"name_en":"Bilqās","name_es":"Bilqās","name_fr":"Bilqās","name_it":"Bilqās","name_ru":"Bilqās","elevation":13.0,"timezone":"Africa/Cairo","admin1_name":"Dakahlia"},{"name":"Al Manzalah","lat":31.15823,"lon":31.936,"population":127394,"iso_a3":"EGY","country":"Egypt","is_capital":false,"name_en":"Al Manzalah","name_es":"Al Manzalah","name_fr":"Al Manzalah","name_it":"Al Manzalah","name_ru":"Al Manzalah","elevation":9.0,"timezone":"Africa/Cairo","admin1_name":"Dakahlia"},{"name":"Ashmūn","lat":30.29735,"lon":30.97641,"population":124483,"iso_a3":"EGY","country":"Egypt","is_capital":false,"name_en":"Ashmūn","name_es":"Ashmūn","name_fr":"Ashmūn","name_it":"Ashmūn","name_ru":"Ashmūn","elevation":19.0,"timezone":"Africa/Cairo","admin1_name":"Monufia"},{"name":"As Sinbillāwayn","lat":30.88251,"lon":31.46275,"population":124020,"iso_a3":"EGY","country":"Egypt","is_capital":false,"name_en":"As Sinbillāwayn","name_es":"As Sinbillāwayn","name_fr":"As Sinbillāwayn","name_it":"As Sinbillāwayn","name_ru":"As Sinbillāwayn","elevation":13.0,"timezone":"Africa/Cairo","admin1_name":"Dakahlia"},{"name":"Fāqūs","lat":30.72816,"lon":31.79697,"population":116945,"iso_a3":"EGY","country":"Egypt","is_capital":false,"name_en":"Fāqūs","name_es":"Fāqūs","name_fr":"Fāqūs","name_it":"Fāqūs","name_ru":"Fāqūs","elevation":15.0,"timezone":"Africa/Cairo","admin1_name":"Sharqia"},{"name":"Dikirnis","lat":31.08898,"lon":31.59478,"population":101082,"iso_a3":"EGY","country":"Egypt","is_capital":false,"name_en":"Dikirnis","name_es":"Dikirnis","name_fr":"Dikirnis","name_it":"Dikirnis","name_ru":"Дикирнис","elevation":13.0,"timezone":"Africa/Cairo","admin1_name":"Dakahlia"},{"name":"Al Jammālīyah","lat":31.18065,"lon":31.86497,"population":99641,"iso_a3":"EGY","country":"Egypt","is_capital":false,"name_en":"Al Jamālīyah","name_es":"Al Jamālīyah","name_fr":"Al Jamālīyah","name_it":"Al Jamālīyah","name_ru":"Эль-Гамалия","elevation":11.0,"timezone":"Africa/Cairo","admin1_name":"Dakahlia"},{"name":"Minyā al Qamḩ","lat":30.51552,"lon":31.34629,"population":99284,"iso_a3":"EGY","country":"Egypt","is_capital":false,"name_en":"Minyā al Qamḩ","name_es":"Minyā al Qamḩ","name_fr":"Minyā al Qamḩ","name_it":"Minyā al Qamḩ","name_ru":"Minyā al Qamḩ","elevation":20.0,"timezone":"Africa/Cairo","admin1_name":"Sharqia"},{"name":"Ash-Shaykh Zāyid","lat":30.02,"lon":31.0,"population":95854,"iso_a3":"EGY","country":"Egypt","is_capital":false,"name_en":"Ash-Shaykh Zāyid","name_es":"Ash-Shaykh Zāyid","name_fr":"Ash-Shaykh Zāyid","name_it":"Ash-Shaykh Zāyid","name_ru":"Ash-Shaykh Zāyid","elevation":133.0,"timezone":"Africa/Cairo","admin1_name":"Giza"},{"name":"Al Qurayn","lat":30.61618,"lon":31.73514,"population":94632,"iso_a3":"EGY","country":"Egypt","is_capital":false,"name_en":"Al Qurayn","name_es":"Al Qurayn","name_fr":"Al Qurayn","name_it":"Al Qurayn","name_ru":"Аль-Эль-Курайн","elevation":12.0,"timezone":"Africa/Cairo","admin1_name":"Sharqia"},{"name":"Awsīm","lat":30.12303,"lon":31.13571,"population":94174,"iso_a3":"EGY","country":"Egypt","is_capital":false,"name_en":"Awsīm","name_es":"Awsīm","name_fr":"Awsīm","name_it":"Awsīm","name_ru":"Awsīm","elevation":25.0,"timezone":"Africa/Cairo","admin1_name":"Giza"},{"name":"El Shorouk","lat":30.13806,"lon":31.61556,"population":91899,"iso_a3":"EGY","country":"Egypt","is_capital":false,"name_en":"El Shorouk","name_es":"El Shorouk","name_fr":"El Shorouk","name_it":"El Shorouk","name_ru":"El Shorouk","elevation":191.0,"timezone":"Africa/Cairo","admin1_name":"Cairo"},{"name":"Biyalā","lat":31.17419,"lon":31.2218,"population":89068,"iso_a3":"EGY","country":"Egypt","is_capital":false,"name_en":"Biyala","name_es":"Biyala","name_fr":"Biyala","name_it":"Biyala","name_ru":"Бияла","elevation":11.0,"timezone":"Africa/Cairo","admin1_name":"Kafr el-Sheikh"},{"name":"Samannūd","lat":30.9616,"lon":31.24069,"population":87921,"iso_a3":"EGY","country":"Egypt","is_capital":false,"name_en":"Samannūd","name_es":"Samannūd","name_fr":"Samannūd","name_it":"Samannūd","name_ru":"Samannūd","elevation":12.0,"timezone":"Africa/Cairo","admin1_name":"Gharbia"},{"name":"Abū an Numrus","lat":29.95,"lon":31.2,"population":86601,"iso_a3":"EGY","country":"Egypt","is_capital":false,"name_en":"Abū an Numrus","name_es":"Abū an Numrus","name_fr":"Abū an Numrus","name_it":"Abū an Numrus","name_ru":"Abū an Numrus","elevation":18.0,"timezone":"Africa/Cairo","admin1_name":"Giza"},{"name":"Al Qanāţir al Khayrīyah","lat":30.19327,"lon":31.13703,"population":83568,"iso_a3":"EGY","country":"Egypt","is_capital":false,"name_en":"Al Qanāţir al Khayrīyah","name_es":"Al Qanāţir al Khayrīyah","name_fr":"Al Qanāţir al Khayrīyah","name_it":"Al Qanāţir al Khayrīyah","name_ru":"Al Qanāţir al Khayrīyah","elevation":20.0,"timezone":"Africa/Cairo","admin1_name":"Qalyubia"},{"name":"Minyat an Naşr","lat":31.12624,"lon":31.64313,"population":82429,"iso_a3":"EGY","country":"Egypt","is_capital":false,"name_en":"Minyat an Naşr","name_es":"Minyat an Naşr","name_fr":"Minyat an Naşr","name_it":"Minyat an Naşr","name_ru":"Minyat an Naşr","elevation":4.0,"timezone":"Africa/Cairo","admin1_name":"Dakahlia"},{"name":"Al Khānkah","lat":30.21035,"lon":31.36812,"population":81646,"iso_a3":"EGY","country":"Egypt","is_capital":false,"name_en":"Al Khānkah","name_es":"Al Khānkah","name_fr":"Al Khānkah","name_it":"Al Khānkah","name_ru":"Al Khānkah","elevation":19.0,"timezone":"Africa/Cairo","admin1_name":"Qalyubia"},{"name":"Diyarb Najm","lat":30.75438,"lon":31.44016,"population":80954,"iso_a3":"EGY","country":"Egypt","is_capital":false,"name_en":"Diyarb Najm","name_es":"Diyarb Najm","name_fr":"Diyarb Najm","name_it":"Diyarb Najm","name_ru":"Diyarb Najm","elevation":10.0,"timezone":"Africa/Cairo","admin1_name":"Sharqia"},{"name":"Shirbīn","lat":31.19688,"lon":31.5243,"population":76081,"iso_a3":"EGY","country":"Egypt","is_capital":false,"name_en":"Sherbin","name_es":"Sherbin","name_fr":"Sherbin","name_it":"Sherbin","name_ru":"Ширбин","elevation":11.0,"timezone":"Africa/Cairo","admin1_name":"Dakahlia"},{"name":"Mashtūl as Sūq","lat":30.36056,"lon":31.3776,"population":75837,"iso_a3":"EGY","country":"Egypt","is_capital":false,"name_en":"Mashtūl as Sūq","name_es":"Mashtūl as Sūq","name_fr":"Mashtūl as Sūq","name_it":"Mashtūl as Sūq","name_ru":"Mashtūl as Sūq","elevation":15.0,"timezone":"Africa/Cairo","admin1_name":"Sharqia"},{"name":"Hihyā","lat":30.6713,"lon":31.58801,"population":74823,"iso_a3":"EGY","country":"Egypt","is_capital":false,"name_en":"Hihyā","name_es":"Hihyā","name_fr":"Hihyā","name_it":"Hihyā","name_ru":"Hihyā","elevation":14.0,"timezone":"Africa/Cairo","admin1_name":"Sharqia"},{"name":"Shibīn al Qanāţir","lat":30.31269,"lon":31.32018,"population":73711,"iso_a3":"EGY","country":"Egypt","is_capital":false,"name_en":"Shibîn el-Qanâṭir","name_es":"Shibîn el-Qanâṭir","name_fr":"Shibîn el-Qanâṭir","name_it":"Shibîn el-Qanâṭir","name_ru":"Shibîn el-Qanâṭir","elevation":20.0,"timezone":"Africa/Cairo","admin1_name":"Qalyubia"},{"name":"Talā","lat":30.6798,"lon":30.94364,"population":72536,"iso_a3":"EGY","country":"Egypt","is_capital":false,"name_en":"Tala","name_es":"Tala","name_fr":"Tala","name_it":"Tala","name_ru":"Тале","elevation":16.0,"timezone":"Africa/Cairo","admin1_name":"Monufia"},{"name":"Al Qanāyāt","lat":30.61927,"lon":31.46165,"population":70687,"iso_a3":"EGY","country":"Egypt","is_capital":false,"name_en":"Al Qanāyāt","name_es":"Al Qanāyāt","name_fr":"Al Qanāyāt","name_it":"Al Qanāyāt","name_ru":"Al Qanāyāt","elevation":15.0,"timezone":"Africa/Cairo","admin1_name":"Sharqia"},{"name":"Quwaysinā","lat":30.56482,"lon":31.15777,"population":65690,"iso_a3":"EGY","country":"Egypt","is_capital":false,"name_en":"Quweisna","name_es":"Quweisna","name_fr":"Quweisna","name_it":"Quweisna","name_ru":"Кувейсина","elevation":15.0,"timezone":"Africa/Cairo","admin1_name":"Monufia"},{"name":"Al Bājūr","lat":30.43046,"lon":31.03679,"population":62961,"iso_a3":"EGY","country":"Egypt","is_capital":false,"name_en":"Al Bājūr","name_es":"Al Bājūr","name_fr":"Al Bājūr","name_it":"Al Bājūr","name_ru":"Al Bājūr","elevation":15.0,"timezone":"Africa/Cairo","admin1_name":"Monufia"},{"name":"Aş Şaff","lat":29.56472,"lon":31.28111,"population":61531,"iso_a3":"EGY","country":"Egypt","is_capital":false,"name_en":"Aş Şaff","name_es":"Aş Şaff","name_fr":"Aş Şaff","name_it":"Aş Şaff","name_ru":"Aş Şaff","elevation":27.0,"timezone":"Africa/Cairo","admin1_name":"Giza"},{"name":"Al Burj","lat":31.58229,"lon":30.98095,"population":60320,"iso_a3":"EGY","country":"Egypt","is_capital":false,"name_en":"Al Burj","name_es":"Al Burj","name_fr":"Al Burj","name_it":"Al Burj","name_ru":"Al Burj","elevation":4.0,"timezone":"Africa/Cairo","admin1_name":"Kafr el-Sheikh"},{"name":"Aş Şāliḩīyah al Jadīdah","lat":30.63146,"lon":31.93927,"population":59320,"iso_a3":"EGY","country":"Egypt","is_capital":false,"name_en":"Aş Şāliḩīyah al Jadīdah","name_es":"Aş Şāliḩīyah al Jadīdah","name_fr":"Aş Şāliḩīyah al Jadīdah","name_it":"Aş Şāliḩīyah al Jadīdah","name_ru":"Aş Şāliḩīyah al Jadīdah","elevation":26.0,"timezone":"Africa/Cairo","admin1_name":"Sharqia"},{"name":"Nabarūh","lat":31.09755,"lon":31.30312,"population":59202,"iso_a3":"EGY","country":"Egypt","is_capital":false,"name_en":"Nabarūh","name_es":"Nabarūh","name_fr":"Nabarūh","name_it":"Nabarūh","name_ru":"Nabarūh","elevation":16.0,"timezone":"Africa/Cairo","admin1_name":"Dakahlia"},{"name":"Al Ḩāmūl","lat":31.31146,"lon":31.14766,"population":58430,"iso_a3":"EGY","country":"Egypt","is_capital":false,"name_en":"Al Ḩāmūl","name_es":"Al Ḩāmūl","name_fr":"Al Ḩāmūl","name_it":"Al Ḩāmūl","name_ru":"Al Ḩāmūl","elevation":5.0,"timezone":"Africa/Cairo","admin1_name":"Kafr el-Sheikh"},{"name":"Dumyāţ al Jadīdah","lat":31.43482,"lon":31.67506,"population":54508,"iso_a3":"EGY","country":"Egypt","is_capital":false,"name_en":"Dumyāţ al Jadīdah","name_es":"Dumyāţ al Jadīdah","name_fr":"Dumyāţ al Jadīdah","name_it":"Dumyāţ al Jadīdah","name_ru":"Dumyāţ al Jadīdah","elevation":5.0,"timezone":"Africa/Cairo","admin1_name":"Damietta"},{"name":"Al Ibrāhīmīyah","lat":30.71877,"lon":31.56299,"population":53791,"iso_a3":"EGY","country":"Egypt","is_capital":false,"name_en":"Al Ibrāhīmīyah","name_es":"Al Ibrāhīmīyah","name_fr":"Al Ibrāhīmīyah","name_it":"Al Ibrāhīmīyah","name_ru":"Al Ibrāhīmīyah","elevation":14.0,"timezone":"Africa/Cairo","admin1_name":"Sharqia"},{"name":"Ţūkh","lat":30.35487,"lon":31.20105,"population":52593,"iso_a3":"EGY","country":"Egypt","is_capital":false,"name_en":"Toukh","name_es":"Toukh","name_fr":"Toukh","name_it":"Toukh","name_ru":"Тух","elevation":21.0,"timezone":"Africa/Cairo","admin1_name":"Qalyubia"},{"name":"Balţīm","lat":31.55582,"lon":31.08918,"population":51280,"iso_a3":"EGY","country":"Egypt","is_capital":false,"name_en":"Balţīm","name_es":"Balţīm","name_fr":"Balţīm","name_it":"Balţīm","name_ru":"Balţīm","elevation":16.0,"timezone":"Africa/Cairo","admin1_name":"Kafr el-Sheikh"},{"name":"Birkat as Sab‘","lat":30.62914,"lon":31.08235,"population":50924,"iso_a3":"EGY","country":"Egypt","is_capital":false,"name_en":"Birkat as Sab‘","name_es":"Birkat as Sab‘","name_fr":"Birkat as Sab‘","name_it":"Birkat as Sab‘","name_ru":"Birkat as Sab‘","elevation":14.0,"timezone":"Africa/Cairo","admin1_name":"Monufia"},{"name":"Al Ḩusaynīyah","lat":30.86163,"lon":31.91809,"population":50651,"iso_a3":"EGY","country":"Egypt","is_capital":false,"name_en":"Al Ḩusaynīyah","name_es":"Al Ḩusaynīyah","name_fr":"Al Ḩusaynīyah","name_it":"Al Ḩusaynīyah","name_ru":"Al Ḩusaynīyah","elevation":15.0,"timezone":"Africa/Cairo","admin1_name":"Sharqia"},{"name":"Mīt Salsīl","lat":31.16757,"lon":31.80125,"population":48166,"iso_a3":"EGY","country":"Egypt","is_capital":false,"name_en":"Mīt Salsīl","name_es":"Mīt Salsīl","name_fr":"Mīt Salsīl","name_it":"Mīt Salsīl","name_ru":"Mīt Salsīl","elevation":10.0,"timezone":"Africa/Cairo","admin1_name":"Dakahlia"},{"name":"Kafr al Baţţīkh","lat":31.40398,"lon":31.73778,"population":47198,"iso_a3":"EGY","country":"Egypt","is_capital":false,"name_en":"Kafr al Baţţīkh","name_es":"Kafr al Baţţīkh","name_fr":"Kafr al Baţţīkh","name_it":"Kafr al Baţţīkh","name_ru":"Kafr al Baţţīkh","elevation":5.0,"timezone":"Africa/Cairo","admin1_name":"Damietta"},{"name":"Aga","lat":30.94162,"lon":31.29039,"population":47013,"iso_a3":"EGY","country":"Egypt","is_capital":false,"name_en":"Aga","name_es":"Aga","name_fr":"Aga","name_it":"Aga","name_ru":"Айа","elevation":12.0,"timezone":"Africa/Cairo","admin1_name":"Dakahlia"},{"name":"At Tall al Kabīr","lat":30.54323,"lon":31.78504,"population":46962,"iso_a3":"EGY","country":"Egypt","is_capital":false,"name_en":"At Tall al Kabīr","name_es":"At Tall al Kabīr","name_fr":"At Tall al Kabīr","name_it":"At Tall al Kabīr","name_ru":"At Tall al Kabīr","elevation":12.0,"timezone":"Africa/Cairo","admin1_name":"Sharqia"},{"name":"As Sanţah","lat":30.74614,"lon":31.12964,"population":45813,"iso_a3":"EGY","country":"Egypt","is_capital":false,"name_en":"As Sanţah","name_es":"As Sanţah","name_fr":"As Sanţah","name_it":"As Sanţah","name_ru":"As Sanţah","elevation":11.0,"timezone":"Africa/Cairo","admin1_name":"Gharbia"},{"name":"Al ‘Ayyāţ","lat":29.61972,"lon":31.2575,"population":45793,"iso_a3":"EGY","country":"Egypt","is_capital":false,"name_en":"Al ‘Ayyāţ","name_es":"Al ‘Ayyāţ","name_fr":"Al ‘Ayyāţ","name_it":"Al ‘Ayyāţ","name_ru":"Al ‘Ayyāţ","elevation":25.0,"timezone":"Africa/Cairo","admin1_name":"Giza"},{"name":"Aş Şalāḩāt","lat":31.00205,"lon":31.62626,"population":45557,"iso_a3":"EGY","country":"Egypt","is_capital":false,"name_en":"Aş Şalāḩāt","name_es":"Aş Şalāḩāt","name_fr":"Aş Şalāḩāt","name_it":"Aş Şalāḩāt","name_ru":"Aş Şalāḩāt","elevation":7.0,"timezone":"Africa/Cairo","admin1_name":"Dakahlia"},{"name":"Al ‘Ayn as Sukhnah","lat":29.58902,"lon":32.33597,"population":45552,"iso_a3":"EGY","country":"Egypt","is_capital":false,"name_en":"Al ‘Ayn as Sukhnah","name_es":"Al ‘Ayn as Sukhnah","name_fr":"Al ‘Ayn as Sukhnah","name_it":"Al ‘Ayn as Sukhnah","name_ru":"Al ‘Ayn as Sukhnah","elevation":8.0,"timezone":"Africa/Cairo","admin1_name":"Suez"},{"name":"Kafr Şaqr","lat":30.79336,"lon":31.62575,"population":44529,"iso_a3":"EGY","country":"Egypt","is_capital":false,"name_en":"Kafr Şaqr","name_es":"Kafr Şaqr","name_fr":"Kafr Şaqr","name_it":"Kafr Şaqr","name_ru":"Kafr Şaqr","elevation":11.0,"timezone":"Africa/Cairo","admin1_name":"Sharqia"},{"name":"Fāraskūr","lat":31.32977,"lon":31.71507,"population":43400,"iso_a3":"EGY","country":"Egypt","is_capital":false,"name_en":"Fāraskūr","name_es":"Fāraskūr","name_fr":"Fāraskūr","name_it":"Fāraskūr","name_ru":"Fāraskūr","elevation":15.0,"timezone":"Africa/Cairo","admin1_name":"Damietta"},{"name":"Abū Ḩammād","lat":30.53766,"lon":31.67875,"population":43001,"iso_a3":"EGY","country":"Egypt","is_capital":false,"name_en":"Abū Ḩammād","name_es":"Abū Ḩammād","name_fr":"Abū Ḩammād","name_it":"Abū Ḩammād","name_ru":"Abū Ḩammād","elevation":19.0,"timezone":"Africa/Cairo","admin1_name":"Sharqia"},{"name":"‘Izbat al Burj","lat":31.5084,"lon":31.84106,"population":37953,"iso_a3":"EGY","country":"Egypt","is_capital":false,"name_en":"Ezbet el-Burg","name_es":"Ezbet el-Burg","name_fr":"Ezbet el-Burg","name_it":"Ezbet el-Burg","name_ru":"Ezbet el-Burg","elevation":8.0,"timezone":"Africa/Cairo","admin1_name":"Dakahlia"},{"name":"Qahā","lat":30.28011,"lon":31.20531,"population":36225,"iso_a3":"EGY","country":"Egypt","is_capital":false,"name_en":"Qahā","name_es":"Qahā","name_fr":"Qahā","name_it":"Qahā","name_ru":"Qahā","elevation":22.0,"timezone":"Africa/Cairo","admin1_name":"Qalyubia"},{"name":"Fāyīd","lat":30.31263,"lon":32.30935,"population":35066,"iso_a3":"EGY","country":"Egypt","is_capital":false,"name_en":"Fāyīd","name_es":"Fāyīd","name_fr":"Fāyīd","name_it":"Fāyīd","name_ru":"Fāyīd","elevation":23.0,"timezone":"Africa/Cairo","admin1_name":"Ismailia"},{"name":"Badr","lat":30.136,"lon":31.715,"population":32940,"iso_a3":"EGY","country":"Egypt","is_capital":false,"name_en":"Badr","name_es":"Badr","name_fr":"Badr","name_it":"Badr","name_ru":"Badr","elevation":216.0,"timezone":"Africa/Cairo","admin1_name":"Cairo"},{"name":"Awlād Şaqr","lat":30.93055,"lon":31.69864,"population":32840,"iso_a3":"EGY","country":"Egypt","is_capital":false,"name_en":"Awlād Şaqr","name_es":"Awlād Şaqr","name_fr":"Awlād Şaqr","name_it":"Awlād Şaqr","name_ru":"Awlād Şaqr","elevation":8.0,"timezone":"Africa/Cairo","admin1_name":"Sharqia"},{"name":"Abu Suweir-el-Mahatta","lat":30.56977,"lon":32.1146,"population":32763,"iso_a3":"EGY","country":"Egypt","is_capital":false,"name_en":"Abu Suweir-el-Mahatta","name_es":"Abu Suweir-el-Mahatta","name_fr":"Abu Suweir-el-Mahatta","name_it":"Abu Suweir-el-Mahatta","name_ru":"Abu Suweir-el-Mahatta","elevation":12.0,"timezone":"Africa/Cairo","admin1_name":"Sharqia"},{"name":"Quţūr","lat":30.97225,"lon":30.95614,"population":32043,"iso_a3":"EGY","country":"Egypt","is_capital":false,"name_en":"Quţūr","name_es":"Quţūr","name_fr":"Quţūr","name_it":"Quţūr","name_ru":"Quţūr","elevation":9.0,"timezone":"Africa/Cairo","admin1_name":"Gharbia"},{"name":"Maḩallat Damanah","lat":31.07287,"lon":31.49503,"population":31921,"iso_a3":"EGY","country":"Egypt","is_capital":false,"name_en":"Maḩallat Damanah","name_es":"Maḩallat Damanah","name_fr":"Maḩallat Damanah","name_it":"Maḩallat Damanah","name_ru":"Maḩallat Damanah","elevation":13.0,"timezone":"Africa/Cairo","admin1_name":"Dakahlia"},{"name":"Al Qanţarah","lat":30.85711,"lon":32.31183,"population":31808,"iso_a3":"EGY","country":"Egypt","is_capital":false,"name_en":"Al Qanţarah","name_es":"Al Qanţarah","name_fr":"Al Qanţarah","name_it":"Al Qanţarah","name_ru":"Al Qanţarah","elevation":6.0,"timezone":"Africa/Cairo","admin1_name":"Ismailia"},{"name":"Şān al Ḩajar al Qiblīyah","lat":30.97478,"lon":31.87231,"population":30969,"iso_a3":"EGY","country":"Egypt","is_capital":false,"name_en":"Tanis","name_es":"Tanis","name_fr":"Tanis","name_it":"Tanis","name_ru":"Танис","elevation":5.0,"timezone":"Africa/Cairo","admin1_name":"Sharqia"},{"name":"Kafr Shukr","lat":30.54972,"lon":31.24444,"population":30948,"iso_a3":"EGY","country":"Egypt","is_capital":false,"name_en":"Kafr Shukr","name_es":"Kafr Shukr","name_fr":"Kafr Shukr","name_it":"Kafr Shukr","name_ru":"Kafr Shukr","elevation":17.0,"timezone":"Africa/Cairo","admin1_name":"Monufia"}]