[{"name":"Kosti","lat":13.1629,"lon":32.66347,"population":345068,"iso_a3":"SDN","country":"Sudan","is_capital":false,"name_en":"Kūstī","name_es":"Kūstī","name_fr":"Kūstī","name_it":"Kūstī","name_ru":"Кусти","elevation":387.0,"timezone":"Africa/Khartoum","admin1_name":"White Nile"},{"name":"Rabak","lat":13.18087,"lon":32.73999,"population":135281,"iso_a3":"SDN","country":"Sudan","is_capital":false,"name_en":"Rabak","name_es":"Rabak","name_fr":"Rabak","name_it":"Rabak","name_ru":"Рабак","elevation":399.0,"timezone":"Africa/Khartoum","admin1_name":"White Nile"},{"name":"Sennar","lat":13.56907,"lon":33.56718,"population":130122,"iso_a3":"SDN","country":"Sudan","is_capital":false,"name_en":"Sennar","name_es":"Sennar","name_fr":"Sennar","name_it":"Sennar","name_ru":"Сеннар","elevation":427.0,"timezone":"Africa/Khartoum","admin1_name":"Sennar"},{"name":"Umm Ruwaba","lat":12.9061,"lon":31.2158,"population":56833,"iso_a3":"SDN","country":"Sudan","is_capital":false,"name_en":"Umm Ruwaba","name_es":"Umm Ruwaba","name_fr":"Umm Ruwaba","name_it":"Umm Ruwaba","name_ru":"Умм-Руваба","elevation":457.0,"timezone":"Africa/Khartoum","admin1_name":"North Kordofan"},{"name":"Abu Jibeha","lat":11.4562,"lon":31.2285,"population":47188,"iso_a3":"SDN","country":"Sudan","is_capital":false,"name_en":"Abu Jibeha","name_es":"Abu Jibeha","name_fr":"Abu Jibeha","name_it":"Abu Jibeha","name_ru":"Abu Jibeha","elevation":573.0,"timezone":"Africa/Khartoum","admin1_name":"Southern Kordofan"},{"name":"Tandaltī","lat":13.01667,"lon":31.86667,"population":31329,"iso_a3":"SDN","country":"Sudan","is_capital":false,"name_en":"Tandaltī","name_es":"Tandaltī","name_fr":"Tandaltī","name_it":"Tandaltī","name_ru":"Tandaltī","elevation":422.0,"timezone":"Africa/Khartoum","admin1_name":"White Nile"}]