[{"name":"Banī Suwayf","lat":29.07441,"lon":31.09785,"population":273151,"iso_a3":"EGY","country":"Egypt","is_capital":false,"name_en":"Banī Suwayf","name_es":"Banī Suwayf","name_fr":"Banī Suwayf","name_it":"Banī Suwayf","name_ru":"Banī Suwayf","elevation":33.0,"timezone":"Africa/Cairo","admin1_name":"Beni Suweif"},{"name":"Būsh","lat":29.14816,"lon":31.12733,"population":136441,"iso_a3":"EGY","country":"Egypt","is_capital":false,"name_en":"Būsh","name_es":"Būsh","name_fr":"Būsh","name_it":"Būsh","name_ru":"Būsh","elevation":31.0,"timezone":"Africa/Cairo","admin1_name":"Beni Suweif"},{"name":"Manfalūţ","lat":27.3126,"lon":30.96987,"population":117925,"iso_a3":"EGY","country":"Egypt","is_capital":false,"name_en":"Manfalūţ","name_es":"Manfalūţ","name_fr":"Manfalūţ","name_it":"Manfalūţ","name_ru":"Manfalūţ","elevation":58.0,"timezone":"Africa/Cairo","admin1_name":"Asyut"},{"name":"Abnūb","lat":27.26881,"lon":31.15232,"population":111785,"iso_a3":"EGY","country":"Egypt","is_capital":false,"name_en":"Abnūb","name_es":"Abnūb","name_fr":"Abnūb","name_it":"Abnūb","name_ru":"Abnūb","elevation":55.0,"timezone":"Africa/Cairo","admin1_name":"Asyut"},{"name":"Bibā","lat":28.92406,"lon":30.98544,"population":94677,"iso_a3":"EGY","country":"Egypt","is_capital":false,"name_en":"Bibā","name_es":"Bibā","name_fr":"Bibā","name_it":"Bibā","name_ru":"Bibā","elevation":35.0,"timezone":"Africa/Cairo","admin1_name":"Beni Suweif"},{"name":"Ţāmiyah","lat":29.47639,"lon":30.96119,"population":73070,"iso_a3":"EGY","country":"Egypt","is_capital":false,"name_en":"Ţāmiyah","name_es":"Ţāmiyah","name_fr":"Ţāmiyah","name_it":"Ţāmiyah","name_ru":"Ţāmiyah","elevation":-6.0,"timezone":"Africa/Cairo","admin1_name":"Faiyum"},{"name":"Ihnāsīyah","lat":29.09285,"lon":31.02043,"population":64058,"iso_a3":"EGY","country":"Egypt","is_capital":false,"name_en":"Ihnāsīyah","name_es":"Ihnāsīyah","name_fr":"Ihnāsīyah","name_it":"Ihnāsīyah","name_ru":"Ihnāsīyah","elevation":28.0,"timezone":"Africa/Cairo","admin1_name":"Beni Suweif"},{"name":"Al Wāsiţah","lat":29.33778,"lon":31.20556,"population":57870,"iso_a3":"EGY","country":"Egypt","is_capital":false,"name_en":"Al Wāsiţah","name_es":"Al Wāsiţah","name_fr":"Al Wāsiţah","name_it":"Al Wāsiţah","name_ru":"Al Wāsiţah","elevation":33.0,"timezone":"Africa/Cairo","admin1_name":"Faiyum"},{"name":"Zaafarana","lat":29.11007,"lon":32.66012,"population":46993,"iso_a3":"EGY","country":"Egypt","is_capital":false,"name_en":"Zaafarana","name_es":"Zaafarana","name_fr":"Zaafarana","name_it":"Zaafarana","name_ru":"Zaafarana","elevation":6.0,"timezone":"Africa/Cairo","admin1_name":"Red Sea"},{"name":"Ras Gharib","lat":28.35831,"lon":33.07829,"population":44852,"iso_a3":"EGY","country":"Egypt","is_capital":false,"name_en":"Ras Gharib","name_es":"Ras Gharib","name_fr":"Ras Gharib","name_it":"Ras Gharib","name_ru":"Ras Gharib","elevation":16.0,"timezone":"Africa/Cairo","admin1_name":"Red Sea"},{"name":"El-Tor","lat":28.24168,"lon":33.6222,"population":38285,"iso_a3":"EGY","country":"Egypt","is_capital":false,"name_en":"El-Tor","name_es":"El-Tor","name_fr":"El-Tor","name_it":"El-Tor","name_ru":"El-Tor","elevation":14.0,"timezone":"Africa/Cairo","admin1_name":"South Sinai"}]