[{"name":"Bukoba","lat":-1.33167,"lon":31.81222,"population":144938,"iso_a3":"TZA","country":"Tanzania","is_capital":false,"name_en":"Bukoba","name_es":"Bukoba","name_fr":"Bukoba","name_it":"Bukoba","name_ru":"Букоба","elevation":1149.0,"timezone":"Africa/Dar_es_Salaam","admin1_name":"Kagera"},{"name":"Sengerema","lat":-2.66667,"lon":32.65,"population":110000,"iso_a3":"TZA","country":"Tanzania","is_capital":false,"name_en":"Sengerema","name_es":"Sengerema","name_fr":"Sengerema","name_it":"Sengerema","name_ru":"Sengerema","elevation":1254.0,"timezone":"Africa/Dar_es_Salaam","admin1_name":"Mwanza"},{"name":"Nansio","lat":-2.13333,"lon":33.05,"population":44000,"iso_a3":"TZA","country":"Tanzania","is_capital":false,"name_en":"Nansio","name_es":"Nansio","name_fr":"Nansio","name_it":"Nansio","name_ru":"Nansio","elevation":1134.0,"timezone":"Africa/Dar_es_Salaam","admin1_name":"Mara"},{"name":"Magu","lat":-2.59075,"lon":33.44619,"population":35000,"iso_a3":"TZA","country":"Tanzania","is_capital":false,"name_en":"Magu","name_es":"Magu","name_fr":"Magu","name_it":"Magu","name_ru":"Magu","elevation":1154.0,"timezone":"Africa/Dar_es_Salaam","admin1_name":"Mwanza"},{"name":"Biharamulo","lat":-2.63194,"lon":31.30889,"population":34038,"iso_a3":"TZA","country":"Tanzania","is_capital":false,"name_en":"Biharamulo","name_es":"Biharamulo","name_fr":"Biharamulo","name_it":"Biharamulo","name_ru":"Бихарамуло","elevation":1479.0,"timezone":"Africa/Dar_es_Salaam","admin1_name":"Kagera"},{"name":"Kisesa","lat":-2.55,"lon":33.03333,"population":30000,"iso_a3":"TZA","country":"Tanzania","is_capital":false,"name_en":"Kisesa","name_es":"Kisesa","name_fr":"Kisesa","name_it":"Kisesa","name_ru":"Kisesa","elevation":1306.0,"timezone":"Africa/Dar_es_Salaam","admin1_name":"Mwanza"},{"name":"Chato","lat":-2.63778,"lon":31.76694,"population":30000,"iso_a3":"TZA","country":"Tanzania","is_capital":false,"name_en":"Chato","name_es":"Chato","name_fr":"Chato","name_it":"Chato","name_ru":"Chato","elevation":1150.0,"timezone":"Africa/Dar_es_Salaam","admin1_name":"Geita"},{"name":"Masaka","lat":-0.33379,"lon":31.73409,"population":116600,"iso_a3":"UGA","country":"Uganda","is_capital":false,"name_en":"Masaka","name_es":"Masaka","name_fr":"Masaka","name_it":"Masaka","name_ru":"Масаки","elevation":1292.0,"timezone":"Africa/Kampala","admin1_name":"Central Region"},{"name":"Nakivale Refugee Camp","lat":-0.74064,"lon":30.99632,"population":68400,"iso_a3":"UGA","country":"Uganda","is_capital":false,"name_en":"Nakivale Refugee Camp","name_es":"Nakivale Refugee Camp","name_fr":"Nakivale Refugee Camp","name_it":"Nakivale Refugee Camp","name_ru":"Nakivale Refugee Camp","elevation":1278.0,"timezone":"Africa/Kampala","admin1_name":"Western Region"}]