[{"name":"Tunduma","lat":-9.3,"lon":32.76667,"population":219309,"iso_a3":"TZA","country":"Tanzania","is_capital":false,"name_en":"Tunduma","name_es":"Tunduma","name_fr":"Tunduma","name_it":"Tunduma","name_ru":"Tunduma","elevation":1698.0,"timezone":"Africa/Dar_es_Salaam","admin1_name":"Songwe"},{"name":"Katumba","lat":-9.23333,"lon":33.61667,"population":108558,"iso_a3":"TZA","country":"Tanzania","is_capital":false,"name_en":"Katumba","name_es":"Katumba","name_fr":"Katumba","name_it":"Katumba","name_ru":"Катумба","elevation":1387.0,"timezone":"Africa/Dar_es_Salaam","admin1_name":"Mbeya"},{"name":"Vwawa","lat":-9.10806,"lon":32.93472,"population":85000,"iso_a3":"TZA","country":"Tanzania","is_capital":false,"name_en":"Vwawa","name_es":"Vwawa","name_fr":"Vwawa","name_it":"Vwawa","name_ru":"Vwawa","elevation":1577.0,"timezone":"Africa/Dar_es_Salaam","admin1_name":"Songwe"},{"name":"Utengule","lat":-8.9,"lon":33.33333,"population":50000,"iso_a3":"TZA","country":"Tanzania","is_capital":false,"name_en":"Utengule","name_es":"Utengule","name_fr":"Utengule","name_it":"Utengule","name_ru":"Utengule","elevation":1397.0,"timezone":"Africa/Dar_es_Salaam","admin1_name":"Mbeya"},{"name":"Mlowo","lat":-9.0,"lon":32.98333,"population":40000,"iso_a3":"TZA","country":"Tanzania","is_capital":false,"name_en":"Mlowo","name_es":"Mlowo","name_fr":"Mlowo","name_it":"Mlowo","name_ru":"Mlowo","elevation":1591.0,"timezone":"Africa/Dar_es_Salaam","admin1_name":"Songwe"},{"name":"Kasama","lat":-10.21289,"lon":31.18084,"population":179636,"iso_a3":"ZMB","country":"Zambia","is_capital":false,"name_en":"Kasama","name_es":"Kasama","name_fr":"Kasama","name_it":"Arcidiocesi di Kasama","name_ru":"Касама","elevation":1394.0,"timezone":"Africa/Lusaka"},{"name":"Nakonde","lat":-9.34213,"lon":32.745,"population":91107,"iso_a3":"ZMB","country":"Zambia","is_capital":false,"name_en":"Nakonde","name_es":"Nakonde","name_fr":"Nakonde","name_it":"Nakonde","name_ru":"Nakonde","elevation":1589.0,"timezone":"Africa/Lusaka","admin1_name":"Muchinga"},{"name":"Mpulungu","lat":-8.76234,"lon":31.11405,"population":55405,"iso_a3":"ZMB","country":"Zambia","is_capital":false,"name_en":"Mpulungu","name_es":"Mpulungu","name_fr":"Mpulungu","name_it":"Mpulungu","name_ru":"Mpulungu","elevation":800.0,"timezone":"Africa/Lusaka"},{"name":"Mbala","lat":-8.84024,"lon":31.36587,"population":42424,"iso_a3":"ZMB","country":"Zambia","is_capital":false,"name_en":"Mbala","name_es":"Mbala","name_fr":"Mbala","name_it":"Mbala","name_ru":"Мбала","elevation":1622.0,"timezone":"Africa/Lusaka"},{"name":"Chinsali","lat":-10.54142,"lon":32.08162,"population":38805,"iso_a3":"ZMB","country":"Zambia","is_capital":false,"name_en":"Chinsali","name_es":"Chinsali","name_fr":"Chinsali","name_it":"Chinsali","name_ru":"Chinsali","elevation":1286.0,"timezone":"Africa/Lusaka","admin1_name":"Muchinga"},{"name":"Isoka","lat":-10.16062,"lon":32.63353,"population":31739,"iso_a3":"ZMB","country":"Zambia","is_capital":false,"name_en":"Isoka","name_es":"Isoka","name_fr":"Isoka","name_it":"Isoka","name_ru":"Isoka","elevation":1321.0,"timezone":"Africa/Lusaka","admin1_name":"Muchinga"}]