[{"name":"Kira","lat":0.4,"lon":32.63333,"population":462900,"iso_a3":"UGA","country":"Uganda","is_capital":false,"name_en":"Kira","name_es":"Kira","name_fr":"Kira","name_it":"Kira","name_ru":"Kira","elevation":1168.0,"timezone":"Africa/Kampala","admin1_name":"Central Region"},{"name":"Bunamwaya","lat":0.25344,"lon":32.55723,"population":413400,"iso_a3":"UGA","country":"Uganda","is_capital":false,"name_en":"Bunamwaya","name_es":"Bunamwaya","name_fr":"Bunamwaya","name_it":"Bunamwaya","name_ru":"Bunamwaya","elevation":1203.0,"timezone":"Africa/Kampala","admin1_name":"Central Region"},{"name":"Kyengera","lat":0.29517,"lon":32.50159,"population":285400,"iso_a3":"UGA","country":"Uganda","is_capital":false,"name_en":"Kyengera","name_es":"Kyengera","name_fr":"Kyengera","name_it":"Kyengera","name_ru":"Kyengera","elevation":1176.0,"timezone":"Africa/Kampala","admin1_name":"Central Region"},{"name":"Kasangati","lat":0.43803,"lon":32.60246,"population":207800,"iso_a3":"UGA","country":"Uganda","is_capital":false,"name_en":"Kasangati","name_es":"Kasangati","name_fr":"Kasangati","name_it":"Kasangati","name_ru":"Kasangati","elevation":1182.0,"timezone":"Africa/Kampala","admin1_name":"Central Region"},{"name":"Mukono","lat":0.35333,"lon":32.75528,"population":191300,"iso_a3":"UGA","country":"Uganda","is_capital":false,"name_en":"Mukono","name_es":"Mukono","name_fr":"Mukono","name_it":"Mukono","name_ru":"Mukono","elevation":1188.0,"timezone":"Africa/Kampala","admin1_name":"Central Region"},{"name":"Gulu","lat":2.77457,"lon":32.29899,"population":177400,"iso_a3":"UGA","country":"Uganda","is_capital":false,"name_en":"Gulu","name_es":"Gulu","name_fr":"Gulu","name_it":"Gulu","name_ru":"Гул","elevation":1104.0,"timezone":"Africa/Kampala","admin1_name":"Northern Region"},{"name":"Katabi","lat":0.08411,"lon":32.46972,"population":154300,"iso_a3":"UGA","country":"Uganda","is_capital":false,"name_en":"Katabi","name_es":"Katabi","name_fr":"Katabi","name_it":"Katabi","name_ru":"Katabi","elevation":1160.0,"timezone":"Africa/Kampala","admin1_name":"Central Region"},{"name":"Lugazi","lat":0.36788,"lon":32.9376,"population":128400,"iso_a3":"UGA","country":"Uganda","is_capital":false,"name_en":"Lugazi","name_es":"Lugazi","name_fr":"Lugazi","name_it":"Lugazi","name_ru":"Lugazi","elevation":1208.0,"timezone":"Africa/Kampala","admin1_name":"Central Region"},{"name":"Hoima","lat":1.43314,"lon":31.35241,"population":122700,"iso_a3":"UGA","country":"Uganda","is_capital":false,"name_en":"Hoima","name_es":"Hoima","name_fr":"Hoima","name_it":"Hoima","name_ru":"Хоима","elevation":1131.0,"timezone":"Africa/Kampala","admin1_name":"Western Region"},{"name":"Mubende","lat":0.55849,"lon":31.39489,"population":121600,"iso_a3":"UGA","country":"Uganda","is_capital":false,"name_en":"Mubende","name_es":"Mubende","name_fr":"Mubende","name_it":"Mubende","name_ru":"Mubende","elevation":1314.0,"timezone":"Africa/Kampala","admin1_name":"Central Region"},{"name":"Lira","lat":2.2499,"lon":32.89985,"population":119323,"iso_a3":"UGA","country":"Uganda","is_capital":false,"name_en":"Lira","name_es":"Lira","name_fr":"Lira","name_it":"Lira","name_ru":"Лира","elevation":1104.0,"timezone":"Africa/Kampala","admin1_name":"Northern Region"},{"name":"Masindi","lat":1.67444,"lon":31.715,"population":110500,"iso_a3":"UGA","country":"Uganda","is_capital":false,"name_en":"Masindi","name_es":"Masindi","name_fr":"Masindi","name_it":"Masindi","name_ru":"Масинди","elevation":1140.0,"timezone":"Africa/Kampala","admin1_name":"Western Region"},{"name":"Mityana","lat":0.4175,"lon":32.02278,"population":105200,"iso_a3":"UGA","country":"Uganda","is_capital":false,"name_en":"Mityana","name_es":"Mityana","name_fr":"Mityana","name_it":"Mityana","name_ru":"Митьяна","elevation":1199.0,"timezone":"Africa/Kampala","admin1_name":"Central Region"},{"name":"Jinja","lat":0.43902,"lon":33.20317,"population":93061,"iso_a3":"UGA","country":"Uganda","is_capital":false,"name_en":"Jinja","name_es":"Jinja","name_fr":"Jinja","name_it":"Jinja","name_ru":"Джинджа","elevation":1187.0,"timezone":"Africa/Kampala","admin1_name":"Eastern Region"},{"name":"Wakiso","lat":0.40444,"lon":32.45944,"population":87900,"iso_a3":"UGA","country":"Uganda","is_capital":false,"name_en":"Wakiso","name_es":"Wakiso","name_fr":"Wakiso","name_it":"Wakiso","name_ru":"Wakiso","elevation":1204.0,"timezone":"Africa/Kampala","admin1_name":"Central Region"},{"name":"Kamuli","lat":0.94722,"lon":33.11972,"population":67800,"iso_a3":"UGA","country":"Uganda","is_capital":false,"name_en":"Kamuli","name_es":"Kamuli","name_fr":"Kamuli","name_it":"Kamuli","name_ru":"Kamuli","elevation":1120.0,"timezone":"Africa/Kampala","admin1_name":"Eastern Region"},{"name":"Apac","lat":1.97556,"lon":32.53861,"population":67700,"iso_a3":"UGA","country":"Uganda","is_capital":false,"name_en":"Apac","name_es":"Apac","name_fr":"Apac","name_it":"Apac","name_ru":"Apac","elevation":1038.0,"timezone":"Africa/Kampala","admin1_name":"Northern Region"},{"name":"Iganga","lat":0.60917,"lon":33.46861,"population":65500,"iso_a3":"UGA","country":"Uganda","is_capital":false,"name_en":"Iganga","name_es":"Iganga","name_fr":"Iganga","name_it":"Iganga","name_ru":"Иганга","elevation":1128.0,"timezone":"Africa/Kampala","admin1_name":"Eastern Region"},{"name":"Soroti","lat":1.71464,"lon":33.61113,"population":60900,"iso_a3":"UGA","country":"Uganda","is_capital":false,"name_en":"Soroti","name_es":"Soroti","name_fr":"Soroti","name_it":"Soroti","name_ru":"Soroti","elevation":1131.0,"timezone":"Africa/Kampala","admin1_name":"Eastern Region"},{"name":"Mpigi","lat":0.225,"lon":32.31361,"population":49500,"iso_a3":"UGA","country":"Uganda","is_capital":false,"name_en":"Mpigi","name_es":"Mpigi","name_fr":"Mpigi","name_it":"Mpigi","name_ru":"Mpigi","elevation":1265.0,"timezone":"Africa/Kampala","admin1_name":"Central Region"},{"name":"Luwero","lat":0.84917,"lon":32.47306,"population":49100,"iso_a3":"UGA","country":"Uganda","is_capital":false,"name_en":"Luwero","name_es":"Luwero","name_fr":"Luwero","name_it":"Luwero","name_ru":"Luwero","elevation":1108.0,"timezone":"Africa/Kampala","admin1_name":"Central Region"},{"name":"Bugembe","lat":0.48213,"lon":33.24065,"population":45600,"iso_a3":"UGA","country":"Uganda","is_capital":false,"name_en":"Bugembe","name_es":"Bugembe","name_fr":"Bugembe","name_it":"Bugembe","name_ru":"Bugembe","elevation":1312.0,"timezone":"Africa/Kampala","admin1_name":"Eastern Region"},{"name":"Pallisa","lat":1.145,"lon":33.70944,"population":42300,"iso_a3":"UGA","country":"Uganda","is_capital":false,"name_en":"Pallisa","name_es":"Pallisa","name_fr":"Pallisa","name_it":"Pallisa","name_ru":"Паллиса","elevation":1056.0,"timezone":"Africa/Kampala","admin1_name":"Eastern Region"},{"name":"Kasanje","lat":0.15334,"lon":32.40088,"population":42300,"iso_a3":"UGA","country":"Uganda","is_capital":false,"name_en":"Kasanje","name_es":"Kasanje","name_fr":"Kasanje","name_it":"Kasanje","name_ru":"Kasanje","elevation":1177.0,"timezone":"Africa/Kampala","admin1_name":"Central Region"},{"name":"Nebbi","lat":2.47826,"lon":31.08893,"population":41400,"iso_a3":"UGA","country":"Uganda","is_capital":false,"name_en":"Nebbi","name_es":"Nebbi","name_fr":"Nebbi","name_it":"Nebbi","name_ru":"Nebbi","elevation":1015.0,"timezone":"Africa/Kampala","admin1_name":"Northern Region"},{"name":"Paidha","lat":2.41669,"lon":30.98551,"population":37500,"iso_a3":"UGA","country":"Uganda","is_capital":false,"name_en":"Paidha","name_es":"Paidha","name_fr":"Paidha","name_it":"Paidha","name_ru":"Paidha","elevation":1496.0,"timezone":"Africa/Kampala","admin1_name":"Northern Region"},{"name":"Buyale","lat":1.93421,"lon":32.11643,"population":36700,"iso_a3":"UGA","country":"Uganda","is_capital":false,"name_en":"Buyale","name_es":"Buyale","name_fr":"Buyale","name_it":"Buyale","name_ru":"Buyale","elevation":1072.0,"timezone":"Africa/Kampala","admin1_name":"Western Region"},{"name":"Bugiri","lat":0.57139,"lon":33.74167,"population":36000,"iso_a3":"UGA","country":"Uganda","is_capital":false,"name_en":"Bugiri","name_es":"Bugiri","name_fr":"Bugiri","name_it":"Bugiri","name_ru":"Bugiri","elevation":1138.0,"timezone":"Africa/Kampala","admin1_name":"Eastern Region"},{"name":"Kakira","lat":0.50833,"lon":33.28778,"population":35800,"iso_a3":"UGA","country":"Uganda","is_capital":false,"name_en":"Kakira","name_es":"Kakira","name_fr":"Kakira","name_it":"Kakira","name_ru":"Kakira","elevation":1186.0,"timezone":"Africa/Kampala","admin1_name":"Eastern Region"},{"name":"Busesa","lat":0.62631,"lon":33.60027,"population":32900,"iso_a3":"UGA","country":"Uganda","is_capital":false,"name_en":"Busesa","name_es":"Busesa","name_fr":"Busesa","name_it":"Busesa","name_ru":"Busesa","elevation":1132.0,"timezone":"Africa/Kampala","admin1_name":"Eastern Region"},{"name":"Wobulenzi","lat":0.72833,"lon":32.51222,"population":31000,"iso_a3":"UGA","country":"Uganda","is_capital":false,"name_en":"Wobulenzi","name_es":"Wobulenzi","name_fr":"Wobulenzi","name_it":"Wobulenzi","name_ru":"Wobulenzi","elevation":1155.0,"timezone":"Africa/Kampala","admin1_name":"Central Region"},{"name":"Kayunga","lat":0.7025,"lon":32.88861,"population":30000,"iso_a3":"UGA","country":"Uganda","is_capital":false,"name_en":"Kayunga","name_es":"Kayunga","name_fr":"Kayunga","name_it":"Kayunga","name_ru":"Kayunga","elevation":1071.0,"timezone":"Africa/Kampala","admin1_name":"Central Region"}]