[{"name":"Tete","lat":-16.15639,"lon":33.58667,"population":357000,"iso_a3":"MOZ","country":"Mozambique","is_capital":false,"name_en":"Tete","name_es":"Tete","name_fr":"Tete","name_it":"Tete","name_ru":"Тете","elevation":137.0,"timezone":"Africa/Maputo","admin1_name":"Tete"},{"name":"Moatize","lat":-16.11528,"lon":33.72944,"population":45213,"iso_a3":"MOZ","country":"Mozambique","is_capital":false,"name_en":"Moatize","name_es":"Moatize","name_fr":"Moatize","name_it":"Moatize","name_ru":"Moatize","elevation":182.0,"timezone":"Africa/Maputo","admin1_name":"Tete"},{"name":"Songo","lat":-15.59583,"lon":32.76472,"population":31101,"iso_a3":"MOZ","country":"Mozambique","is_capital":false,"name_en":"Songo","name_es":"Songo","name_fr":"Songo","name_it":"Songo","name_ru":"Songo","elevation":910.0,"timezone":"Africa/Maputo","admin1_name":"Tete"},{"name":"Petauke","lat":-14.24117,"lon":31.31975,"population":58156,"iso_a3":"ZMB","country":"Zambia","is_capital":false,"name_en":"Petauke","name_es":"Petauke","name_fr":"Petauke","name_it":"Petauke","name_ru":"Petauke","elevation":1015.0,"timezone":"Africa/Lusaka"},{"name":"Katete","lat":-14.05,"lon":32.08333,"population":45402,"iso_a3":"ZMB","country":"Zambia","is_capital":false,"name_en":"Katete","name_es":"Katete","name_fr":"Katete","name_it":"Katete","name_ru":"Katete","elevation":1529.0,"timezone":"Africa/Lusaka"}]