[{"name":"Pajok","lat":3.86512,"lon":32.48212,"population":49000,"iso_a3":"SSD","country":"South Sudan","is_capital":false,"name_en":"Parjok","name_es":"Parjok","name_fr":"Parjok","name_it":"Parjok","name_ru":"Parjok","elevation":823.0,"timezone":"Africa/Juba","admin1_name":"Eastern Equatoria"},{"name":"Koboko","lat":3.41364,"lon":30.95994,"population":64500,"iso_a3":"UGA","country":"Uganda","is_capital":false,"name_en":"Koboko","name_es":"Koboko","name_fr":"Koboko","name_it":"Koboko","name_ru":"Koboko","elevation":1234.0,"timezone":"Africa/Kampala","admin1_name":"Northern Region"},{"name":"Kitgum","lat":3.27833,"lon":32.88667,"population":56891,"iso_a3":"UGA","country":"Uganda","is_capital":false,"name_en":"Kitgum","name_es":"Kitgum","name_fr":"Kitgum","name_it":"Kitgum","name_ru":"Китгум","elevation":950.0,"timezone":"Africa/Kampala","admin1_name":"Northern Region"},{"name":"Yumbe","lat":3.46506,"lon":31.24689,"population":47600,"iso_a3":"UGA","country":"Uganda","is_capital":false,"name_en":"Yumbe","name_es":"Yumbe","name_fr":"Yumbe","name_it":"Yumbe","name_ru":"Yumbe","elevation":982.0,"timezone":"Africa/Kampala","admin1_name":"Northern Region"},{"name":"Adjumani","lat":3.37786,"lon":31.7909,"population":37100,"iso_a3":"UGA","country":"Uganda","is_capital":false,"name_en":"Adjumani","name_es":"Adjumani","name_fr":"Adjumani","name_it":"Adjumani","name_ru":"Adjumani","elevation":816.0,"timezone":"Africa/Kampala","admin1_name":"Northern Region"}]