[{"name":"Kasungu","lat":-13.03333,"lon":33.48333,"population":66152,"iso_a3":"MWI","country":"Malawi","is_capital":false,"name_en":"Kasungu","name_es":"Kasungu","name_fr":"Kasungu","name_it":"Kasungu","name_ru":"Касунгу","elevation":1051.0,"timezone":"Africa/Blantyre","admin1_name":"Central Region"},{"name":"Mchinji","lat":-13.79841,"lon":32.88019,"population":31592,"iso_a3":"MWI","country":"Malawi","is_capital":false,"name_en":"Mchinji","name_es":"Mchinji","name_fr":"Mchinji","name_it":"Mchinji","name_ru":"Mchinji","elevation":1186.0,"timezone":"Africa/Blantyre","admin1_name":"Central Region"},{"name":"Chipata","lat":-13.63333,"lon":32.65,"population":327059,"iso_a3":"ZMB","country":"Zambia","is_capital":false,"name_en":"Chipata","name_es":"Chipata","name_fr":"Chipata","name_it":"Chipata","name_ru":"Чипата","elevation":1147.0,"timezone":"Africa/Lusaka"},{"name":"Mpika","lat":-11.83431,"lon":31.45287,"population":63740,"iso_a3":"ZMB","country":"Zambia","is_capital":false,"name_en":"Mpika","name_es":"Mpika","name_fr":"Mpika","name_it":"Mpika","name_ru":"Мпика","elevation":1428.0,"timezone":"Africa/Lusaka","admin1_name":"Muchinga"},{"name":"Lundazi","lat":-12.29292,"lon":33.1782,"population":45149,"iso_a3":"ZMB","country":"Zambia","is_capital":false,"name_en":"Lundazi","name_es":"Lundazi","name_fr":"Lundazi","name_it":"Lundazi","name_ru":"Lundazi","elevation":1143.0,"timezone":"Africa/Lusaka"}]