[{"name":"Richards Bay","lat":-28.78301,"lon":32.03768,"population":252968,"iso_a3":"ZAF","country":"South Africa","is_capital":false,"name_en":"Richards Bay","name_es":"Richards Bay","name_fr":"Richards Bay","name_it":"Richards Bay","name_ru":"Ричардс-Бей","elevation":9.0,"timezone":"Africa/Johannesburg"},{"name":"KwaDukuza","lat":-29.32816,"lon":31.28954,"population":161177,"iso_a3":"ZAF","country":"South Africa","is_capital":false,"name_en":"KwaDukuza","name_es":"KwaDukuza","name_fr":"KwaDukuza","name_it":"KwaDukuza","name_ru":"KwaDukuza","elevation":111.0,"timezone":"Africa/Johannesburg"},{"name":"eSikhaleni","lat":-28.87097,"lon":31.89961,"population":49265,"iso_a3":"ZAF","country":"South Africa","is_capital":false,"name_en":"eSikhaleni","name_es":"eSikhaleni","name_fr":"eSikhaleni","name_it":"eSikhaleni","name_ru":"eSikhaleni","elevation":15.0,"timezone":"Africa/Johannesburg"},{"name":"Mandeni","lat":-29.14691,"lon":31.41403,"population":37533,"iso_a3":"ZAF","country":"South Africa","is_capital":false,"name_en":"Mandeni","name_es":"Mandeni","name_fr":"Mandeni","name_it":"Mandeni","name_ru":"Mandeni","elevation":88.0,"timezone":"Africa/Johannesburg"},{"name":"Mtubatuba","lat":-28.41789,"lon":32.18483,"population":33182,"iso_a3":"ZAF","country":"South Africa","is_capital":false,"name_en":"Mtubatuba","name_es":"Mtubatuba","name_fr":"Mtubatuba","name_it":"Mtubatuba","name_ru":"Mtubatuba","elevation":66.0,"timezone":"Africa/Johannesburg"},{"name":"Empangeni","lat":-28.76197,"lon":31.89329,"population":33075,"iso_a3":"ZAF","country":"South Africa","is_capital":false,"name_en":"Empangeni","name_es":"Empangeni","name_fr":"Empangeni","name_it":"Empangeni","name_ru":"Empangeni","elevation":103.0,"timezone":"Africa/Johannesburg"},{"name":"Ulundi","lat":-28.33523,"lon":31.41617,"population":31795,"iso_a3":"ZAF","country":"South Africa","is_capital":false,"name_en":"Ulundi","name_es":"Ulundi","name_fr":"Ulundi","name_it":"Ulundi","name_ru":"Улунди","elevation":484.0,"timezone":"Africa/Johannesburg"}]