[{"name":"Kursk","lat":51.72689,"lon":36.18457,"population":448733,"iso_a3":"RUS","country":"Russia","is_capital":false,"name_en":"Kursk","name_es":"Kursk","name_fr":"Koursk","name_it":"Kursk","name_ru":"Курск","elevation":187.0,"timezone":"Europe/Moscow","admin1_name":"Kursk Oblast"},{"name":"Zheleznogorsk","lat":52.34198,"lon":35.35917,"population":97900,"iso_a3":"RUS","country":"Russia","is_capital":false,"name_en":"Zheleznogorsk","name_es":"Zheleznogorsk","name_fr":"Zheleznogorsk","name_it":"Zheleznogorsk","name_ru":"Железногорск","elevation":182.0,"timezone":"Europe/Moscow","admin1_name":"Kursk Oblast"},{"name":"Kurchatov","lat":51.65356,"lon":35.68651,"population":46600,"iso_a3":"RUS","country":"Russia","is_capital":false,"name_en":"Kurchatov","name_es":"Kurchatov","name_fr":"Kurchatov","name_it":"Kurchatov","name_ru":"Курчатов","elevation":169.0,"timezone":"Europe/Moscow","admin1_name":"Kursk Oblast"},{"name":"Sumy","lat":50.91741,"lon":34.79906,"population":259660,"iso_a3":"UKR","country":"Ukraine","is_capital":false,"name_en":"Sumy","name_es":"Sumy","name_fr":"Soumy","name_it":"Sumy","name_ru":"Сумы","elevation":171.0,"timezone":"Europe/Kyiv","admin1_name":"Sumy"},{"name":"Hlukhiv","lat":51.67822,"lon":33.9162,"population":31789,"iso_a3":"UKR","country":"Ukraine","is_capital":false,"name_en":"Hlukhiv","name_es":"Hlújiv","name_fr":"Hloukhiv","name_it":"Hlukhiv","name_ru":"Глухов","elevation":169.0,"timezone":"Europe/Kyiv","admin1_name":"Sumy"}]