[{"name":"Çorum","lat":40.54889,"lon":34.95333,"population":269595,"iso_a3":"TUR","country":"Turkey","is_capital":false,"name_en":"Çorum","name_es":"Çorum","name_fr":"Çorum","name_it":"Çorum","name_ru":"Чорум","elevation":808.0,"timezone":"Europe/Istanbul","admin1_name":"Çorum"},{"name":"Kırşehir","lat":39.14583,"lon":34.16389,"population":150700,"iso_a3":"TUR","country":"Turkey","is_capital":false,"name_en":"Kırşehir","name_es":"Kırşehir","name_fr":"Kırşehir","name_it":"Kırşehir","name_ru":"Кыршехир","elevation":997.0,"timezone":"Europe/Istanbul","admin1_name":"Kırşehir"},{"name":"Tokat","lat":40.31389,"lon":36.55444,"population":129702,"iso_a3":"TUR","country":"Turkey","is_capital":false,"name_en":"Tokat Province","name_es":"Provincia de Tokat","name_fr":"Tokat","name_it":"Tokat Province","name_ru":"Токат","elevation":627.0,"timezone":"Europe/Istanbul","admin1_name":"Tokat Province"},{"name":"Amasya","lat":40.65333,"lon":35.83306,"population":114921,"iso_a3":"TUR","country":"Turkey","is_capital":false,"name_en":"Amasya","name_es":"Amasya","name_fr":"Amasya","name_it":"Amasya","name_ru":"Амасья","elevation":402.0,"timezone":"Europe/Istanbul","admin1_name":"Amasya"},{"name":"Turhal","lat":40.3875,"lon":36.08111,"population":110884,"iso_a3":"TUR","country":"Turkey","is_capital":false,"name_en":"Turhal","name_es":"Turhal","name_fr":"Turhal","name_it":"Turhal","name_ru":"Турхал","elevation":538.0,"timezone":"Europe/Istanbul","admin1_name":"Tokat Province"},{"name":"Yozgat","lat":39.82,"lon":34.80444,"population":87881,"iso_a3":"TUR","country":"Turkey","is_capital":false,"name_en":"Yozgat","name_es":"Yozgat","name_fr":"Yozgat","name_it":"Yozgat","name_ru":"Йозгат","elevation":1290.0,"timezone":"Europe/Istanbul","admin1_name":"Yozgat"},{"name":"Sorgun","lat":39.81012,"lon":35.18596,"population":62862,"iso_a3":"TUR","country":"Turkey","is_capital":false,"name_en":"Sorgun","name_es":"Sorgun","name_fr":"Sorgun","name_it":"Sorgun","name_ru":"Соргуне","elevation":1079.0,"timezone":"Europe/Istanbul","admin1_name":"Yozgat"},{"name":"Zile","lat":40.30306,"lon":35.88639,"population":55680,"iso_a3":"TUR","country":"Turkey","is_capital":false,"name_en":"Zile","name_es":"Zile","name_fr":"Zile","name_it":"Zile","name_ru":"Зил","elevation":746.0,"timezone":"Europe/Istanbul","admin1_name":"Tokat Province"},{"name":"Merzifon","lat":40.87333,"lon":35.46306,"population":50658,"iso_a3":"TUR","country":"Turkey","is_capital":false,"name_en":"Merzifon","name_es":"Merzifon","name_fr":"Merzifon","name_it":"Merzifon","name_ru":"Мерзифон","elevation":732.0,"timezone":"Europe/Istanbul","admin1_name":"Amasya"},{"name":"Suluova","lat":40.83129,"lon":35.64788,"population":47572,"iso_a3":"TUR","country":"Turkey","is_capital":false,"name_en":"Suluova","name_es":"Suluova","name_fr":"Suluova","name_it":"Suluova","name_ru":"Suluova","elevation":562.0,"timezone":"Europe/Istanbul","admin1_name":"Amasya"},{"name":"Sungurlu","lat":40.1675,"lon":34.37389,"population":37526,"iso_a3":"TUR","country":"Turkey","is_capital":false,"name_en":"Sungurlu","name_es":"Sungurlu","name_fr":"Sungurlu","name_it":"Sungurlu","name_ru":"Сунгурлу","elevation":774.0,"timezone":"Europe/Istanbul","admin1_name":"Çorum"},{"name":"Osmancık","lat":40.97818,"lon":34.8047,"population":36443,"iso_a3":"TUR","country":"Turkey","is_capital":false,"name_en":"Osmancık","name_es":"Osmancık","name_fr":"Osmancık","name_it":"Osmancık","name_ru":"Osmancık","elevation":424.0,"timezone":"Europe/Istanbul","admin1_name":"Çorum"},{"name":"Yerköy","lat":39.63806,"lon":34.46722,"population":35294,"iso_a3":"TUR","country":"Turkey","is_capital":false,"name_en":"Yerköy","name_es":"Yerköy","name_fr":"Yerköy","name_it":"Yerköy","name_ru":"Yerköy","elevation":770.0,"timezone":"Europe/Istanbul","admin1_name":"Yozgat"}]