[{"name":"Arīsh","lat":31.13159,"lon":33.79844,"population":199243,"iso_a3":"EGY","country":"Egypt","is_capital":false,"name_en":"Al ‘Arīsh","name_es":"El Arish","name_fr":"El-Arich","name_it":"Al-Arish","name_ru":"Эль-Ариш","elevation":15.0,"timezone":"Africa/Cairo","admin1_name":"North Sinai"},{"name":"Rafaḩ","lat":31.28204,"lon":34.23869,"population":44215,"iso_a3":"EGY","country":"Egypt","is_capital":false,"name_en":"Rafaḩ","name_es":"Rafaḩ","name_fr":"Rafaḩ","name_it":"Rafaḩ","name_ru":"Rafaḩ","elevation":60.0,"timezone":"Africa/Cairo","admin1_name":"North Sinai"},{"name":"Ashdod","lat":31.79213,"lon":34.64966,"population":226838,"iso_a3":"ISR","country":"Israel","is_capital":false,"name_en":"Ashdod","name_es":"Asdod","name_fr":"Ashdod","name_it":"Ashdod","name_ru":"Ашдод","elevation":27.0,"timezone":"Asia/Jerusalem","admin1_name":"Southern District"},{"name":"Beersheba","lat":31.25181,"lon":34.7913,"population":186600,"iso_a3":"ISR","country":"Israel","is_capital":false,"name_en":"Beersheba","name_es":"Be'er Sheva","name_fr":"Beer-Sheva","name_it":"Be'er Sheva","name_ru":"Беэр-Шева","elevation":285.0,"timezone":"Asia/Jerusalem","admin1_name":"Southern District"},{"name":"Reẖovot","lat":31.89421,"lon":34.81199,"population":149392,"iso_a3":"ISR","country":"Israel","is_capital":false,"name_en":"Rehovot","name_es":"Rejovot","name_fr":"Rehovot","name_it":"Rehovot","name_ru":"Реховот","elevation":47.0,"timezone":"Asia/Jerusalem","admin1_name":"Central District"},{"name":"Ashkelon","lat":31.66926,"lon":34.57149,"population":144073,"iso_a3":"ISR","country":"Israel","is_capital":false,"name_en":"Ashquelon","name_es":"Ashquelon","name_fr":"Ashquelon","name_it":"Ashquelon","name_ru":"Ашкелон","elevation":42.0,"timezone":"Asia/Jerusalem","admin1_name":"Southern District"},{"name":"Bet Shemesh","lat":31.73072,"lon":34.99293,"population":124957,"iso_a3":"ISR","country":"Israel","is_capital":false,"name_en":"Bet Shemesh","name_es":"Bet Shemesh","name_fr":"Bet Shemesh","name_it":"Bet Shemesh","name_ru":"Бейт-Шемеш","elevation":282.0,"timezone":"Asia/Jerusalem","admin1_name":"Jerusalem"},{"name":"Modi‘in Makkabbim Re‘ut","lat":31.89385,"lon":35.01504,"population":93277,"iso_a3":"ISR","country":"Israel","is_capital":false,"name_en":"Modiin","name_es":"Modiin","name_fr":"Modiin","name_it":"Modiin","name_ru":"Modiin","elevation":276.0,"timezone":"Asia/Jerusalem","admin1_name":"Central District"},{"name":"Modiin Ilit","lat":31.93221,"lon":35.04416,"population":76374,"iso_a3":"ISR","country":"Israel","is_capital":false,"name_en":"Modiin Ilit","name_es":"Modiin Ilit","name_fr":"Modiin Ilit","name_it":"Modiin Ilit","name_ru":"Modiin Ilit","elevation":319.0,"timezone":"Asia/Jerusalem","admin1_name":"Jerusalem"},{"name":"Ramla","lat":31.92624,"lon":34.8635,"population":76246,"iso_a3":"ISR","country":"Israel","is_capital":false,"name_en":"Ramla","name_es":"Ramla","name_fr":"Ramla","name_it":"Ramla","name_ru":"Рамла","elevation":100.0,"timezone":"Asia/Jerusalem","admin1_name":"Central District"},{"name":"Kiryat Gat","lat":31.60998,"lon":34.76422,"population":61817,"iso_a3":"ISR","country":"Israel","is_capital":false,"name_en":"Kiryat Gat","name_es":"Kiryat Gat","name_fr":"Kiryat Gat","name_it":"Kiryat Gat","name_ru":"Кирьят-Гат","elevation":133.0,"timezone":"Asia/Jerusalem","admin1_name":"Southern District"},{"name":"Eilat","lat":29.55805,"lon":34.94821,"population":52299,"iso_a3":"ISR","country":"Israel","is_capital":false,"name_en":"Eilat","name_es":"Eilat","name_fr":"Eilat","name_it":"Eilat","name_ru":"Эйлат","elevation":63.0,"timezone":"Asia/Jerusalem","admin1_name":"Southern District"},{"name":"Yavné","lat":31.87808,"lon":34.73983,"population":47585,"iso_a3":"ISR","country":"Israel","is_capital":false,"name_en":"Yavné","name_es":"Yavné","name_fr":"Yavné","name_it":"Yavné","name_ru":"Явне","elevation":37.0,"timezone":"Asia/Jerusalem","admin1_name":"Central District"},{"name":"Netivot","lat":31.42305,"lon":34.58911,"population":43732,"iso_a3":"ISR","country":"Israel","is_capital":false,"name_en":"Netivot","name_es":"Netivot","name_fr":"Netivot","name_it":"Netivot","name_ru":"Нетивот","elevation":151.0,"timezone":"Asia/Jerusalem","admin1_name":"Southern District"},{"name":"Dimona","lat":31.07079,"lon":35.03269,"population":36192,"iso_a3":"ISR","country":"Israel","is_capital":false,"name_en":"Dimona","name_es":"Dimona","name_fr":"Dimona","name_it":"Dimona","name_ru":"Димона","elevation":551.0,"timezone":"Asia/Jerusalem","admin1_name":"Southern District"},{"name":"Ofaqim","lat":31.3141,"lon":34.62025,"population":34666,"iso_a3":"ISR","country":"Israel","is_capital":false,"name_en":"Ofakim","name_es":"Ofakim","name_fr":"Ofakim","name_it":"Ofakim","name_ru":"Ofakim","elevation":137.0,"timezone":"Asia/Jerusalem","admin1_name":"Southern District"},{"name":"Gedera","lat":31.81456,"lon":34.77998,"population":30798,"iso_a3":"ISR","country":"Israel","is_capital":false,"name_en":"Gedera","name_es":"Gedera","name_fr":"Guedera","name_it":"Gedera","name_ru":"Гедера","elevation":64.0,"timezone":"Asia/Jerusalem","admin1_name":"Central District"},{"name":"Khuraybat as Sūq","lat":31.87913,"lon":35.92098,"population":186158,"iso_a3":"JOR","country":"Jordan","is_capital":false,"name_en":"Khuraybat as Sūq","name_es":"Khuraybat as Sūq","name_fr":"Khuraybat as Sūq","name_it":"Khuraybat as Sūq","name_ru":"Khuraybat as Sūq","elevation":894.0,"timezone":"Asia/Amman","admin1_name":"Amman"},{"name":"Marj Al Hamam","lat":31.90274,"lon":35.84645,"population":82788,"iso_a3":"JOR","country":"Jordan","is_capital":false,"name_en":"Marj Al Hamam","name_es":"Marj Al Hamam","name_fr":"Marj Al Hamam","name_it":"Marj Al Hamam","name_ru":"Marj Al Hamam","elevation":959.0,"timezone":"Asia/Amman","admin1_name":"Amman"},{"name":"Mādabā","lat":31.71599,"lon":35.79392,"population":82335,"iso_a3":"JOR","country":"Jordan","is_capital":false,"name_en":"Madaba","name_es":"Madaba","name_fr":"Madaba","name_it":"Madaba","name_ru":"Мадаба","elevation":790.0,"timezone":"Asia/Amman","admin1_name":"Madaba"},{"name":"Ma'an","lat":30.19624,"lon":35.73405,"population":50350,"iso_a3":"JOR","country":"Jordan","is_capital":false,"name_en":"Ma'an","name_es":"Ma'an","name_fr":"Ma'an","name_it":"Ma'an","name_ru":"Ma'an","elevation":1111.0,"timezone":"Asia/Amman","admin1_name":"Ma’an"},{"name":"Saḩāb","lat":31.87032,"lon":36.00479,"population":40241,"iso_a3":"JOR","country":"Jordan","is_capital":false,"name_en":"Saḩāb","name_es":"Saḩāb","name_fr":"Saḩāb","name_it":"Saḩāb","name_ru":"Сахаб","elevation":872.0,"timezone":"Asia/Amman","admin1_name":"Amman"},{"name":"Gaza","lat":31.50161,"lon":34.46672,"population":410000,"iso_a3":"PSE","country":"Palestine","is_capital":false,"name_en":"Gaza","name_es":"Gaza","name_fr":"Gaza","name_it":"Gaza","name_ru":"Газа","elevation":38.0,"timezone":"Asia/Gaza","admin1_name":"Gaza Strip"},{"name":"Khān Yūnis","lat":31.34018,"lon":34.30627,"population":173183,"iso_a3":"PSE","country":"Palestine","is_capital":false,"name_en":"Khan Yunis","name_es":"Jan Yunís","name_fr":"Khan Yunis","name_it":"Khan Yunis","name_ru":"Хан-Юнис","elevation":55.0,"timezone":"Asia/Gaza","admin1_name":"Gaza Strip"},{"name":"Hebron","lat":31.52935,"lon":35.0938,"population":160470,"iso_a3":"PSE","country":"Palestine","is_capital":false,"name_en":"Hebron","name_es":"Hebrón","name_fr":"Hébron","name_it":"Hebron","name_ru":"Хеврон","elevation":903.0,"timezone":"Asia/Hebron","admin1_name":"West Bank"},{"name":"Rafaḩ","lat":31.29722,"lon":34.24357,"population":126305,"iso_a3":"PSE","country":"Palestine","is_capital":false,"name_en":"Rafah","name_es":"Rafah","name_fr":"Rafah","name_it":"Rafah","name_ru":"Рафах","elevation":30.0,"timezone":"Asia/Gaza","admin1_name":"Gaza Strip"},{"name":"Dayr al Balaḩ","lat":31.41834,"lon":34.34933,"population":59504,"iso_a3":"PSE","country":"Palestine","is_capital":false,"name_en":"Deir el-Balah","name_es":"Deir el-Balah","name_fr":"Deir el-Balah","name_it":"Deir el-Balah","name_ru":"Deir el-Balah","elevation":17.0,"timezone":"Asia/Gaza","admin1_name":"Gaza Strip"},{"name":"Bayt Lāhyā","lat":31.5464,"lon":34.49514,"population":56919,"iso_a3":"PSE","country":"Palestine","is_capital":false,"name_en":"Beit Lahia","name_es":"Beit Lahia","name_fr":"Beit Lahia","name_it":"Beit Lahia","name_ru":"Beit Lahia","elevation":33.0,"timezone":"Asia/Gaza","admin1_name":"Gaza Strip"},{"name":"Ramallah","lat":31.89964,"lon":35.20422,"population":43880,"iso_a3":"PSE","country":"Palestine","is_capital":false,"name_en":"Ramallah","name_es":"Ramala","name_fr":"Ramallah","name_it":"Ramallah","name_ru":"Рамалла","elevation":879.0,"timezone":"Asia/Hebron","admin1_name":"West Bank"},{"name":"Yaţţā","lat":31.4459,"lon":35.09443,"population":41425,"iso_a3":"PSE","country":"Palestine","is_capital":false,"name_en":"Yaţţā","name_es":"Yaţţā","name_fr":"Yaţţā","name_it":"Yaţţā","name_ru":"Yaţţā","elevation":808.0,"timezone":"Asia/Hebron","admin1_name":"West Bank"},{"name":"An Nuşayrāt","lat":31.44861,"lon":34.3925,"population":36123,"iso_a3":"PSE","country":"Palestine","is_capital":false,"name_en":"An Nuşayrāt","name_es":"An Nuşayrāt","name_fr":"An Nuşayrāt","name_it":"An Nuşayrāt","name_ru":"An Nuşayrāt","elevation":33.0,"timezone":"Asia/Gaza","admin1_name":"Gaza Strip"}]