[{"name":"Kassala","lat":15.45099,"lon":36.39998,"population":401477,"iso_a3":"SDN","country":"Sudan","is_capital":false,"name_en":"Kassala","name_es":"Kassala","name_fr":"Kassala","name_it":"Kassala","name_ru":"Кассале","elevation":507.0,"timezone":"Africa/Khartoum","admin1_name":"Kassala"},{"name":"Al Qadarif","lat":14.03493,"lon":35.38344,"population":363945,"iso_a3":"SDN","country":"Sudan","is_capital":false,"name_en":"Gedaref","name_es":"Gadarif","name_fr":"Al-Qadarif","name_it":"Gadaref","name_ru":"Гедареф","elevation":608.0,"timezone":"Africa/Khartoum","admin1_name":"Al Qaḑārif"},{"name":"New Halfa","lat":15.33021,"lon":35.59854,"population":63589,"iso_a3":"SDN","country":"Sudan","is_capital":false,"name_en":"New Halfa","name_es":"New Halfa","name_fr":"New Halfa","name_it":"New Halfa","name_ru":"Хальфа-эль-Джадида","elevation":452.0,"timezone":"Africa/Khartoum","admin1_name":"Kassala"},{"name":"Khashm al Qirbah","lat":14.96667,"lon":35.91667,"population":42900,"iso_a3":"SDN","country":"Sudan","is_capital":false,"name_en":"Khashm El Girba","name_es":"Khashm El Girba","name_fr":"Khashm El Girba","name_it":"Khashm El Girba","name_ru":"Хашм-эль-Кирба","elevation":458.0,"timezone":"Africa/Khartoum","admin1_name":"Al Qaḑārif"},{"name":"Al-Fāw","lat":14.10776,"lon":34.09197,"population":30629,"iso_a3":"SDN","country":"Sudan","is_capital":false,"name_en":"Al-Fāw","name_es":"Al-Fāw","name_fr":"Al-Fāw","name_it":"Al-Fāw","name_ru":"Al-Fāw","elevation":442.0,"timezone":"Africa/Khartoum","admin1_name":"Al Qaḑārif"}]