[{"name":"Karonga","lat":-9.93333,"lon":33.93333,"population":69486,"iso_a3":"MWI","country":"Malawi","is_capital":false,"name_en":"Karonga","name_es":"Karonga","name_fr":"Karonga","name_it":"Karonga","name_ru":"Каронга","elevation":486.0,"timezone":"Africa/Blantyre","admin1_name":"Northern Region"},{"name":"Songea","lat":-10.68333,"lon":35.65,"population":286285,"iso_a3":"TZA","country":"Tanzania","is_capital":false,"name_en":"Songea","name_es":"Songea","name_fr":"Songea","name_it":"Songea","name_ru":"Сонгеа","elevation":1113.0,"timezone":"Africa/Dar_es_Salaam","admin1_name":"Ruvuma"},{"name":"Makumbako","lat":-8.85,"lon":34.83333,"population":116232,"iso_a3":"TZA","country":"Tanzania","is_capital":false,"name_en":"Makumbako","name_es":"Makumbako","name_fr":"Makumbako","name_it":"Makumbako","name_ru":"Makumbako","elevation":1651.0,"timezone":"Africa/Dar_es_Salaam","admin1_name":"Njombe"},{"name":"Njombe","lat":-9.34917,"lon":34.77167,"population":92537,"iso_a3":"TZA","country":"Tanzania","is_capital":false,"name_en":"Njombe","name_es":"Njombe","name_fr":"Njombe","name_it":"Njombe","name_ru":"Njombe","elevation":1960.0,"timezone":"Africa/Dar_es_Salaam","admin1_name":"Njombe"},{"name":"Mbinga","lat":-10.93333,"lon":35.01667,"population":60868,"iso_a3":"TZA","country":"Tanzania","is_capital":false,"name_en":"Mbinga","name_es":"Mbinga","name_fr":"Mbinga","name_it":"Mbinga","name_ru":"Mbinga","elevation":1357.0,"timezone":"Africa/Dar_es_Salaam","admin1_name":"Ruvuma"},{"name":"Kyela","lat":-9.58333,"lon":33.85,"population":47000,"iso_a3":"TZA","country":"Tanzania","is_capital":false,"name_en":"Kyela","name_es":"Kyela","name_fr":"Kyela","name_it":"Kyela","name_ru":"Kyela","elevation":498.0,"timezone":"Africa/Dar_es_Salaam","admin1_name":"Mbeya"},{"name":"Rujewa","lat":-8.7,"lon":34.38333,"population":42013,"iso_a3":"TZA","country":"Tanzania","is_capital":false,"name_en":"Rujewa","name_es":"Rujewa","name_fr":"Rujewa","name_it":"Rujewa","name_ru":"Rujewa","elevation":1078.0,"timezone":"Africa/Dar_es_Salaam","admin1_name":"Mbeya"},{"name":"Mlimba","lat":-8.8,"lon":35.81667,"population":34970,"iso_a3":"TZA","country":"Tanzania","is_capital":false,"name_en":"Mlimba","name_es":"Mlimba","name_fr":"Mlimba","name_it":"Mlimba","name_ru":"Mlimba","elevation":306.0,"timezone":"Africa/Dar_es_Salaam","admin1_name":"Morogoro"}]