[{"name":"‘Ayn al ‘Arab","lat":36.89095,"lon":38.35347,"population":50000,"iso_a3":"SYR","country":"Syria","is_capital":false,"name_en":"‘Ayn al ‘Arab","name_es":"‘Ayn al ‘Arab","name_fr":"‘Ayn al ‘Arab","name_it":"‘Ayn al ‘Arab","name_ru":"Айн-эль-Араб","elevation":514.0,"timezone":"Asia/Damascus","admin1_name":"Aleppo"},{"name":"Şanlıurfa","lat":37.16708,"lon":38.79392,"population":449549,"iso_a3":"TUR","country":"Turkey","is_capital":false,"name_en":"Sanliurfa","name_es":"Sanliurfa","name_fr":"Édesse","name_it":"Sanliurfa","name_ru":"Эдесса","elevation":528.0,"timezone":"Europe/Istanbul","admin1_name":"Şanlıurfa"},{"name":"Elazığ","lat":38.67431,"lon":39.22321,"population":443363,"iso_a3":"TUR","country":"Turkey","is_capital":false,"name_en":"Elâzığ","name_es":"Elâzığ","name_fr":"Elazığ","name_it":"Elâzığ","name_ru":"Элязыг","elevation":1062.0,"timezone":"Europe/Istanbul","admin1_name":"Elazığ"},{"name":"Kahramanmaraş","lat":37.5847,"lon":36.92641,"population":384953,"iso_a3":"TUR","country":"Turkey","is_capital":false,"name_en":"Kahramanmaraş","name_es":"Kahramanmaraş","name_fr":"Kahramanmaraş","name_it":"Kahramanmaraş","name_ru":"Кахраманмараш","elevation":564.0,"timezone":"Europe/Istanbul","admin1_name":"Kahramanmaraş"},{"name":"Adıyaman","lat":37.76441,"lon":38.27629,"population":267131,"iso_a3":"TUR","country":"Turkey","is_capital":false,"name_en":"Adıyaman","name_es":"Adiyaman","name_fr":"Adiyaman","name_it":"Adıyaman","name_ru":"Адыяман","elevation":678.0,"timezone":"Europe/Istanbul","admin1_name":"Adıyaman Province"},{"name":"Siverek","lat":37.75503,"lon":39.31667,"population":175341,"iso_a3":"TUR","country":"Turkey","is_capital":false,"name_en":"Siverek","name_es":"Siverek","name_fr":"Siverek","name_it":"Siverek","name_ru":"Сивереке","elevation":787.0,"timezone":"Europe/Istanbul","admin1_name":"Şanlıurfa"},{"name":"Kilis","lat":36.71611,"lon":37.115,"population":111648,"iso_a3":"TUR","country":"Turkey","is_capital":false,"name_en":"Kilis","name_es":"Kilis","name_fr":"Kilis","name_it":"Kilis","name_ru":"Килис","elevation":660.0,"timezone":"Europe/Istanbul","admin1_name":"Kilis"},{"name":"Suruç","lat":36.97612,"lon":38.42533,"population":101178,"iso_a3":"TUR","country":"Turkey","is_capital":false,"name_en":"Suruç","name_es":"Suruç","name_fr":"Suruç","name_it":"Suruç","name_ru":"Суруч","elevation":499.0,"timezone":"Europe/Istanbul","admin1_name":"Şanlıurfa"},{"name":"Kâhta","lat":37.78552,"lon":38.6237,"population":97875,"iso_a3":"TUR","country":"Turkey","is_capital":false,"name_en":"Kâhta","name_es":"Kâhta","name_fr":"Kâhta","name_it":"Kâhta","name_ru":"Кахта","elevation":722.0,"timezone":"Europe/Istanbul","admin1_name":"Adıyaman Province"},{"name":"Nizip","lat":37.00972,"lon":37.79417,"population":82308,"iso_a3":"TUR","country":"Turkey","is_capital":false,"name_en":"Nizip","name_es":"Nizip","name_fr":"Nizip","name_it":"Nizip","name_ru":"Низипе","elevation":524.0,"timezone":"Europe/Istanbul","admin1_name":"Gaziantep"},{"name":"Elbistan","lat":38.20591,"lon":37.1983,"population":80456,"iso_a3":"TUR","country":"Turkey","is_capital":false,"name_en":"Elbistan","name_es":"Elbistan","name_fr":"Elbistan","name_it":"Elbistan","name_ru":"Эльбистан","elevation":1139.0,"timezone":"Europe/Istanbul","admin1_name":"Kahramanmaraş"},{"name":"Birecik","lat":37.02577,"lon":37.97841,"population":44284,"iso_a3":"TUR","country":"Turkey","is_capital":false,"name_en":"Birecik","name_es":"Birecik","name_fr":"Birecik","name_it":"Birecik","name_ru":"Биреджик","elevation":351.0,"timezone":"Europe/Istanbul","admin1_name":"Şanlıurfa"},{"name":"Besni","lat":37.69278,"lon":37.86111,"population":41892,"iso_a3":"TUR","country":"Turkey","is_capital":false,"name_en":"Besni","name_es":"Besni","name_fr":"Besni","name_it":"Besni","name_ru":"Бесни","elevation":904.0,"timezone":"Europe/Istanbul","admin1_name":"Adıyaman Province"},{"name":"Afşin","lat":38.24769,"lon":36.91399,"population":39613,"iso_a3":"TUR","country":"Turkey","is_capital":false,"name_en":"Afşin","name_es":"Afşin","name_fr":"Afşin","name_it":"Afşin","name_ru":"Afşin","elevation":1222.0,"timezone":"Europe/Istanbul","admin1_name":"Kahramanmaraş"},{"name":"Akçakale","lat":36.71111,"lon":38.9475,"population":32114,"iso_a3":"TUR","country":"Turkey","is_capital":false,"name_en":"Akçakale","name_es":"Akçakale","name_fr":"Akçakale","name_it":"Akçakale","name_ru":"Акчакале","elevation":361.0,"timezone":"Europe/Istanbul","admin1_name":"Şanlıurfa"}]