[{"name":"Tula","lat":54.19609,"lon":37.61822,"population":482873,"iso_a3":"RUS","country":"Russia","is_capital":false,"name_en":"Tula","name_es":"Tula","name_fr":"Toula","name_it":"Tula","name_ru":"Тула","elevation":161.0,"timezone":"Europe/Moscow","admin1_name":"Tula Oblast"},{"name":"Podolsk","lat":55.42419,"lon":37.55472,"population":179400,"iso_a3":"RUS","country":"Russia","is_capital":false,"name_en":"Podolsk","name_es":"Podolsk","name_fr":"Podolsk","name_it":"Podolsk","name_ru":"Подольск","elevation":162.0,"timezone":"Europe/Moscow","admin1_name":"Moscow Oblast"},{"name":"Lyubertsy","lat":55.67719,"lon":37.89322,"population":154650,"iso_a3":"RUS","country":"Russia","is_capital":false,"name_en":"Lyubertsy","name_es":"Liúbertsy","name_fr":"Lioubertsy","name_it":"Ljubercy","name_ru":"Люберцы","elevation":139.0,"timezone":"Europe/Moscow","admin1_name":"Moscow Oblast"},{"name":"Kolomna","lat":55.07108,"lon":38.78399,"population":147690,"iso_a3":"RUS","country":"Russia","is_capital":false,"name_en":"Kolomna","name_es":"Kolomna","name_fr":"Kolomna","name_it":"Kolomna","name_ru":"Коломна","elevation":136.0,"timezone":"Europe/Moscow","admin1_name":"Moscow Oblast"},{"name":"Zheleznodorozhnyy","lat":55.744,"lon":38.01684,"population":141648,"iso_a3":"RUS","country":"Russia","is_capital":false,"name_en":"Zheleznodorozhnyy","name_es":"Zheleznodorozhnyy","name_fr":"Zheleznodorozhnyy","name_it":"Zheleznodorozhnyy","name_ru":"Железнодорожный","elevation":146.0,"timezone":"Europe/Moscow","admin1_name":"Moscow Oblast"},{"name":"Odintsovo","lat":55.66977,"lon":37.27716,"population":137041,"iso_a3":"RUS","country":"Russia","is_capital":false,"name_en":"Odintsovo","name_es":"Odintsovo","name_fr":"Odintsovo","name_it":"Odincovo","name_ru":"Одинцово","elevation":186.0,"timezone":"Europe/Moscow","admin1_name":"Moscow Oblast"},{"name":"Serpukhov","lat":54.9198,"lon":37.41618,"population":128158,"iso_a3":"RUS","country":"Russia","is_capital":false,"name_en":"Serpukhov","name_es":"Serpukhov","name_fr":"Serpukhov","name_it":"Serpukhov","name_ru":"Серпухов","elevation":176.0,"timezone":"Europe/Moscow","admin1_name":"Moscow Oblast"},{"name":"Obninsk","lat":55.10993,"lon":36.61238,"population":107392,"iso_a3":"RUS","country":"Russia","is_capital":false,"name_en":"Obninsk","name_es":"Óbninsk","name_fr":"Obninsk","name_it":"Obninsk","name_ru":"Обнинск","elevation":187.0,"timezone":"Europe/Moscow","admin1_name":"Kaluga Oblast"},{"name":"Cherëmushki","lat":55.66473,"lon":37.56135,"population":106587,"iso_a3":"RUS","country":"Russia","is_capital":false,"name_en":"Cherëmushki","name_es":"Cherëmushki","name_fr":"Cherëmushki","name_it":"Cherëmushki","name_ru":"Черёмушки","elevation":190.0,"timezone":"Europe/Moscow","admin1_name":"Moscow"},{"name":"Zhukovsky","lat":55.59528,"lon":38.12028,"population":97200,"iso_a3":"RUS","country":"Russia","is_capital":false,"name_en":"Zhukovsky","name_es":"Zhukovsky","name_fr":"Zhukovsky","name_it":"Zhukovsky","name_ru":"Жуковский","elevation":137.0,"timezone":"Europe/Moscow","admin1_name":"Moscow Oblast"},{"name":"Ramenskoye","lat":55.56341,"lon":38.24152,"population":96000,"iso_a3":"RUS","country":"Russia","is_capital":false,"name_en":"Ramenskoye","name_es":"Rámenskoye","name_fr":"Ramenskoïe","name_it":"Ramenskoye","name_ru":"Раменское","elevation":134.0,"timezone":"Europe/Moscow","admin1_name":"Moscow Oblast"},{"name":"Yegor’yevsk","lat":55.37952,"lon":39.04122,"population":85200,"iso_a3":"RUS","country":"Russia","is_capital":false,"name_en":"Yegor'yevsk","name_es":"Yegor'yevsk","name_fr":"Yegor'yevsk","name_it":"Yegor'yevsk","name_ru":"Егорьевск","elevation":152.0,"timezone":"Europe/Moscow","admin1_name":"Moscow Oblast"},{"name":"Reutov","lat":55.76273,"lon":37.86303,"population":78370,"iso_a3":"RUS","country":"Russia","is_capital":false,"name_en":"Reutov","name_es":"Reutov","name_fr":"Reoutov","name_it":"Reutov","name_ru":"Реутов","elevation":167.0,"timezone":"Europe/Moscow","admin1_name":"Moscow Oblast"},{"name":"Voskresensk","lat":55.313,"lon":38.691,"population":77086,"iso_a3":"RUS","country":"Russia","is_capital":false,"name_en":"Voskresensk","name_es":"Voskresensk","name_fr":"Voskressensk","name_it":"Voskresensk","name_ru":"Воскресенск","elevation":127.0,"timezone":"Europe/Moscow","admin1_name":"Moscow Oblast"},{"name":"Chekhov","lat":55.14552,"lon":37.46193,"population":75643,"iso_a3":"RUS","country":"Russia","is_capital":false,"name_en":"Chekhov","name_es":"Chéjov","name_fr":"Tchekhov","name_it":"Čechov","name_ru":"Чехов","elevation":183.0,"timezone":"Europe/Moscow","admin1_name":"Moscow Oblast"},{"name":"Naro-Fominsk","lat":55.38752,"lon":36.73307,"population":72632,"iso_a3":"RUS","country":"Russia","is_capital":false,"name_en":"Naro-Fominsk","name_es":"Naro-Fominsk","name_fr":"Naro-Fominsk","name_it":"Naro-Fominsk","name_ru":"Наро-Фоминск","elevation":164.0,"timezone":"Europe/Moscow","admin1_name":"Moscow Oblast"},{"name":"Aleksin","lat":54.50484,"lon":37.06697,"population":66885,"iso_a3":"RUS","country":"Russia","is_capital":false,"name_en":"Aleksin","name_es":"Aleksin","name_fr":"Aleksine","name_it":"Aleksin","name_ru":"Алексин","elevation":154.0,"timezone":"Europe/Moscow","admin1_name":"Tula Oblast"},{"name":"Stupino","lat":54.89735,"lon":38.06796,"population":60999,"iso_a3":"RUS","country":"Russia","is_capital":false,"name_en":"Stupino","name_es":"Stúpino","name_fr":"Stoupino","name_it":"Stupino","name_ru":"Ступино","elevation":184.0,"timezone":"Europe/Moscow","admin1_name":"Moscow Oblast"},{"name":"Klimovsk","lat":55.36352,"lon":37.52984,"population":55206,"iso_a3":"RUS","country":"Russia","is_capital":false,"name_en":"Klimovsk","name_es":"Klimovsk","name_fr":"Klimovsk","name_it":"Klimovsk","name_ru":"Климовск","elevation":176.0,"timezone":"Europe/Moscow","admin1_name":"Moscow Oblast"},{"name":"Domodedovo","lat":55.44223,"lon":37.75372,"population":53887,"iso_a3":"RUS","country":"Russia","is_capital":false,"name_en":"Domodedovo","name_es":"Domodedovo","name_fr":"Domodedovo","name_it":"Domodedovo","name_ru":"Домодедово","elevation":167.0,"timezone":"Europe/Moscow","admin1_name":"Moscow Oblast"},{"name":"Fryazevo","lat":55.73321,"lon":38.46458,"population":53212,"iso_a3":"RUS","country":"Russia","is_capital":false,"name_en":"Fryazevo","name_es":"Fryazevo","name_fr":"Fryazevo","name_it":"Fryazevo","name_ru":"Фрязево","elevation":138.0,"timezone":"Europe/Moscow","admin1_name":"Moscow Oblast"},{"name":"Vidnoye","lat":55.5523,"lon":37.70885,"population":51721,"iso_a3":"RUS","country":"Russia","is_capital":false,"name_en":"Vidnoye","name_es":"Vidnoye","name_fr":"Vidnoye","name_it":"Vidnoye","name_ru":"Видное","elevation":170.0,"timezone":"Europe/Moscow","admin1_name":"Moscow Oblast"},{"name":"Lytkarino","lat":55.57653,"lon":37.91245,"population":50619,"iso_a3":"RUS","country":"Russia","is_capital":false,"name_en":"Lytkarino","name_es":"Lytkarino","name_fr":"Lytkarino","name_it":"Lytkarino","name_ru":"Лыткарино","elevation":164.0,"timezone":"Europe/Moscow","admin1_name":"Moscow Oblast"},{"name":"Dzerzhinskiy","lat":55.62868,"lon":37.8443,"population":41146,"iso_a3":"RUS","country":"Russia","is_capital":false,"name_en":"Dzerzhinskiy","name_es":"Dzerzhinskiy","name_fr":"Dzerzhinskiy","name_it":"Dzerzhinskiy","name_ru":"Дзержинский","elevation":164.0,"timezone":"Europe/Moscow","admin1_name":"Moscow Oblast"},{"name":"Kashira","lat":54.84763,"lon":38.18214,"population":40084,"iso_a3":"RUS","country":"Russia","is_capital":false,"name_en":"Kashira","name_es":"Kashira","name_fr":"Kachira","name_it":"Kašira","name_ru":"Кашира","elevation":173.0,"timezone":"Europe/Moscow","admin1_name":"Moscow Oblast"},{"name":"Troitsk","lat":55.48498,"lon":37.30736,"population":37591,"iso_a3":"RUS","country":"Russia","is_capital":false,"name_en":"Troitsk","name_es":"Troitsk","name_fr":"Troïtsk","name_it":"Troick","name_ru":"Троицк","elevation":170.0,"timezone":"Europe/Moscow","admin1_name":"Moscow"},{"name":"Protvino","lat":54.86821,"lon":37.21583,"population":37329,"iso_a3":"RUS","country":"Russia","is_capital":false,"name_en":"Protvino","name_es":"Protvino","name_fr":"Protvino","name_it":"Protvino","name_ru":"Протвино","elevation":134.0,"timezone":"Europe/Moscow","admin1_name":"Moscow Oblast"},{"name":"Krasnoznamensk","lat":55.59525,"lon":37.05235,"population":33700,"iso_a3":"RUS","country":"Russia","is_capital":false,"name_en":"Krasnoznamensk","name_es":"Krasnoznamensk","name_fr":"Krasnoznamensk","name_it":"Krasnoznamensk","name_ru":"Краснознаменск","elevation":193.0,"timezone":"Europe/Moscow","admin1_name":"Moscow Oblast"},{"name":"Lukhovitsy","lat":54.97661,"lon":39.0444,"population":32387,"iso_a3":"RUS","country":"Russia","is_capital":false,"name_en":"Lukhovitsy","name_es":"Lujovitsy","name_fr":"Loukhovitsy","name_it":"Luchovicy","name_ru":"Луховицы","elevation":118.0,"timezone":"Europe/Moscow","admin1_name":"Moscow Oblast"},{"name":"Drozhzhino","lat":55.52806,"lon":37.59917,"population":32345,"iso_a3":"RUS","country":"Russia","is_capital":false,"name_en":"Drozhzhino","name_es":"Drozhzhino","name_fr":"Drozhzhino","name_it":"Drozhzhino","name_ru":"Дрожжино","elevation":160.0,"timezone":"Europe/Moscow","admin1_name":"Moscow Oblast"},{"name":"Likino-Dulevo","lat":55.7083,"lon":38.9542,"population":31100,"iso_a3":"RUS","country":"Russia","is_capital":false,"name_en":"Likino-Dulevo","name_es":"Likino-Dulevo","name_fr":"Likino-Douliovo","name_it":"Likino-Dulevo","name_ru":"Ликино-Дулево","elevation":135.0,"timezone":"Europe/Moscow","admin1_name":"Moscow Oblast"},{"name":"Balabanovo","lat":55.18161,"lon":36.6606,"population":30194,"iso_a3":"RUS","country":"Russia","is_capital":false,"name_en":"Balabanovo","name_es":"Balabanovo","name_fr":"Balabanovo","name_it":"Balabanovo","name_ru":"Балабаново","elevation":160.0,"timezone":"Europe/Moscow","admin1_name":"Kaluga Oblast"},{"name":"Annino","lat":55.58316,"lon":37.26019,"population":30000,"iso_a3":"RUS","country":"Russia","is_capital":false,"name_en":"Annino","name_es":"Annino","name_fr":"Annino","name_it":"Annino","name_ru":"Аннино","elevation":182.0,"timezone":"Europe/Moscow","admin1_name":"Moscow Oblast"}]