[{"name":"Novomoskovsk","lat":54.01098,"lon":38.29084,"population":130982,"iso_a3":"RUS","country":"Russia","is_capital":false,"name_en":"Novomoskovsk","name_es":"Novomoskovsk","name_fr":"Novomoskovsk","name_it":"Novomoskovsk","name_ru":"Новомосковск","elevation":238.0,"timezone":"Europe/Moscow","admin1_name":"Tula Oblast"},{"name":"Yelets","lat":52.61435,"lon":38.50935,"population":115688,"iso_a3":"RUS","country":"Russia","is_capital":false,"name_en":"Yelets","name_es":"Yelets","name_fr":"Ielets","name_it":"Elec","name_ru":"Елец","elevation":121.0,"timezone":"Europe/Moscow","admin1_name":"Lipetsk Oblast"},{"name":"Shchëkino","lat":54.00734,"lon":37.50647,"population":60700,"iso_a3":"RUS","country":"Russia","is_capital":false,"name_en":"Shchyokino","name_es":"Shchyokino","name_fr":"Shchyokino","name_it":"Shchyokino","name_ru":"Щекино","elevation":255.0,"timezone":"Europe/Moscow","admin1_name":"Tula Oblast"},{"name":"Uzlovaya","lat":53.9839,"lon":38.15984,"population":58458,"iso_a3":"RUS","country":"Russia","is_capital":false,"name_en":"Uzlovaya","name_es":"Uzlovaya","name_fr":"Ouzlovaïa","name_it":"Uzlovaja","name_ru":"Узловая","elevation":217.0,"timezone":"Europe/Moscow","admin1_name":"Tula Oblast"},{"name":"Mtsensk","lat":53.2788,"lon":36.58047,"population":47609,"iso_a3":"RUS","country":"Russia","is_capital":false,"name_en":"Mtsensk","name_es":"Mtsensk","name_fr":"Mtsensk","name_it":"Mcensk","name_ru":"Мценск","elevation":168.0,"timezone":"Europe/Moscow","admin1_name":"Oryol oblast"},{"name":"Yefremov","lat":53.13762,"lon":38.11856,"population":45497,"iso_a3":"RUS","country":"Russia","is_capital":false,"name_en":"Yefremov","name_es":"Yefrémov","name_fr":"Iefremov","name_it":"Efremov","name_ru":"Ефремов","elevation":144.0,"timezone":"Europe/Moscow","admin1_name":"Tula Oblast"},{"name":"Donskoy","lat":53.96796,"lon":38.33151,"population":31968,"iso_a3":"RUS","country":"Russia","is_capital":false,"name_en":"Donskoy","name_es":"Donskoy","name_fr":"Donskoy","name_it":"Donskoy","name_ru":"Донской","elevation":219.0,"timezone":"Europe/Moscow","admin1_name":"Tula Oblast"},{"name":"Kimovsk","lat":53.97312,"lon":38.53502,"population":31947,"iso_a3":"RUS","country":"Russia","is_capital":false,"name_en":"Kimovsk","name_es":"Kímovsk","name_fr":"Kimovsk","name_it":"Kimovsk","name_ru":"Кимовск","elevation":218.0,"timezone":"Europe/Moscow","admin1_name":"Tula Oblast"},{"name":"Bogoroditsk","lat":53.77174,"lon":38.12305,"population":30216,"iso_a3":"RUS","country":"Russia","is_capital":false,"name_en":"Bogoroditsk","name_es":"Bogoroditsk","name_fr":"Bogoroditsk","name_it":"Bogorodick","name_ru":"Богородицк","elevation":239.0,"timezone":"Europe/Moscow","admin1_name":"Tula Oblast"}]