[{"name":"Keren","lat":15.77792,"lon":38.45107,"population":74800,"iso_a3":"ERI","country":"Eritrea","is_capital":false,"name_en":"Keren","name_es":"Keren","name_fr":"Keren","name_it":"Keren","name_ru":"Кэрэн","elevation":1399.0,"timezone":"Africa/Asmara","admin1_name":"Anseba"},{"name":"Himora","lat":14.30427,"lon":36.60601,"population":46100,"iso_a3":"ERI","country":"Eritrea","is_capital":false,"name_en":"Himora","name_es":"Himora","name_fr":"Himora","name_it":"Himora","name_ru":"Himora","elevation":585.0,"timezone":"Africa/Asmara","admin1_name":"Gash-Barka"},{"name":"Inda Silasē","lat":14.10307,"lon":38.28289,"population":100100,"iso_a3":"ETH","country":"Ethiopia","is_capital":false,"name_en":"Inda Silasē","name_es":"Inda Silasē","name_fr":"Inda Silasē","name_it":"Inda Silasē","name_ru":"Inda Silasē","elevation":1912.0,"timezone":"Africa/Addis_Ababa","admin1_name":"Tigray"},{"name":"Aksum","lat":14.12109,"lon":38.72337,"population":94500,"iso_a3":"ETH","country":"Ethiopia","is_capital":false,"name_en":"Axum","name_es":"Aksum","name_fr":"Aksoum","name_it":"Axum","name_ru":"Axum","elevation":2131.0,"timezone":"Africa/Addis_Ababa","admin1_name":"Tigray"},{"name":"Adwa","lat":14.16347,"lon":38.89924,"population":85600,"iso_a3":"ETH","country":"Ethiopia","is_capital":false,"name_en":"Adwa","name_es":"Adua","name_fr":"Adoua","name_it":"Adua","name_ru":"Адуа","elevation":1895.0,"timezone":"Africa/Addis_Ababa","admin1_name":"Tigray"},{"name":"Sheraro","lat":14.40076,"lon":37.93399,"population":36100,"iso_a3":"ETH","country":"Ethiopia","is_capital":false,"name_en":"Sheraro","name_es":"Sheraro","name_fr":"Sheraro","name_it":"Sheraro","name_ru":"Sheraro","elevation":1170.0,"timezone":"Africa/Addis_Ababa","admin1_name":"Tigray"}]