[{"name":"Erzincan","lat":39.73919,"lon":39.49015,"population":150714,"iso_a3":"TUR","country":"Turkey","is_capital":false,"name_en":"Erzincan","name_es":"Erzincan","name_fr":"Erzincan","name_it":"Erzincam","name_ru":"Эрзинджан","elevation":1195.0,"timezone":"Europe/Istanbul","admin1_name":"Erzincan"},{"name":"Bingöl","lat":38.88472,"lon":40.49389,"population":128935,"iso_a3":"TUR","country":"Turkey","is_capital":false,"name_en":"Bingöl","name_es":"Bingöl","name_fr":"Bingöl","name_it":"Bingöl","name_ru":"Бингол","elevation":1158.0,"timezone":"Europe/Istanbul","admin1_name":"Bingöl"},{"name":"Bayburt","lat":40.25631,"lon":40.22289,"population":48036,"iso_a3":"TUR","country":"Turkey","is_capital":false,"name_en":"Bayburt","name_es":"Provincia de Bayburt","name_fr":"Bayburt","name_it":"Bayburt","name_ru":"Байбурт","elevation":1564.0,"timezone":"Europe/Istanbul","admin1_name":"Bayburt Province"},{"name":"Cimin","lat":39.70947,"lon":39.70015,"population":39591,"iso_a3":"TUR","country":"Turkey","is_capital":false,"name_en":"Cimin","name_es":"Cimin","name_fr":"Cimin","name_it":"Cimin","name_ru":"Cimin","elevation":1422.0,"timezone":"Europe/Istanbul","admin1_name":"Erzincan"},{"name":"Gümüşhane","lat":40.46001,"lon":39.47176,"population":39214,"iso_a3":"TUR","country":"Turkey","is_capital":false,"name_en":"Gümüşhane","name_es":"Gümüşhane","name_fr":"Gümüşhane","name_it":"Gümüşhane","name_ru":"Гюмюшане","elevation":1180.0,"timezone":"Europe/Istanbul","admin1_name":"Gümüşhane Province"},{"name":"Hınıs","lat":39.35766,"lon":41.69253,"population":35472,"iso_a3":"TUR","country":"Turkey","is_capital":false,"name_en":"Hınıs","name_es":"Hınıs","name_fr":"Hınıs","name_it":"Hınıs","name_ru":"Hınıs","elevation":1700.0,"timezone":"Europe/Istanbul","admin1_name":"Erzurum"},{"name":"Tunceli","lat":39.09921,"lon":39.54351,"population":35161,"iso_a3":"TUR","country":"Turkey","is_capital":false,"name_en":"Tunceli","name_es":"Tunceli","name_fr":"Tunceli","name_it":"Tunceli","name_ru":"Тунджели","elevation":903.0,"timezone":"Europe/Istanbul","admin1_name":"Tunceli"},{"name":"Of","lat":40.94055,"lon":40.25918,"population":31951,"iso_a3":"TUR","country":"Turkey","is_capital":false,"name_en":"Of","name_es":"Of","name_fr":"Of","name_it":"Of","name_ru":"Оф","elevation":8.0,"timezone":"Europe/Istanbul","admin1_name":"Trabzon"}]