[{"name":"Murom","lat":55.56853,"lon":42.02388,"population":126931,"iso_a3":"RUS","country":"Russia","is_capital":false,"name_en":"Murom","name_es":"Múrom","name_fr":"Mourom","name_it":"Murom","name_ru":"Муром","elevation":121.0,"timezone":"Europe/Moscow","admin1_name":"Vladimir Oblast"},{"name":"Gus’-Khrustal’nyy","lat":55.61171,"lon":40.65023,"population":62746,"iso_a3":"RUS","country":"Russia","is_capital":false,"name_en":"Gus'-Khrustal'nyy","name_es":"Gus'-Khrustal'nyy","name_fr":"Gus'-Khrustal'nyy","name_it":"Gus'-Khrustal'nyy","name_ru":"Гусь-Хрустальный","elevation":126.0,"timezone":"Europe/Moscow","admin1_name":"Vladimir Oblast"},{"name":"Vyksa","lat":55.32058,"lon":42.17402,"population":61664,"iso_a3":"RUS","country":"Russia","is_capital":false,"name_en":"Vyksa","name_es":"Viksa","name_fr":"Vyksa","name_it":"Vyksa","name_ru":"Выкса","elevation":113.0,"timezone":"Europe/Moscow","admin1_name":"Nizhny Novgorod Oblast"},{"name":"Kasimov","lat":54.94377,"lon":41.40341,"population":35355,"iso_a3":"RUS","country":"Russia","is_capital":false,"name_en":"Kasimov","name_es":"Kasímov","name_fr":"Kassimov","name_it":"Kasimov","name_ru":"Касимов","elevation":142.0,"timezone":"Europe/Moscow","admin1_name":"Ryazan Oblast"},{"name":"Shatura","lat":55.57259,"lon":39.53417,"population":30069,"iso_a3":"RUS","country":"Russia","is_capital":false,"name_en":"Shatura","name_es":"Shatúra","name_fr":"Chatoura","name_it":"Šatura","name_ru":"Шатура","elevation":118.0,"timezone":"Europe/Moscow","admin1_name":"Moscow Oblast"}]