[{"name":"Batumi","lat":41.64077,"lon":41.6306,"population":186949,"iso_a3":"GEO","country":"Georgia","is_capital":false,"name_en":"Batumi","name_es":"Batum","name_fr":"Batoumi","name_it":"Batumi","name_ru":"Батуми","elevation":8.0,"timezone":"Asia/Tbilisi","admin1_name":"Adjara"},{"name":"Sokhumi","lat":43.00697,"lon":40.9893,"population":65439,"iso_a3":"GEO","country":"Georgia","is_capital":false,"name_en":"Sukhumi","name_es":"Sujumi","name_fr":"Soukhoumi","name_it":"Sukhumi","name_ru":"Сухум","elevation":21.0,"timezone":"Europe/Moscow","admin1_name":"Abkhazia"},{"name":"Poti","lat":42.14272,"lon":41.67384,"population":41175,"iso_a3":"GEO","country":"Georgia","is_capital":false,"name_en":"Poti","name_es":"Poti","name_fr":"Poti","name_it":"Poti","name_ru":"Поти","elevation":6.0,"timezone":"Asia/Tbilisi","admin1_name":"Samegrelo and Zemo Svaneti"},{"name":"Zugdidi","lat":42.5084,"lon":41.86796,"population":40067,"iso_a3":"GEO","country":"Georgia","is_capital":false,"name_en":"Zugdidi","name_es":"Zugdidi","name_fr":"Zugdidi","name_it":"Zugdidi","name_ru":"Зугдиди","elevation":128.0,"timezone":"Asia/Tbilisi","admin1_name":"Samegrelo and Zemo Svaneti"},{"name":"Trabzon","lat":41.005,"lon":39.72694,"population":244083,"iso_a3":"TUR","country":"Turkey","is_capital":false,"name_en":"Trabzon","name_es":"Trebisonda","name_fr":"Trabzon","name_it":"Trebisonda","name_ru":"Трабзон","elevation":39.0,"timezone":"Europe/Istanbul","admin1_name":"Trabzon"},{"name":"Rize","lat":41.02083,"lon":40.52194,"population":119828,"iso_a3":"TUR","country":"Turkey","is_capital":false,"name_en":"Rize","name_es":"Rize","name_fr":"Rize","name_it":"Rize","name_ru":"Ризе","elevation":63.0,"timezone":"Europe/Istanbul","admin1_name":"Rize Province"},{"name":"Ardeşen","lat":41.19064,"lon":40.97935,"population":67965,"iso_a3":"TUR","country":"Turkey","is_capital":false,"name_en":"Ardeşen","name_es":"Ardeşen","name_fr":"Ardeşen","name_it":"Ardeşen","name_ru":"Ардешен","elevation":8.0,"timezone":"Europe/Istanbul","admin1_name":"Rize Province"},{"name":"Akçaabat","lat":41.02121,"lon":39.57146,"population":45105,"iso_a3":"TUR","country":"Turkey","is_capital":false,"name_en":"Akçaabat","name_es":"Akçaabat","name_fr":"Akçaabat","name_it":"Akçaabat","name_ru":"Акчаабад","elevation":21.0,"timezone":"Europe/Istanbul","admin1_name":"Trabzon"}]