[{"name":"Tambov","lat":52.73632,"lon":41.44102,"population":293661,"iso_a3":"RUS","country":"Russia","is_capital":false,"name_en":"Tambov","name_es":"Tambov","name_fr":"Tambov","name_it":"Tambov","name_ru":"Тамбов","elevation":133.0,"timezone":"Europe/Moscow","admin1_name":"Tambov Oblast"},{"name":"Michurinsk","lat":52.90761,"lon":40.4823,"population":93499,"iso_a3":"RUS","country":"Russia","is_capital":false,"name_en":"Michurinsk","name_es":"Michúrinsk","name_fr":"Mitchourinsk","name_it":"Mičurinsk","name_ru":"Мичуринск","elevation":139.0,"timezone":"Europe/Moscow","admin1_name":"Tambov Oblast"},{"name":"Gryazi","lat":52.49535,"lon":39.94031,"population":47413,"iso_a3":"RUS","country":"Russia","is_capital":false,"name_en":"Gryazi","name_es":"Gryazi","name_fr":"Gryazi","name_it":"Gryazi","name_ru":"Грязи","elevation":119.0,"timezone":"Europe/Moscow","admin1_name":"Lipetsk Oblast"},{"name":"Rasskazovo","lat":52.66384,"lon":41.88915,"population":45957,"iso_a3":"RUS","country":"Russia","is_capital":false,"name_en":"Rasskazovo","name_es":"Rasskazovo","name_fr":"Rasskazovo","name_it":"Rasskazovo","name_ru":"Рассказово","elevation":156.0,"timezone":"Europe/Moscow","admin1_name":"Tambov Oblast"},{"name":"Morshansk","lat":53.44325,"lon":41.81061,"population":43311,"iso_a3":"RUS","country":"Russia","is_capital":false,"name_en":"Morshansk","name_es":"Morshansk","name_fr":"Morshansk","name_it":"Morshansk","name_ru":"Моршанск","elevation":108.0,"timezone":"Europe/Moscow","admin1_name":"Tambov Oblast"},{"name":"Kotovsk","lat":52.59047,"lon":41.50251,"population":33077,"iso_a3":"RUS","country":"Russia","is_capital":false,"name_en":"Kotovsk","name_es":"Kotovsk","name_fr":"Kotovsk","name_it":"Kotovsk","name_ru":"Котовск","elevation":136.0,"timezone":"Europe/Moscow","admin1_name":"Tambov Oblast"}]