[{"name":"Mek'ele","lat":13.49667,"lon":39.47528,"population":457900,"iso_a3":"ETH","country":"Ethiopia","is_capital":false,"name_en":"Mek'ele","name_es":"Mek'ele","name_fr":"Mek'ele","name_it":"Macallè","name_ru":"Мэкэле","elevation":2068.0,"timezone":"Africa/Addis_Ababa","admin1_name":"Tigray"},{"name":"Weldiya","lat":11.8277,"lon":39.59164,"population":104000,"iso_a3":"ETH","country":"Ethiopia","is_capital":false,"name_en":"Weldiya","name_es":"Weldiya","name_fr":"Weldiya","name_it":"Ualdia","name_ru":"Уольдыя","elevation":1892.0,"timezone":"Africa/Addis_Ababa","admin1_name":"Amhara"},{"name":"Alamata","lat":12.416,"lon":39.55971,"population":70400,"iso_a3":"ETH","country":"Ethiopia","is_capital":false,"name_en":"Alamata","name_es":"Alamata","name_fr":"Alamata","name_it":"Alamata","name_ru":"Alamata","elevation":1554.0,"timezone":"Africa/Addis_Ababa","admin1_name":"Tigray"},{"name":"Wik’ro","lat":13.79525,"lon":39.60303,"population":64000,"iso_a3":"ETH","country":"Ethiopia","is_capital":false,"name_en":"Wik’ro","name_es":"Wik’ro","name_fr":"Wik’ro","name_it":"Wik’ro","name_ru":"Wik’ro","elevation":2002.0,"timezone":"Africa/Addis_Ababa","admin1_name":"Tigray"},{"name":"Samara","lat":11.79342,"lon":41.00578,"population":50000,"iso_a3":"ETH","country":"Ethiopia","is_capital":false,"name_en":"Semera","name_es":"Semera","name_fr":"Semera","name_it":"Semera","name_ru":"Semera","elevation":433.0,"timezone":"Africa/Addis_Ababa","admin1_name":"Āfar"},{"name":"Maych’ew","lat":12.7875,"lon":39.54222,"population":49600,"iso_a3":"ETH","country":"Ethiopia","is_capital":false,"name_en":"Maych’ew","name_es":"Maych’ew","name_fr":"Maych’ew","name_it":"Maych’ew","name_ru":"Maych’ew","elevation":2400.0,"timezone":"Africa/Addis_Ababa","admin1_name":"Tigray"},{"name":"Dolo","lat":13.49923,"lon":39.63723,"population":41400,"iso_a3":"ETH","country":"Ethiopia","is_capital":false,"name_en":"Dolo","name_es":"Dolo","name_fr":"Dolo","name_it":"Dolo","name_ru":"Dolo","elevation":2379.0,"timezone":"Africa/Addis_Ababa","admin1_name":"Tigray"},{"name":"Asaita","lat":11.56838,"lon":41.43869,"population":39400,"iso_a3":"ETH","country":"Ethiopia","is_capital":false,"name_en":"Asaita","name_es":"Asayita","name_fr":"Assayta","name_it":"Asaita","name_ru":"Асайита","elevation":371.0,"timezone":"Africa/Addis_Ababa","admin1_name":"Āfar"},{"name":"Batī","lat":11.19152,"lon":40.01675,"population":37600,"iso_a3":"ETH","country":"Ethiopia","is_capital":false,"name_en":"Batī","name_es":"Batī","name_fr":"Batī","name_it":"Batī","name_ru":"Batī","elevation":1662.0,"timezone":"Africa/Addis_Ababa","admin1_name":"Amhara"},{"name":"Mersa","lat":11.66667,"lon":39.65,"population":36300,"iso_a3":"ETH","country":"Ethiopia","is_capital":false,"name_en":"Mersa","name_es":"Mersa","name_fr":"Mersa","name_it":"Mersa","name_ru":"Mersa","elevation":1721.0,"timezone":"Africa/Addis_Ababa","admin1_name":"Amhara"},{"name":"Dubti","lat":11.73292,"lon":41.082,"population":36100,"iso_a3":"ETH","country":"Ethiopia","is_capital":false,"name_en":"Dubti","name_es":"Dubti","name_fr":"Dubti","name_it":"Dubti","name_ru":"Dubti","elevation":381.0,"timezone":"Africa/Addis_Ababa","admin1_name":"Āfar"},{"name":"Korem","lat":12.50583,"lon":39.52278,"population":35600,"iso_a3":"ETH","country":"Ethiopia","is_capital":false,"name_en":"Korem","name_es":"Korem","name_fr":"Korem","name_it":"Korem","name_ru":"Korem","elevation":2487.0,"timezone":"Africa/Addis_Ababa","admin1_name":"Tigray"},{"name":"Logīya","lat":11.72615,"lon":40.9797,"population":34500,"iso_a3":"ETH","country":"Ethiopia","is_capital":false,"name_en":"Logīya","name_es":"Logīya","name_fr":"Logīya","name_it":"Logīya","name_ru":"Logīya","elevation":400.0,"timezone":"Africa/Addis_Ababa","admin1_name":"Āfar"}]