[{"name":"Nacala","lat":-14.56257,"lon":40.68538,"population":239808,"iso_a3":"MOZ","country":"Mozambique","is_capital":false,"name_en":"Nacala","name_es":"Nacala","name_fr":"Nacala","name_it":"Nacala","name_ru":"Город-де-Накала","elevation":137.0,"timezone":"Africa/Maputo","admin1_name":"Nampula"},{"name":"Angoche","lat":-16.2325,"lon":39.90861,"population":104540,"iso_a3":"MOZ","country":"Mozambique","is_capital":false,"name_en":"Angoche","name_es":"Angoche","name_fr":"Angoche","name_it":"Angoche","name_ru":"Angoche","elevation":12.0,"timezone":"Africa/Maputo","admin1_name":"Nampula"},{"name":"Mozambique","lat":-15.03466,"lon":40.73447,"population":55829,"iso_a3":"MOZ","country":"Mozambique","is_capital":false,"name_en":"Mozambique","name_es":"Mozambique","name_fr":"Mozambique","name_it":"Mozambique","name_ru":"Mozambique","elevation":11.0,"timezone":"Africa/Maputo","admin1_name":"Nampula"},{"name":"Monapo","lat":-14.91694,"lon":40.30222,"population":50134,"iso_a3":"MOZ","country":"Mozambique","is_capital":false,"name_en":"Monapo","name_es":"Monapo","name_fr":"Monapo","name_it":"Monapo","name_ru":"Monapo","elevation":111.0,"timezone":"Africa/Maputo","admin1_name":"Nampula"},{"name":"Namialo","lat":-14.92056,"lon":39.98361,"population":37226,"iso_a3":"MOZ","country":"Mozambique","is_capital":false,"name_en":"Namialo","name_es":"Namialo","name_fr":"Namialo","name_it":"Namialo","name_ru":"Namialo","elevation":201.0,"timezone":"Africa/Maputo","admin1_name":"Nampula"}]