[{"name":"Matuga","lat":-4.168,"lon":39.57068,"population":194252,"iso_a3":"KEN","country":"Kenya","is_capital":false,"name_en":"Matuga","name_es":"Matuga","name_fr":"Matuga","name_it":"Matuga","name_ru":"Matuga","elevation":132.0,"timezone":"Africa/Nairobi","admin1_name":"Kwale County"},{"name":"Jomvu","lat":-3.98623,"lon":39.6082,"population":163415,"iso_a3":"KEN","country":"Kenya","is_capital":false,"name_en":"Jomvu","name_es":"Jomvu","name_fr":"Jomvu","name_it":"Jomvu","name_ru":"Jomvu","elevation":21.0,"timezone":"Africa/Nairobi","admin1_name":"Mombasa County"},{"name":"Malindi","lat":-3.21799,"lon":40.11692,"population":119859,"iso_a3":"KEN","country":"Kenya","is_capital":false,"name_en":"Malindi","name_es":"Malindi","name_fr":"Malindi","name_it":"Malindi","name_ru":"Малинди","elevation":7.0,"timezone":"Africa/Nairobi","admin1_name":"Kilifi County"},{"name":"Mtwapa","lat":-3.93938,"lon":39.74877,"population":90677,"iso_a3":"KEN","country":"Kenya","is_capital":false,"name_en":"Mtwapa","name_es":"Mtwapa","name_fr":"Mtwapa","name_it":"Mtwapa","name_ru":"Mtwapa","elevation":23.0,"timezone":"Africa/Nairobi","admin1_name":"Kilifi County"},{"name":"Ukunda","lat":-4.2929,"lon":39.56404,"population":77686,"iso_a3":"KEN","country":"Kenya","is_capital":false,"name_en":"Ukunda","name_es":"Ukunda","name_fr":"Ukunda","name_it":"Ukunda","name_ru":"Ukunda","elevation":30.0,"timezone":"Africa/Nairobi","admin1_name":"Kwale County"},{"name":"Kilifi","lat":-3.63045,"lon":39.84992,"population":74270,"iso_a3":"KEN","country":"Kenya","is_capital":false,"name_en":"Kilifi","name_es":"Kilifi","name_fr":"Kilifi","name_it":"Kilifi","name_ru":"Килифи","elevation":24.0,"timezone":"Africa/Nairobi","admin1_name":"Kilifi County"},{"name":"Mariakani","lat":-3.86261,"lon":39.47458,"population":31715,"iso_a3":"KEN","country":"Kenya","is_capital":false,"name_en":"Mariakani","name_es":"Mariakani","name_fr":"Mariakani","name_it":"Mariakani","name_ru":"Mariakani","elevation":206.0,"timezone":"Africa/Nairobi","admin1_name":"Kilifi County"},{"name":"Chake Chake","lat":-5.24586,"lon":39.76659,"population":52047,"iso_a3":"TZA","country":"Tanzania","is_capital":false,"name_en":"Chake Chake","name_es":"Chake Chake","name_fr":"Chake Chake","name_it":"Chake Chake","name_ru":"Chake Chake","elevation":19.0,"timezone":"Africa/Dar_es_Salaam","admin1_name":"Pemba South"},{"name":"Wete","lat":-5.05589,"lon":39.72938,"population":35951,"iso_a3":"TZA","country":"Tanzania","is_capital":false,"name_en":"Wete","name_es":"Wete","name_fr":"Wete","name_it":"Wete","name_ru":"Вето","elevation":53.0,"timezone":"Africa/Dar_es_Salaam","admin1_name":"Pemba North"}]