[{"name":"Dzerzhinsk","lat":56.24422,"lon":43.45543,"population":233126,"iso_a3":"RUS","country":"Russia","is_capital":false,"name_en":"Dzerzhinsk","name_es":"Dzerzhinsk","name_fr":"Dzerjinsk","name_it":"Dzeržinsk","name_ru":"Дзержинск","elevation":108.0,"timezone":"Europe/Moscow","admin1_name":"Nizhny Novgorod Oblast"},{"name":"Kstovo","lat":56.1475,"lon":44.19865,"population":67242,"iso_a3":"RUS","country":"Russia","is_capital":false,"name_en":"Kstovo","name_es":"Kstovo","name_fr":"Kstovo","name_it":"Kstovo","name_ru":"Кстово","elevation":127.0,"timezone":"Europe/Moscow","admin1_name":"Nizhny Novgorod Oblast"},{"name":"Pavlovo","lat":55.9686,"lon":43.0912,"population":63338,"iso_a3":"RUS","country":"Russia","is_capital":false,"name_en":"Pavlovo","name_es":"Pávlovo","name_fr":"Pavlovo","name_it":"Pavlovo","name_ru":"Павлово","elevation":128.0,"timezone":"Europe/Moscow","admin1_name":"Nizhny Novgorod Oblast"},{"name":"Novaya Balakhna","lat":56.48989,"lon":43.60114,"population":63083,"iso_a3":"RUS","country":"Russia","is_capital":false,"name_en":"Balakhna","name_es":"Balakhna","name_fr":"Balakhna","name_it":"Balakhna","name_ru":"Балахна","elevation":72.0,"timezone":"Europe/Moscow","admin1_name":"Nizhny Novgorod Oblast"},{"name":"Bor","lat":56.35944,"lon":44.07304,"population":60647,"iso_a3":"RUS","country":"Russia","is_capital":false,"name_en":"Bor","name_es":"Bor","name_fr":"Bor","name_it":"Bor","name_ru":"Бор","elevation":82.0,"timezone":"Europe/Moscow","admin1_name":"Nizhny Novgorod Oblast"},{"name":"Zavolzh’ye","lat":56.64051,"lon":43.39446,"population":42900,"iso_a3":"RUS","country":"Russia","is_capital":false,"name_en":"Zavolzh'ye","name_es":"Zavolzh'ye","name_fr":"Zavolzh'ye","name_it":"Zavolzh'ye","name_ru":"Заволжье","elevation":80.0,"timezone":"Europe/Moscow","admin1_name":"Nizhny Novgorod Oblast"},{"name":"Bogorodsk","lat":56.10149,"lon":43.5101,"population":36652,"iso_a3":"RUS","country":"Russia","is_capital":false,"name_en":"Bogorodsk","name_es":"Bogorodsk","name_fr":"Bogorodsk","name_it":"Bogorodsk","name_ru":"Богородск","elevation":140.0,"timezone":"Europe/Moscow","admin1_name":"Nizhny Novgorod Oblast"},{"name":"Gorodets","lat":56.65497,"lon":43.47269,"population":31788,"iso_a3":"RUS","country":"Russia","is_capital":false,"name_en":"Gorodets","name_es":"Gorodéts","name_fr":"Gorodets","name_it":"Gorodec","name_ru":"Городец","elevation":104.0,"timezone":"Europe/Moscow","admin1_name":"Nizhny Novgorod Oblast"}]