[{"name":"Nalchik","lat":43.49806,"lon":43.61889,"population":239300,"iso_a3":"RUS","country":"Russia","is_capital":false,"name_en":"Nal'chik","name_es":"Nal'chik","name_fr":"Nal'chik","name_it":"Nal'chik","name_ru":"Нальчик","elevation":464.0,"timezone":"Europe/Moscow","admin1_name":"Kabardino-Balkariya Republic"},{"name":"Nazran","lat":43.22597,"lon":44.77323,"population":164131,"iso_a3":"RUS","country":"Russia","is_capital":false,"name_en":"Nazran","name_es":"Nazran","name_fr":"Nazran","name_it":"Nazran","name_ru":"Назрань","elevation":523.0,"timezone":"Europe/Moscow","admin1_name":"Ingushetiya Republic"},{"name":"Pyatigorsk","lat":44.05,"lon":43.05036,"population":142865,"iso_a3":"RUS","country":"Russia","is_capital":false,"name_en":"Pyatigorsk","name_es":"Pyatigorsk","name_fr":"Pyatigorsk","name_it":"Pyatigorsk","name_ru":"Пятигорск","elevation":542.0,"timezone":"Europe/Moscow","admin1_name":"Stavropol Kray"},{"name":"Kislovodsk","lat":43.91333,"lon":42.72083,"population":132771,"iso_a3":"RUS","country":"Russia","is_capital":false,"name_en":"Kislovodsk","name_es":"Kislovodsk","name_fr":"Kislovodsk","name_it":"Kislovodsk","name_ru":"Кисловодск","elevation":815.0,"timezone":"Europe/Moscow","admin1_name":"Stavropol Kray"},{"name":"Yessentuki","lat":44.04826,"lon":42.85638,"population":81015,"iso_a3":"RUS","country":"Russia","is_capital":false,"name_en":"Yessentuki","name_es":"Yessentuki","name_fr":"Yessentuki","name_it":"Yessentuki","name_ru":"Ессентуки","elevation":629.0,"timezone":"Europe/Moscow","admin1_name":"Stavropol Kray"},{"name":"Mineralnye Vody","lat":44.21028,"lon":43.13528,"population":76280,"iso_a3":"RUS","country":"Russia","is_capital":false,"name_en":"Mineralnye Vody","name_es":"Mineralnye Vody","name_fr":"Mineralnye Vody","name_it":"Mineral'nye Vody","name_ru":"Минеральные Воды","elevation":310.0,"timezone":"Europe/Moscow","admin1_name":"Stavropol Kray"},{"name":"Georgiyevsk","lat":44.1494,"lon":43.47019,"population":72649,"iso_a3":"RUS","country":"Russia","is_capital":false,"name_en":"Georgiyevsk","name_es":"Georgiyevsk","name_fr":"Georgiyevsk","name_it":"Georgiyevsk","name_ru":"Георгиевск","elevation":305.0,"timezone":"Europe/Moscow","admin1_name":"Stavropol Kray"},{"name":"Budyonnovsk","lat":44.78389,"lon":44.16583,"population":67962,"iso_a3":"RUS","country":"Russia","is_capital":false,"name_en":"Budyonnovsk","name_es":"Budyonnovsk","name_fr":"Budyonnovsk","name_it":"Budyonnovsk","name_ru":"Будённовск","elevation":119.0,"timezone":"Europe/Moscow","admin1_name":"Stavropol Kray"},{"name":"Prokhladnyy","lat":43.75741,"lon":44.0297,"population":60800,"iso_a3":"RUS","country":"Russia","is_capital":false,"name_en":"Prokhladnyy","name_es":"Prokhladnyy","name_fr":"Prokhladnyy","name_it":"Prokhladnyy","name_ru":"Прохладный","elevation":208.0,"timezone":"Europe/Moscow","admin1_name":"Kabardino-Balkariya Republic"},{"name":"Malgobek","lat":43.51121,"lon":44.59051,"population":43400,"iso_a3":"RUS","country":"Russia","is_capital":false,"name_en":"Malgobek","name_es":"Malgobek","name_fr":"Malgobek","name_it":"Malgobek","name_ru":"Малгобек","elevation":371.0,"timezone":"Europe/Moscow","admin1_name":"Ingushetiya Republic"},{"name":"Zelenokumsk","lat":44.41044,"lon":43.88007,"population":41306,"iso_a3":"RUS","country":"Russia","is_capital":false,"name_en":"Zelenokumsk","name_es":"Zelenokumsk","name_fr":"Zelenokoumsk","name_it":"Zelenokumsk","name_ru":"Зеленокумск","elevation":149.0,"timezone":"Europe/Moscow","admin1_name":"Stavropol Kray"},{"name":"Mozdok","lat":43.73976,"lon":44.65157,"population":40823,"iso_a3":"RUS","country":"Russia","is_capital":false,"name_en":"Mozdok","name_es":"Mozdok","name_fr":"Mozdok","name_it":"Mozdok","name_ru":"Моздок","elevation":133.0,"timezone":"Europe/Moscow","admin1_name":"North Ossetia–Alania"},{"name":"Baksan","lat":43.68374,"lon":43.53507,"population":37519,"iso_a3":"RUS","country":"Russia","is_capital":false,"name_en":"Baksan","name_es":"Baksan","name_fr":"Baksan","name_it":"Baksan","name_ru":"Баксан","elevation":453.0,"timezone":"Europe/Moscow","admin1_name":"Kabardino-Balkariya Republic"},{"name":"Beslan","lat":43.19277,"lon":44.53274,"population":35604,"iso_a3":"RUS","country":"Russia","is_capital":false,"name_en":"Beslan","name_es":"Beslán","name_fr":"Beslan","name_it":"Beslan","name_ru":"Беслан","elevation":486.0,"timezone":"Europe/Moscow","admin1_name":"North Ossetia–Alania"},{"name":"Karabulak","lat":43.30513,"lon":44.89949,"population":34511,"iso_a3":"RUS","country":"Russia","is_capital":false,"name_en":"Karabulak","name_es":"Karabulak","name_fr":"Karaboulak","name_it":"Karabulak","name_ru":"Карабулак","elevation":418.0,"timezone":"Europe/Moscow","admin1_name":"Ingushetiya Republic"},{"name":"Nartkala","lat":43.5544,"lon":43.85499,"population":33390,"iso_a3":"RUS","country":"Russia","is_capital":false,"name_en":"Nartkala","name_es":"Nartkala","name_fr":"Nartkala","name_it":"Nartkala","name_ru":"Нарткала","elevation":303.0,"timezone":"Europe/Moscow","admin1_name":"Kabardino-Balkariya Republic"}]