[{"name":"Gyumri","lat":40.79305,"lon":43.84635,"population":114667,"iso_a3":"ARM","country":"Armenia","is_capital":false,"name_en":"Gyumri","name_es":"Gyumri","name_fr":"Gyumri","name_it":"Gyumri","name_ru":"Гюмри","elevation":1553.0,"timezone":"Asia/Yerevan","admin1_name":"Shirak"},{"name":"Vanadzor","lat":40.8074,"lon":44.49704,"population":78100,"iso_a3":"ARM","country":"Armenia","is_capital":false,"name_en":"Vanadzor","name_es":"Vanadzor","name_fr":"Vanadzor","name_it":"Vanadzor","name_ru":"Ванадзор","elevation":1368.0,"timezone":"Asia/Yerevan","admin1_name":"Lori"},{"name":"Hrazdan","lat":40.5169,"lon":44.75591,"population":49500,"iso_a3":"ARM","country":"Armenia","is_capital":false,"name_en":"Hrazdan","name_es":"Hrazdan","name_fr":"Hrazdan","name_it":"Hrazdan","name_ru":"Раздан","elevation":1702.0,"timezone":"Asia/Yerevan","admin1_name":"Kotayk"},{"name":"Abovyan","lat":40.2717,"lon":44.63342,"population":47546,"iso_a3":"ARM","country":"Armenia","is_capital":false,"name_en":"Abovyan","name_es":"Abovyan","name_fr":"Abovyan","name_it":"Abovyan","name_ru":"Абовян","elevation":1450.0,"timezone":"Asia/Yerevan","admin1_name":"Kotayk"},{"name":"Vagharshapat","lat":40.16557,"lon":44.29462,"population":45842,"iso_a3":"ARM","country":"Armenia","is_capital":false,"name_en":"Vagharshapat","name_es":"Echmiadzin","name_fr":"Etchmiadzin","name_it":"Echmiadzin","name_ru":"Вагаршапат","elevation":877.0,"timezone":"Asia/Yerevan","admin1_name":"Armavir"},{"name":"Ağrı","lat":39.71467,"lon":43.04015,"population":124483,"iso_a3":"TUR","country":"Turkey","is_capital":false,"name_en":"Ağrı","name_es":"Ağrı","name_fr":"Ağrı","name_it":"Ağrı","name_ru":"Агры","elevation":1622.0,"timezone":"Europe/Istanbul","admin1_name":"Ağrı"},{"name":"Iğdır","lat":39.92371,"lon":44.045,"population":101700,"iso_a3":"TUR","country":"Turkey","is_capital":false,"name_en":"Iğdır","name_es":"Iğdır","name_fr":"Iğdır","name_it":"Iğdır","name_ru":"Игдир","elevation":860.0,"timezone":"Europe/Istanbul","admin1_name":"Iğdır"},{"name":"Erciş","lat":39.02587,"lon":43.35964,"population":91915,"iso_a3":"TUR","country":"Turkey","is_capital":false,"name_en":"Erciş","name_es":"Erciş","name_fr":"Erciş","name_it":"Erciş","name_ru":"Erciş","elevation":1682.0,"timezone":"Europe/Istanbul","admin1_name":"Van"},{"name":"Kars","lat":40.59825,"lon":43.08548,"population":91450,"iso_a3":"TUR","country":"Turkey","is_capital":false,"name_en":"Kars","name_es":"Kars","name_fr":"Kars","name_it":"Kars","name_ru":"Карс","elevation":1767.0,"timezone":"Europe/Istanbul","admin1_name":"Kars Province"},{"name":"Patnos","lat":39.22493,"lon":42.85693,"population":87451,"iso_a3":"TUR","country":"Turkey","is_capital":false,"name_en":"Patnos","name_es":"Patnos","name_fr":"Patnos","name_it":"Patnos","name_ru":"Patnos","elevation":1630.0,"timezone":"Europe/Istanbul","admin1_name":"Ağrı"},{"name":"Doğubayazıt","lat":39.54694,"lon":44.08417,"population":70171,"iso_a3":"TUR","country":"Turkey","is_capital":false,"name_en":"Doğubeyazıt","name_es":"Doğubeyazıt","name_fr":"Doğubeyazıt","name_it":"Dogubayazit","name_ru":"Догубаязит","elevation":1592.0,"timezone":"Europe/Istanbul","admin1_name":"Ağrı"},{"name":"Bulanık","lat":39.08656,"lon":42.27158,"population":31430,"iso_a3":"TUR","country":"Turkey","is_capital":false,"name_en":"Bulanık","name_es":"Bulanık","name_fr":"Bulanık","name_it":"Bulanık","name_ru":"Bulanık","elevation":1536.0,"timezone":"Europe/Istanbul","admin1_name":"Muş"}]