[{"name":"Honolulu","lat":21.30694,"lon":-157.85833,"population":350964,"iso_a3":"USA","country":"United States","is_capital":false,"name_en":"Honolulu","name_es":"Honolulu","name_fr":"Honolulu","name_it":"Honolulu","name_ru":"Гонолулу","elevation":18.0,"timezone":"Pacific/Honolulu","admin1_name":"Hawaii"},{"name":"East Honolulu","lat":21.28906,"lon":-157.71734,"population":49914,"iso_a3":"USA","country":"United States","is_capital":false,"name_en":"East Honolulu","name_es":"East Honolulu","name_fr":"East Honolulu","name_it":"East Honolulu","name_ru":"East Honolulu","elevation":7.0,"timezone":"Pacific/Honolulu","admin1_name":"Hawaii"},{"name":"Pearl City","lat":21.39734,"lon":-157.97516,"population":47698,"iso_a3":"USA","country":"United States","is_capital":false,"name_en":"Pearl City","name_es":"Pearl City","name_fr":"Pearl City","name_it":"Pearl City","name_ru":"Pearl City","elevation":31.0,"timezone":"Pacific/Honolulu","admin1_name":"Hawaii"},{"name":"Joint Base Pearl Harbor Hickam","lat":21.34906,"lon":-157.94713,"population":42184,"iso_a3":"USA","country":"United States","is_capital":false,"name_en":"Joint Base Pearl Harbor Hickam","name_es":"Joint Base Pearl Harbor Hickam","name_fr":"Joint Base Pearl Harbor Hickam","name_it":"Joint Base Pearl Harbor Hickam","name_ru":"Joint Base Pearl Harbor Hickam","elevation":12.0,"timezone":"Pacific/Honolulu","admin1_name":"Hawaii"},{"name":"Kailua","lat":21.40241,"lon":-157.74054,"population":38635,"iso_a3":"USA","country":"United States","is_capital":false,"name_en":"Kailua","name_es":"Kailua","name_fr":"Kailua","name_it":"Kailua","name_ru":"Кайлуа","elevation":8.0,"timezone":"Pacific/Honolulu","admin1_name":"Hawaii"},{"name":"Kaneohe","lat":21.39994,"lon":-157.79895,"population":34597,"iso_a3":"USA","country":"United States","is_capital":false,"name_en":"Kaneohe","name_es":"Kaneohe","name_fr":"Kaneohe","name_it":"Kaneohe","name_ru":"Kaneohe","elevation":46.0,"timezone":"Pacific/Honolulu","admin1_name":"Hawaii"}]