[{"name":"Marāgheh","lat":37.39206,"lon":46.23909,"population":262604,"iso_a3":"IRN","country":"Iran","is_capital":false,"name_en":"Marāgheh","name_es":"Marāgheh","name_fr":"Marāgheh","name_it":"Marāgheh","name_ru":"Marāgheh","elevation":1455.0,"timezone":"Asia/Tehran","admin1_name":"East Azerbaijan"},{"name":"Mīāneh","lat":37.421,"lon":47.715,"population":182848,"iso_a3":"IRN","country":"Iran","is_capital":false,"name_en":"Mīāneh","name_es":"Mīāneh","name_fr":"Mīāneh","name_it":"Mīāneh","name_ru":"Mīāneh","elevation":1097.0,"timezone":"Asia/Tehran","admin1_name":"East Azerbaijan"},{"name":"Mahābād","lat":36.7631,"lon":45.7222,"population":162434,"iso_a3":"IRN","country":"Iran","is_capital":false,"name_en":"Mahabad","name_es":"Mahabad","name_fr":"Mahabad","name_it":"Mahabad","name_ru":"Махабад","elevation":1324.0,"timezone":"Asia/Tehran","admin1_name":"West Azerbaijan"},{"name":"Mīāndoāb","lat":36.96667,"lon":46.10961,"population":134425,"iso_a3":"IRN","country":"Iran","is_capital":false,"name_en":"Mīāndoāb","name_es":"Mīāndoāb","name_fr":"Mīāndoāb","name_it":"Mīāndoāb","name_ru":"Миандоаб","elevation":1294.0,"timezone":"Asia/Tehran","admin1_name":"West Azerbaijan"},{"name":"Marand","lat":38.4329,"lon":45.7749,"population":124191,"iso_a3":"IRN","country":"Iran","is_capital":false,"name_en":"Marand","name_es":"Marand","name_fr":"Marand","name_it":"Marand","name_ru":"Маранд","elevation":1322.0,"timezone":"Asia/Tehran","admin1_name":"East Azerbaijan"},{"name":"Ahar","lat":38.4774,"lon":47.0699,"population":94348,"iso_a3":"IRN","country":"Iran","is_capital":false,"name_en":"Ahar","name_es":"Ahar","name_fr":"Ahar","name_it":"Ahar","name_ru":"Ахар","elevation":1336.0,"timezone":"Asia/Tehran","admin1_name":"East Azerbaijan"},{"name":"Naqadeh","lat":36.9553,"lon":45.388,"population":81598,"iso_a3":"IRN","country":"Iran","is_capital":false,"name_en":"Naghadeh","name_es":"Naghadeh","name_fr":"Naghadeh","name_it":"Naghadeh","name_ru":"Naghadeh","elevation":1325.0,"timezone":"Asia/Tehran","admin1_name":"West Azerbaijan"},{"name":"Bonāb","lat":37.3404,"lon":46.0561,"population":80359,"iso_a3":"IRN","country":"Iran","is_capital":false,"name_en":"Bonāb","name_es":"Bonāb","name_fr":"Bonāb","name_it":"Bonāb","name_ru":"Бонаб","elevation":1288.0,"timezone":"Asia/Tehran","admin1_name":"East Azerbaijan"},{"name":"Meshgīn Shahr","lat":38.399,"lon":47.682,"population":74109,"iso_a3":"IRN","country":"Iran","is_capital":false,"name_en":"Meshgīn Shahr","name_es":"Meshgīn Shahr","name_fr":"Meshgīn Shahr","name_it":"Meshgīn Shahr","name_ru":"Meshgīn Shahr","elevation":1421.0,"timezone":"Asia/Tehran","admin1_name":"Ardabil Province"},{"name":"Piranshahr","lat":36.701,"lon":45.1413,"population":61973,"iso_a3":"IRN","country":"Iran","is_capital":false,"name_en":"Piranshahr","name_es":"Piranshahr","name_fr":"Piranshahr","name_it":"Piranshahr","name_ru":"Пираншехр","elevation":1444.0,"timezone":"Asia/Tehran","admin1_name":"West Azerbaijan"},{"name":"Oshnavīyeh","lat":37.0397,"lon":45.0983,"population":50661,"iso_a3":"IRN","country":"Iran","is_capital":false,"name_en":"Oshnavīyeh","name_es":"Oshnavīyeh","name_fr":"Oshnavīyeh","name_it":"Oshnavīyeh","name_ru":"Ошнуйе","elevation":1443.0,"timezone":"Asia/Tehran","admin1_name":"West Azerbaijan"},{"name":"Sarāb","lat":37.9408,"lon":47.5367,"population":45031,"iso_a3":"IRN","country":"Iran","is_capital":false,"name_en":"Sarāb","name_es":"Sarāb","name_fr":"Sarāb","name_it":"Sarāb","name_ru":"Sarāb","elevation":1682.0,"timezone":"Asia/Tehran","admin1_name":"East Azerbaijan"},{"name":"Shāhīn Dezh","lat":36.6793,"lon":46.5669,"population":41442,"iso_a3":"IRN","country":"Iran","is_capital":false,"name_en":"Shāhīn Dezh","name_es":"Shāhīn Dezh","name_fr":"Shāhīn Dezh","name_it":"Shāhīn Dezh","name_ru":"Shāhīn Dezh","elevation":1370.0,"timezone":"Asia/Tehran","admin1_name":"West Azerbaijan"}]