[{"name":"Warder","lat":6.97444,"lon":45.34083,"population":450400,"iso_a3":"ETH","country":"Ethiopia","is_capital":false,"name_en":"Warder","name_es":"Warder","name_fr":"Warder","name_it":"Warder","name_ru":"Warder","elevation":556.0,"timezone":"Africa/Addis_Ababa","admin1_name":"Somali"},{"name":"Lasoano","lat":6.25532,"lon":45.3853,"population":38000,"iso_a3":"ETH","country":"Ethiopia","is_capital":false,"name_en":"Lasoano","name_es":"Lasoano","name_fr":"Lasoano","name_it":"Lasoano","name_ru":"Lasoano","elevation":439.0,"timezone":"Africa/Addis_Ababa","admin1_name":"Somali"},{"name":"Qorof","lat":6.58222,"lon":46.43333,"population":37080,"iso_a3":"ETH","country":"Ethiopia","is_capital":false,"name_en":"Koraf","name_es":"Koraf","name_fr":"Koraf","name_it":"Koraf","name_ru":"Koraf","elevation":382.0,"timezone":"Africa/Addis_Ababa","admin1_name":"Somali"},{"name":"Yamarugley","lat":6.80768,"lon":46.08482,"population":36000,"iso_a3":"ETH","country":"Ethiopia","is_capital":false,"name_en":"Yamarugley","name_es":"Yamarugley","name_fr":"Yamarugley","name_it":"Yamarugley","name_ru":"Yamarugley","elevation":435.0,"timezone":"Africa/Addis_Ababa","admin1_name":"Somali"},{"name":"Fadhigaradle","lat":6.17559,"lon":45.29866,"population":34000,"iso_a3":"ETH","country":"Ethiopia","is_capital":false,"name_en":"Fadhigaradle","name_es":"Fadhigaradle","name_fr":"Fadhigaradle","name_it":"Fadhigaradle","name_ru":"Fadhigaradle","elevation":445.0,"timezone":"Africa/Addis_Ababa","admin1_name":"Somali"},{"name":"Neefkuceliye","lat":6.55459,"lon":45.38992,"population":34000,"iso_a3":"ETH","country":"Ethiopia","is_capital":false,"name_en":"Neefkuceliye","name_es":"Neefkuceliye","name_fr":"Neefkuceliye","name_it":"Neefkuceliye","name_ru":"Neefkuceliye","elevation":503.0,"timezone":"Africa/Addis_Ababa","admin1_name":"Somali"},{"name":"Cabudwaaq","lat":6.24585,"lon":46.2247,"population":120000,"iso_a3":"SOM","country":"Somalia","is_capital":false,"name_en":"Cabudwaaq","name_es":"Cabudwaaq","name_fr":"Cabudwaaq","name_it":"Cabudwaaq","name_ru":"Cabudwaaq","elevation":336.0,"timezone":"Africa/Addis_Ababa","admin1_name":"Galguduud"},{"name":"Balanbale","lat":5.76897,"lon":45.76297,"population":68000,"iso_a3":"SOM","country":"Somalia","is_capital":false,"name_en":"Balanbale","name_es":"Balanbale","name_fr":"Balanbale","name_it":"Balanbale","name_ru":"Balanbale","elevation":330.0,"timezone":"Africa/Addis_Ababa","admin1_name":"Galguduud"},{"name":"Gaalkacyo","lat":6.76972,"lon":47.43083,"population":61200,"iso_a3":"SOM","country":"Somalia","is_capital":false,"name_en":"Gaalkacyo","name_es":"Gaalkacyo","name_fr":"Gaal Kacyo","name_it":"Gallacaio","name_ru":"Галькайо","elevation":288.0,"timezone":"Africa/Mogadishu","admin1_name":"Mudug"},{"name":"Dhabad","lat":6.43167,"lon":46.46194,"population":36000,"iso_a3":"SOM","country":"Somalia","is_capital":false,"name_en":"Dhabad","name_es":"Dhabad","name_fr":"Dhabad","name_it":"Dhabad","name_ru":"Dhabad","elevation":358.0,"timezone":"Africa/Mogadishu","admin1_name":"Galguduud"}]