[{"name":"Ḩawallī","lat":29.33278,"lon":48.02861,"population":164212,"iso_a3":"KWT","country":"Kuwait","is_capital":false,"name_en":"Hawalli","name_es":"Hawalli","name_fr":"Hawalli","name_it":"Hawalli","name_ru":"Hawalli","elevation":19.0,"timezone":"Asia/Kuwait","admin1_name":"Hawalli"},{"name":"Şabāḩ as Sālim","lat":29.25722,"lon":48.05722,"population":139163,"iso_a3":"KWT","country":"Kuwait","is_capital":false,"name_en":"Sabah Al Salem","name_es":"Sabah Al Salem","name_fr":"Sabah Al Salem","name_it":"Sabah Al Salem","name_ru":"Sabah Al Salem","elevation":32.0,"timezone":"Asia/Kuwait","admin1_name":"Mubārak al Kabīr"},{"name":"Al Farwānīyah","lat":29.2775,"lon":47.95861,"population":86525,"iso_a3":"KWT","country":"Kuwait","is_capital":false,"name_en":"Al Farwānīyah","name_es":"Al Farwānīyah","name_fr":"Al Farwānīyah","name_it":"Al Farwānīyah","name_ru":"Al Farwānīyah","elevation":44.0,"timezone":"Asia/Kuwait","admin1_name":"Al Farwaniyah"},{"name":"Ar Riqqah","lat":29.14583,"lon":48.09472,"population":52068,"iso_a3":"KWT","country":"Kuwait","is_capital":false,"name_en":"Ar Riqqah","name_es":"Ar Riqqah","name_fr":"Ar Riqqah","name_it":"Ar Riqqah","name_ru":"Ar Riqqah","elevation":45.0,"timezone":"Asia/Kuwait","admin1_name":"Al Aḩmadī"},{"name":"Al Manqaf","lat":29.09611,"lon":48.13278,"population":39025,"iso_a3":"KWT","country":"Kuwait","is_capital":false,"name_en":"Al Manqaf","name_es":"Al Manqaf","name_fr":"Al Manqaf","name_it":"Al Manqaf","name_ru":"Al Manqaf","elevation":14.0,"timezone":"Asia/Kuwait","admin1_name":"Al Aḩmadī"},{"name":"Al Khafjī","lat":28.43905,"lon":48.49132,"population":54857,"iso_a3":"SAU","country":"Saudi Arabia","is_capital":false,"name_en":"Al Khafjī","name_es":"Al Khafjī","name_fr":"Al Khafjī","name_it":"Al Khafjī","name_ru":"Al Khafjī","elevation":3.0,"timezone":"Asia/Riyadh","admin1_name":"Eastern Province"}]