[{"name":"Abadan","lat":30.3392,"lon":48.3043,"population":370180,"iso_a3":"IRN","country":"Iran","is_capital":false,"name_en":"Ābādān","name_es":"Abadán","name_fr":"Abadan","name_it":"Abadan","name_ru":"Абадан","elevation":6.0,"timezone":"Asia/Tehran","admin1_name":"Khuzestan"},{"name":"Khorramshahr","lat":30.44079,"lon":48.18428,"population":330606,"iso_a3":"IRN","country":"Iran","is_capital":false,"name_en":"Khorramshahr","name_es":"Jorramchar","name_fr":"Khorramshahr","name_it":"Khorramshahr","name_ru":"Хорремшехр","elevation":4.0,"timezone":"Asia/Tehran","admin1_name":"Khuzestan"},{"name":"Bandar-e Māhshahr","lat":30.55655,"lon":49.18852,"population":162797,"iso_a3":"IRN","country":"Iran","is_capital":false,"name_en":"Bandar-e Māhshahr","name_es":"Bandar-e Māhshahr","name_fr":"Bandar-e Māhshahr","name_it":"Bandar-e Māhshahr","name_ru":"Bandar-e Māhshahr","elevation":8.0,"timezone":"Asia/Tehran","admin1_name":"Khuzestan"},{"name":"Īz̄eh","lat":31.83027,"lon":49.86756,"population":119399,"iso_a3":"IRN","country":"Iran","is_capital":false,"name_en":"Īz̄eh","name_es":"Īz̄eh","name_fr":"Īz̄eh","name_it":"Īz̄eh","name_ru":"Īz̄eh","elevation":825.0,"timezone":"Asia/Tehran","admin1_name":"Khuzestan"},{"name":"Masjed Soleymān","lat":31.9364,"lon":49.3039,"population":111510,"iso_a3":"IRN","country":"Iran","is_capital":false,"name_en":"Masjed Soleymān","name_es":"Masjed Soleymān","name_fr":"Masjed Soleymān","name_it":"Masjed Soleymān","name_ru":"Masjed Soleymān","elevation":240.0,"timezone":"Asia/Tehran","admin1_name":"Khuzestan"},{"name":"Behbahān","lat":30.5959,"lon":50.2417,"population":79327,"iso_a3":"IRN","country":"Iran","is_capital":false,"name_en":"Behbahān","name_es":"Behbahān","name_fr":"Behbahān","name_it":"Behbahān","name_ru":"Behbahān","elevation":326.0,"timezone":"Asia/Tehran","admin1_name":"Khuzestan"},{"name":"Bandar-e Emam Khomeyni","lat":30.43698,"lon":49.10288,"population":78353,"iso_a3":"IRN","country":"Iran","is_capital":false,"name_en":"Bandar-e Emam Khomeyni","name_es":"Bandar Jomeiny","name_fr":"Bandar-e Emam Khomeyni","name_it":"Bandar-e Emam Khomeyni","name_ru":"Бендер-Хомейни","elevation":3.0,"timezone":"Asia/Tehran","admin1_name":"Khuzestan"},{"name":"Rāmhormoz","lat":31.27997,"lon":49.60351,"population":74285,"iso_a3":"IRN","country":"Iran","is_capital":false,"name_en":"Rāmhormoz","name_es":"Rāmhormoz","name_fr":"Rāmhormoz","name_it":"Rāmhormoz","name_ru":"Rāmhormoz","elevation":160.0,"timezone":"Asia/Tehran","admin1_name":"Khuzestan"},{"name":"Dehdasht","lat":30.79337,"lon":50.56508,"population":69726,"iso_a3":"IRN","country":"Iran","is_capital":false,"name_en":"Dehdasht","name_es":"Dehdasht","name_fr":"Dehdasht","name_it":"Dehdasht","name_ru":"Dehdasht","elevation":806.0,"timezone":"Asia/Tehran","admin1_name":"Kohgiluyeh and Boyer-Ahmad"},{"name":"Kūt-e ‘Abdollāh","lat":31.23917,"lon":48.65639,"population":56252,"iso_a3":"IRN","country":"Iran","is_capital":false,"name_en":"Kūt-e ‘Abdollāh","name_es":"Kūt-e ‘Abdollāh","name_fr":"Kūt-e ‘Abdollāh","name_it":"Kūt-e ‘Abdollāh","name_ru":"Kūt-e ‘Abdollāh","elevation":36.0,"timezone":"Asia/Tehran","admin1_name":"Khuzestan"},{"name":"Bandar-e Genāveh","lat":29.5791,"lon":50.517,"population":52750,"iso_a3":"IRN","country":"Iran","is_capital":false,"name_en":"Bandar-e Genāveh","name_es":"Bandar-e Genāveh","name_fr":"Bandar-e Genāveh","name_it":"Bandar-e Genāveh","name_ru":"Bandar-e Genāveh","elevation":8.0,"timezone":"Asia/Tehran","admin1_name":"Bushehr"},{"name":"Omīdīyeh","lat":30.76277,"lon":49.70226,"population":46983,"iso_a3":"IRN","country":"Iran","is_capital":false,"name_en":"Omīdīyeh","name_es":"Omīdīyeh","name_fr":"Omīdīyeh","name_it":"Omīdīyeh","name_ru":"Omīdīyeh","elevation":25.0,"timezone":"Asia/Tehran","admin1_name":"Khuzestan"},{"name":"Shādegān","lat":30.64924,"lon":48.66497,"population":41733,"iso_a3":"IRN","country":"Iran","is_capital":false,"name_en":"Shādegān","name_es":"Shādegān","name_fr":"Shādegān","name_it":"Shādegān","name_ru":"Шадеганские","elevation":10.0,"timezone":"Asia/Tehran","admin1_name":"Khuzestan"},{"name":"Sūsangerd","lat":31.5635,"lon":48.18958,"population":41443,"iso_a3":"IRN","country":"Iran","is_capital":false,"name_en":"Sūsangerd","name_es":"Sūsangerd","name_fr":"Sūsangerd","name_it":"Sūsangerd","name_ru":"Sūsangerd","elevation":15.0,"timezone":"Asia/Tehran","admin1_name":"Khuzestan"},{"name":"Sheybān","lat":31.40794,"lon":48.7946,"population":36374,"iso_a3":"IRN","country":"Iran","is_capital":false,"name_en":"Sheybān","name_es":"Sheybān","name_fr":"Sheybān","name_it":"Sheybān","name_ru":"Sheybān","elevation":23.0,"timezone":"Asia/Tehran","admin1_name":"Khuzestan"},{"name":"Chamrān","lat":30.70838,"lon":49.16266,"population":33505,"iso_a3":"IRN","country":"Iran","is_capital":false,"name_en":"Chamrān","name_es":"Chamrān","name_fr":"Chamrān","name_it":"Chamrān","name_ru":"Chamrān","elevation":16.0,"timezone":"Asia/Tehran","admin1_name":"Khuzestan"},{"name":"Umm Qaşr","lat":30.0362,"lon":47.91951,"population":107620,"iso_a3":"IRQ","country":"Iraq","is_capital":false,"name_en":"Umm Qaşr","name_es":"Umm Qaşr","name_fr":"Umm Qaşr","name_it":"Umm Qaşr","name_ru":"Umm Qaşr","elevation":13.0,"timezone":"Asia/Baghdad","admin1_name":"Basra"},{"name":"Al Fāw","lat":29.97421,"lon":48.47309,"population":104569,"iso_a3":"IRQ","country":"Iraq","is_capital":false,"name_en":"Al Fāw","name_es":"Al Fāw","name_fr":"Al Fāw","name_it":"Al Fāw","name_ru":"Аль-Фау","elevation":2.0,"timezone":"Asia/Baghdad","admin1_name":"Basra"}]