[{"name":"Sambava","lat":-14.26667,"lon":50.16667,"population":89003,"iso_a3":"MDG","country":"Madagascar","is_capital":false,"name_en":"Sambava","name_es":"Sambava","name_fr":"Sambava","name_it":"Sambava","name_ru":"Самбава","elevation":10.0,"timezone":"Indian/Antananarivo","admin1_name":"Sava"},{"name":"Antalaha","lat":-14.90033,"lon":50.27876,"population":71898,"iso_a3":"MDG","country":"Madagascar","is_capital":false,"name_en":"Antalaha","name_es":"Antalaha","name_fr":"Antalaha","name_it":"Antalaha","name_ru":"Анталахи","elevation":13.0,"timezone":"Indian/Antananarivo","admin1_name":"Sava"},{"name":"Maroantsetra","lat":-15.43527,"lon":49.73794,"population":45041,"iso_a3":"MDG","country":"Madagascar","is_capital":false,"name_en":"Maroantsetra","name_es":"Maroantsetra","name_fr":"Maroantsetra","name_it":"Maroantsetra","name_ru":"Маруанцентре","elevation":10.0,"timezone":"Indian/Antananarivo","admin1_name":"Analanjirofo"},{"name":"Antsohihy","lat":-14.87959,"lon":47.98751,"population":40512,"iso_a3":"MDG","country":"Madagascar","is_capital":false,"name_en":"Antsohihy","name_es":"Antsohihy","name_fr":"Antsohihy","name_it":"Antsohihy","name_ru":"Antsohihy","elevation":18.0,"timezone":"Indian/Antananarivo","admin1_name":"Sofia"},{"name":"Mananara","lat":-16.16864,"lon":49.76622,"population":37224,"iso_a3":"MDG","country":"Madagascar","is_capital":false,"name_en":"Mananara","name_es":"Mananara","name_fr":"Mananara","name_it":"Mananara","name_ru":"Mananara","elevation":15.0,"timezone":"Indian/Antananarivo","admin1_name":"Analanjirofo"},{"name":"Andapa","lat":-14.65,"lon":49.65,"population":36660,"iso_a3":"MDG","country":"Madagascar","is_capital":false,"name_en":"Andapa","name_es":"Distrito de Andapa","name_fr":"Andapa","name_it":"Andapa","name_ru":"Андапа","elevation":483.0,"timezone":"Indian/Antananarivo","admin1_name":"Sava"},{"name":"Maromandia","lat":-14.21667,"lon":48.08333,"population":33596,"iso_a3":"MDG","country":"Madagascar","is_capital":false,"name_en":"Maromandia","name_es":"Maromandia","name_fr":"Maromandia","name_it":"Maromandia","name_ru":"Maromandia","elevation":48.0,"timezone":"Indian/Antananarivo","admin1_name":"Sofia"},{"name":"Bealanana","lat":-14.54329,"lon":48.74981,"population":32764,"iso_a3":"MDG","country":"Madagascar","is_capital":false,"name_en":"Bealanana","name_es":"Bealanana","name_fr":"Bealanana","name_it":"Bealanana","name_ru":"Bealanana","elevation":1097.0,"timezone":"Indian/Antananarivo","admin1_name":"Sofia"}]