[{"name":"Toamasina","lat":-18.1492,"lon":49.40234,"population":345107,"iso_a3":"MDG","country":"Madagascar","is_capital":false,"name_en":"Toamasina","name_es":"Toamasina","name_fr":"Toamasina","name_it":"Toamasina","name_ru":"Туамасина","elevation":12.0,"timezone":"Indian/Antananarivo","admin1_name":"Atsinanana"},{"name":"Moramanga","lat":-18.94948,"lon":48.23007,"population":60456,"iso_a3":"MDG","country":"Madagascar","is_capital":false,"name_en":"Moramanga","name_es":"Moramanga","name_fr":"Moramanga","name_it":"Moramanga","name_ru":"Moramanga","elevation":913.0,"timezone":"Indian/Antananarivo","admin1_name":"Alaotra Mangoro"},{"name":"Ambatondrazaka","lat":-17.83333,"lon":48.41667,"population":50463,"iso_a3":"MDG","country":"Madagascar","is_capital":false,"name_en":"Ambatondrazaka","name_es":"Ambatondrazaka","name_fr":"Ambatondrazaka","name_it":"Ambatondrazaka","name_ru":"Амбатундразака","elevation":768.0,"timezone":"Indian/Antananarivo","admin1_name":"Alaotra Mangoro"},{"name":"Fenoarivo Atsinanana","lat":-17.38095,"lon":49.40826,"population":44199,"iso_a3":"MDG","country":"Madagascar","is_capital":false,"name_en":"Fenoarivo Atsinanana","name_es":"Fenoarivo Atsinanana","name_fr":"Fenoarivo Atsinanana","name_it":"Fenoarivo Atsinanana","name_ru":"Fenoarivo Atsinanana","elevation":14.0,"timezone":"Indian/Antananarivo","admin1_name":"Analanjirofo"},{"name":"Andilamena","lat":-17.01009,"lon":48.57313,"population":39428,"iso_a3":"MDG","country":"Madagascar","is_capital":false,"name_en":"Andilamena","name_es":"Andilamena","name_fr":"Andilamena","name_it":"Andilamena","name_ru":"Andilamena","elevation":933.0,"timezone":"Indian/Antananarivo","admin1_name":"Alaotra Mangoro"},{"name":"Soanierana Ivongo","lat":-16.91667,"lon":49.58333,"population":39271,"iso_a3":"MDG","country":"Madagascar","is_capital":false,"name_en":"Soanierana Ivongo","name_es":"Soanierana Ivongo","name_fr":"Soanierana Ivongo","name_it":"Soanierana Ivongo","name_ru":"Суаниерана-Ивунгу","elevation":117.0,"timezone":"Indian/Antananarivo","admin1_name":"Analanjirofo"},{"name":"Vavatenina","lat":-17.46667,"lon":49.2,"population":37861,"iso_a3":"MDG","country":"Madagascar","is_capital":false,"name_en":"Vavatenina","name_es":"Vavatenina","name_fr":"Vavatenina","name_it":"Vavatenina","name_ru":"Ваватенина","elevation":117.0,"timezone":"Indian/Antananarivo","admin1_name":"Analanjirofo"},{"name":"Amparafaravola","lat":-17.5876,"lon":48.22391,"population":35266,"iso_a3":"MDG","country":"Madagascar","is_capital":false,"name_en":"Amparafaravola","name_es":"Amparafaravola","name_fr":"Amparafaravola","name_it":"Amparafaravola","name_ru":"Amparafaravola","elevation":777.0,"timezone":"Indian/Antananarivo","admin1_name":"Alaotra Mangoro"},{"name":"Didy","lat":-18.11667,"lon":48.53333,"population":33039,"iso_a3":"MDG","country":"Madagascar","is_capital":false,"name_en":"Didy","name_es":"Didy","name_fr":"Didy","name_it":"Didy","name_ru":"Didy","elevation":1033.0,"timezone":"Indian/Antananarivo","admin1_name":"Alaotra Mangoro"},{"name":"Ambodimanga II","lat":-17.26667,"lon":49.16667,"population":33000,"iso_a3":"MDG","country":"Madagascar","is_capital":false,"name_en":"Ambodimanga II","name_es":"Ambodimanga II","name_fr":"Ambodimanga II","name_it":"Ambodimanga II","name_ru":"Ambodimanga II","elevation":202.0,"timezone":"Indian/Antananarivo","admin1_name":"Analanjirofo"}]