[{"name":"Eslamshahr","lat":35.55222,"lon":51.23504,"population":450000,"iso_a3":"IRN","country":"Iran","is_capital":false,"name_en":"Eslamshahr","name_es":"Eslamshahr","name_fr":"Eslamchahr","name_it":"Eslamshahr","name_ru":"Исламшехр","elevation":1063.0,"timezone":"Asia/Tehran","admin1_name":"Tehran"},{"name":"Shahrīār","lat":35.65884,"lon":51.05775,"population":309607,"iso_a3":"IRN","country":"Iran","is_capital":false,"name_en":"Shahrīār","name_es":"Shahrīār","name_fr":"Shahrīār","name_it":"Shahrīār","name_ru":"Шахрияр","elevation":1159.0,"timezone":"Asia/Tehran","admin1_name":"Tehran"},{"name":"Shahr-e Qods","lat":35.7214,"lon":51.109,"population":309605,"iso_a3":"IRN","country":"Iran","is_capital":false,"name_en":"Shahr-e Qods","name_es":"Shahr-e Qods","name_fr":"Shahr-e Qods","name_it":"Shahr-e Qods","name_ru":"Shahr-e Qods","elevation":1181.0,"timezone":"Asia/Tehran","admin1_name":"Tehran"},{"name":"Sari","lat":36.56332,"lon":53.06009,"population":255396,"iso_a3":"IRN","country":"Iran","is_capital":false,"name_en":"Sari","name_es":"Sarí","name_fr":"Sari","name_it":"Sari","name_ru":"Сари","elevation":43.0,"timezone":"Asia/Tehran","admin1_name":"Māzandarān"},{"name":"Qarchak","lat":35.42873,"lon":51.57757,"population":251834,"iso_a3":"IRN","country":"Iran","is_capital":false,"name_en":"Qarchak","name_es":"Qarchak","name_fr":"Qarchak","name_it":"Qarchak","name_ru":"Qarchak","elevation":962.0,"timezone":"Asia/Tehran","admin1_name":"Tehran"},{"name":"Golestān","lat":35.5183,"lon":51.1819,"population":240000,"iso_a3":"IRN","country":"Iran","is_capital":false,"name_en":"Golestān","name_es":"Golestān","name_fr":"Golestān","name_it":"Golestān","name_ru":"Golestān","elevation":1042.0,"timezone":"Asia/Tehran","admin1_name":"Tehran"},{"name":"Āmol","lat":36.46961,"lon":52.35072,"population":237528,"iso_a3":"IRN","country":"Iran","is_capital":false,"name_en":"Āmol","name_es":"Āmol","name_fr":"Āmol","name_it":"Āmol","name_ru":"Амоль","elevation":96.0,"timezone":"Asia/Tehran","admin1_name":"Māzandarān"},{"name":"Pākdasht","lat":35.47854,"lon":51.6834,"population":236319,"iso_a3":"IRN","country":"Iran","is_capital":false,"name_en":"Pākdasht","name_es":"Pākdasht","name_fr":"Pākdasht","name_it":"Pākdasht","name_ru":"Pākdasht","elevation":1030.0,"timezone":"Asia/Tehran","admin1_name":"Tehran"},{"name":"Qā’em Shahr","lat":36.46306,"lon":52.86007,"population":204953,"iso_a3":"IRN","country":"Iran","is_capital":false,"name_en":"Qā’em Shahr","name_es":"Qā’em Shahr","name_fr":"Qā’em Shahr","name_it":"Qā’em Shahr","name_ru":"Qā’em Shahr","elevation":58.0,"timezone":"Asia/Tehran","admin1_name":"Māzandarān"},{"name":"Bābol","lat":36.55102,"lon":52.6786,"population":202796,"iso_a3":"IRN","country":"Iran","is_capital":false,"name_en":"Babol","name_es":"Babol","name_fr":"Babol","name_it":"Babol","name_ru":"Баболь","elevation":1.0,"timezone":"Asia/Tehran","admin1_name":"Māzandarān"},{"name":"Nasimshahr","lat":35.56528,"lon":51.1583,"population":200393,"iso_a3":"IRN","country":"Iran","is_capital":false,"name_en":"Nasimshahr","name_es":"Nasimshahr","name_fr":"Nasimshahr","name_it":"Nasimshahr","name_ru":"Nasimshahr","elevation":1064.0,"timezone":"Asia/Tehran","admin1_name":"Tehran"},{"name":"Fardīs","lat":35.7555,"lon":50.9967,"population":181174,"iso_a3":"IRN","country":"Iran","is_capital":false,"name_en":"Fardīs","name_es":"Fardīs","name_fr":"Fardīs","name_it":"Fardīs","name_ru":"Fardīs","elevation":1272.0,"timezone":"Asia/Tehran","admin1_name":"Tehran"},{"name":"Varāmīn","lat":35.3242,"lon":51.6457,"population":179603,"iso_a3":"IRN","country":"Iran","is_capital":false,"name_en":"Varāmīn","name_es":"Varāmīn","name_fr":"Varāmīn","name_it":"Varāmīn","name_ru":"Варамин","elevation":920.0,"timezone":"Asia/Tehran","admin1_name":"Tehran"},{"name":"Kamālshahr","lat":35.86187,"lon":50.87424,"population":141669,"iso_a3":"IRN","country":"Iran","is_capital":false,"name_en":"Kamālshahr","name_es":"Kamālshahr","name_fr":"Kamālshahr","name_it":"Kamālshahr","name_ru":"Kamālshahr","elevation":1269.0,"timezone":"Asia/Tehran","admin1_name":"Alborz Province"},{"name":"Semnan","lat":35.57691,"lon":53.39205,"population":124826,"iso_a3":"IRN","country":"Iran","is_capital":false,"name_en":"Semnan","name_es":"Semnan","name_fr":"Semnan","name_it":"Semnan","name_ru":"Семнан","elevation":1148.0,"timezone":"Asia/Tehran","admin1_name":"Semnan"},{"name":"Naz̧arābād","lat":35.6102,"lon":51.1611,"population":119512,"iso_a3":"IRN","country":"Iran","is_capital":false,"name_en":"Naz̧arābād","name_es":"Naz̧arābād","name_fr":"Naz̧arābād","name_it":"Naz̧arābād","name_ru":"Naz̧arābād","elevation":1099.0,"timezone":"Asia/Tehran","admin1_name":"Tehran"},{"name":"Moḩammad Shahr","lat":35.763,"lon":50.9171,"population":119418,"iso_a3":"IRN","country":"Iran","is_capital":false,"name_en":"Moḩammad Shahr","name_es":"Moḩammad Shahr","name_fr":"Moḩammad Shahr","name_it":"Moḩammad Shahr","name_ru":"Moḩammad Shahr","elevation":1238.0,"timezone":"Asia/Tehran","admin1_name":"Alborz Province"},{"name":"Parand","lat":35.47195,"lon":50.97547,"population":97464,"iso_a3":"IRN","country":"Iran","is_capital":false,"name_en":"Parand","name_es":"Parand","name_fr":"Parand","name_it":"Parand","name_ru":"Parand","elevation":1113.0,"timezone":"Asia/Tehran","admin1_name":"Tehran"},{"name":"Tajrīsh","lat":35.8044,"lon":51.4256,"population":86000,"iso_a3":"IRN","country":"Iran","is_capital":false,"name_en":"Tajrīsh","name_es":"Tajrīsh","name_fr":"Tajrīsh","name_it":"Tajrīsh","name_ru":"Tajrīsh","elevation":1608.0,"timezone":"Asia/Tehran","admin1_name":"Tehran"},{"name":"Shahr-e Jadīd-e Mehestan","lat":35.98907,"lon":50.74512,"population":85200,"iso_a3":"IRN","country":"Iran","is_capital":false,"name_en":"Shahr-e Jadīd-e Mehestan","name_es":"Shahr-e Jadīd-e Mehestan","name_fr":"Shahr-e Jadīd-e Mehestan","name_it":"Shahr-e Jadīd-e Mehestan","name_ru":"Shahr-e Jadīd-e Mehestan","elevation":1521.0,"timezone":"Asia/Tehran","admin1_name":"Alborz Province"},{"name":"Būmahen","lat":35.72972,"lon":51.86884,"population":79034,"iso_a3":"IRN","country":"Iran","is_capital":false,"name_en":"Būmahen","name_es":"Būmahen","name_fr":"Būmahen","name_it":"Būmahen","name_ru":"Būmahen","elevation":1700.0,"timezone":"Asia/Tehran","admin1_name":"Tehran"},{"name":"Pardīs","lat":35.74687,"lon":51.81222,"population":73363,"iso_a3":"IRN","country":"Iran","is_capital":false,"name_en":"Pardīs","name_es":"Pardīs","name_fr":"Pardīs","name_it":"Pardīs","name_ru":"Pardīs","elevation":1848.0,"timezone":"Asia/Tehran","admin1_name":"Tehran"},{"name":"Bāqershahr","lat":35.53164,"lon":51.4048,"population":65388,"iso_a3":"IRN","country":"Iran","is_capital":false,"name_en":"Bāqershahr","name_es":"Bāqershahr","name_fr":"Bāqershahr","name_it":"Bāqershahr","name_ru":"Bāqershahr","elevation":1023.0,"timezone":"Asia/Tehran","admin1_name":"Tehran"},{"name":"Māhdāsht","lat":35.7282,"lon":50.8134,"population":62910,"iso_a3":"IRN","country":"Iran","is_capital":false,"name_en":"Māhdāsht","name_es":"Māhdāsht","name_fr":"Māhdāsht","name_it":"Māhdāsht","name_ru":"Māhdāsht","elevation":1163.0,"timezone":"Asia/Tehran","admin1_name":"Tehran"},{"name":"Robāţ Karīm","lat":35.4846,"lon":51.0829,"population":62753,"iso_a3":"IRN","country":"Iran","is_capital":false,"name_en":"Robāţ Karīm","name_es":"Robāţ Karīm","name_fr":"Robāţ Karīm","name_it":"Robāţ Karīm","name_ru":"Robāţ Karīm","elevation":1038.0,"timezone":"Asia/Tehran","admin1_name":"Tehran"},{"name":"Malārd","lat":35.6659,"lon":50.9767,"population":56745,"iso_a3":"IRN","country":"Iran","is_capital":false,"name_en":"Malārd","name_es":"Malārd","name_fr":"Malārd","name_it":"Malārd","name_ru":"Malārd","elevation":1163.0,"timezone":"Asia/Tehran","admin1_name":"Tehran"},{"name":"Hashtgerd","lat":35.962,"lon":50.6799,"population":55640,"iso_a3":"IRN","country":"Iran","is_capital":false,"name_en":"Hashtgerd","name_es":"Hashtgerd","name_fr":"Hashtgerd","name_it":"Hashtgerd","name_ru":"Hashtgerd","elevation":1272.0,"timezone":"Asia/Tehran","admin1_name":"Alborz Province"},{"name":"Pīshvā","lat":35.308,"lon":51.7267,"population":53856,"iso_a3":"IRN","country":"Iran","is_capital":false,"name_en":"Pīshvā","name_es":"Pīshvā","name_fr":"Pīshvā","name_it":"Pīshvā","name_ru":"Pīshvā","elevation":953.0,"timezone":"Asia/Tehran","admin1_name":"Tehran"},{"name":"Īstgāh-e Rāh Āhan-e Garmsār","lat":35.23455,"lon":52.30942,"population":49491,"iso_a3":"IRN","country":"Iran","is_capital":false,"name_en":"Īstgāh-e Rāh Āhan-e Garmsār","name_es":"Īstgāh-e Rāh Āhan-e Garmsār","name_fr":"Īstgāh-e Rāh Āhan-e Garmsār","name_it":"Īstgāh-e Rāh Āhan-e Garmsār","name_ru":"Īstgāh-e Rāh Āhan-e Garmsār","elevation":848.0,"timezone":"Asia/Tehran","admin1_name":"Semnan"},{"name":"Eqbālīyeh","lat":35.3022,"lon":51.5358,"population":36709,"iso_a3":"IRN","country":"Iran","is_capital":false,"name_en":"Eqbālīyeh","name_es":"Eqbālīyeh","name_fr":"Eqbālīyeh","name_it":"Eqbālīyeh","name_ru":"Eqbālīyeh","elevation":879.0,"timezone":"Asia/Tehran","admin1_name":"Tehran"},{"name":"Shahrak-e Qīāmdasht","lat":35.5237,"lon":51.6505,"population":36446,"iso_a3":"IRN","country":"Iran","is_capital":false,"name_en":"Shahrak-e Qīāmdasht","name_es":"Shahrak-e Qīāmdasht","name_fr":"Shahrak-e Qīāmdasht","name_it":"Shahrak-e Qīāmdasht","name_ru":"Shahrak-e Qīāmdasht","elevation":1033.0,"timezone":"Asia/Tehran","admin1_name":"Tehran"},{"name":"Ferdowsīyeh","lat":35.6011,"lon":51.0645,"population":34221,"iso_a3":"IRN","country":"Iran","is_capital":false,"name_en":"Ferdowsīyeh","name_es":"Ferdowsīyeh","name_fr":"Ferdowsīyeh","name_it":"Ferdowsīyeh","name_ru":"Ferdowsīyeh","elevation":1111.0,"timezone":"Asia/Tehran","admin1_name":"Tehran"},{"name":"Amīr Kolā","lat":36.59673,"lon":52.6658,"population":30478,"iso_a3":"IRN","country":"Iran","is_capital":false,"name_en":"Amīr Kolā","name_es":"Amīr Kolā","name_fr":"Amīr Kolā","name_it":"Amīr Kolā","name_ru":"Amīr Kolā","elevation":-5.0,"timezone":"Asia/Tehran","admin1_name":"Māzandarān"}]