[{"name":"Marvdasht","lat":29.87407,"lon":52.80258,"population":148858,"iso_a3":"IRN","country":"Iran","is_capital":false,"name_en":"Marvdasht","name_es":"Marvdasht","name_fr":"Marvdasht","name_it":"Marvdasht","name_ru":"Мервдешт","elevation":1603.0,"timezone":"Asia/Tehran","admin1_name":"Fars"},{"name":"Yasuj","lat":30.66824,"lon":51.58796,"population":96786,"iso_a3":"IRN","country":"Iran","is_capital":false,"name_en":"Yasuj","name_es":"Yasuj","name_fr":"Yasuj","name_it":"Yasuj","name_ru":"Ясудж","elevation":1841.0,"timezone":"Asia/Tehran","admin1_name":"Kohgiluyeh and Boyer-Ahmad"},{"name":"Dogonbadan","lat":30.3586,"lon":50.7981,"population":94638,"iso_a3":"IRN","country":"Iran","is_capital":false,"name_en":"Gachsaran","name_es":"Gachsaran","name_fr":"Gachsaran","name_it":"Gachsaran","name_ru":"Gachsaran","elevation":723.0,"timezone":"Asia/Tehran","admin1_name":"Kohgiluyeh and Boyer-Ahmad"},{"name":"Kāzerūn","lat":29.61919,"lon":51.6535,"population":94511,"iso_a3":"IRN","country":"Iran","is_capital":false,"name_en":"Kāzerūn","name_es":"Kāzerūn","name_fr":"Kāzerūn","name_it":"Kāzerūn","name_ru":"Казеруна","elevation":846.0,"timezone":"Asia/Tehran","admin1_name":"Fars"},{"name":"Abadeh","lat":31.1608,"lon":52.6506,"population":59116,"iso_a3":"IRN","country":"Iran","is_capital":false,"name_en":"Abadeh","name_es":"Abadeh","name_fr":"Abadeh","name_it":"Abadeh","name_ru":"Абаде","elevation":2006.0,"timezone":"Asia/Tehran","admin1_name":"Fars"},{"name":"Nūrābād","lat":30.11405,"lon":51.52174,"population":57058,"iso_a3":"IRN","country":"Iran","is_capital":false,"name_en":"Nūrābād","name_es":"Nūrābād","name_fr":"Nūrābād","name_it":"Nūrābād","name_ru":"Nūrābād","elevation":951.0,"timezone":"Asia/Tehran","admin1_name":"Fars"}]