[{"name":"Neftekamsk","lat":56.08879,"lon":54.26383,"population":126805,"iso_a3":"RUS","country":"Russia","is_capital":false,"name_en":"Neftekamsk","name_es":"Neftekamsk","name_fr":"Neftekamsk","name_it":"Neftekamsk","name_ru":"Нефтекамск","elevation":99.0,"timezone":"Asia/Yekaterinburg","admin1_name":"Bashkortostan Republic"},{"name":"Sarapul","lat":56.47633,"lon":53.79782,"population":98830,"iso_a3":"RUS","country":"Russia","is_capital":false,"name_en":"Sarapul","name_es":"Sarapul","name_fr":"Sarapoul","name_it":"Sarapul","name_ru":"Сарапул","elevation":117.0,"timezone":"Europe/Samara","admin1_name":"Udmurtiya Republic"},{"name":"Votkinsk","lat":57.04867,"lon":53.9872,"population":98633,"iso_a3":"RUS","country":"Russia","is_capital":false,"name_en":"Votkinsk","name_es":"Vótkinsk","name_fr":"Votkinsk","name_it":"Votkinsk","name_ru":"Воткинск","elevation":85.0,"timezone":"Europe/Samara","admin1_name":"Udmurtiya Republic"},{"name":"Chaykovskiy","lat":56.76323,"lon":54.11256,"population":86712,"iso_a3":"RUS","country":"Russia","is_capital":false,"name_en":"Chaykovsky","name_es":"Chaykovsky","name_fr":"Chaykovsky","name_it":"Chaykovsky","name_ru":"Чайковский","elevation":130.0,"timezone":"Asia/Yekaterinburg","admin1_name":"Perm Krai"},{"name":"Chernushka","lat":56.50718,"lon":56.07707,"population":35942,"iso_a3":"RUS","country":"Russia","is_capital":false,"name_en":"Chernushka","name_es":"Chernushka","name_fr":"Tchernouchka","name_it":"Chernushka","name_ru":"Чернушка","elevation":141.0,"timezone":"Asia/Yekaterinburg","admin1_name":"Perm Krai"}]