[{"name":"Sterlitamak","lat":53.63793,"lon":55.9533,"population":267231,"iso_a3":"RUS","country":"Russia","is_capital":false,"name_en":"Sterlitamak","name_es":"Sterlitamak","name_fr":"Sterlitamak","name_it":"Sterlitamak","name_ru":"Стерлитамак","elevation":150.0,"timezone":"Asia/Yekaterinburg","admin1_name":"Bashkortostan Republic"},{"name":"Salavat","lat":53.3828,"lon":55.91094,"population":159893,"iso_a3":"RUS","country":"Russia","is_capital":false,"name_en":"Salavat","name_es":"Salavat","name_fr":"Salavat","name_it":"Salavat","name_ru":"Салават","elevation":151.0,"timezone":"Asia/Yekaterinburg","admin1_name":"Bashkortostan Republic"},{"name":"Ishimbay","lat":53.44769,"lon":56.03873,"population":70421,"iso_a3":"RUS","country":"Russia","is_capital":false,"name_en":"Ishimbay","name_es":"Ishimbay","name_fr":"Ishimbay","name_it":"Ishimbay","name_ru":"Ишимбай","elevation":177.0,"timezone":"Asia/Yekaterinburg","admin1_name":"Bashkortostan Republic"},{"name":"Meleuz","lat":52.96467,"lon":55.93277,"population":65362,"iso_a3":"RUS","country":"Russia","is_capital":false,"name_en":"Meleuz","name_es":"Meleuz","name_fr":"Meleouz","name_it":"Meleuz","name_ru":"Мелеуз","elevation":179.0,"timezone":"Asia/Yekaterinburg","admin1_name":"Bashkortostan Republic"},{"name":"Kumertau","lat":52.76493,"lon":55.78785,"population":65321,"iso_a3":"RUS","country":"Russia","is_capital":false,"name_en":"Kumertau","name_es":"Kumertau","name_fr":"Koumertaou","name_it":"Kumertau","name_ru":"Кумертау","elevation":301.0,"timezone":"Asia/Yekaterinburg","admin1_name":"Bashkortostan Republic"},{"name":"Belebey","lat":54.10774,"lon":54.11741,"population":62582,"iso_a3":"RUS","country":"Russia","is_capital":false,"name_en":"Belebey","name_es":"Belebéi","name_fr":"Belebeï","name_it":"Belebej","name_ru":"Белебей","elevation":287.0,"timezone":"Asia/Yekaterinburg","admin1_name":"Bashkortostan Republic"}]