[{"name":"Qarshi","lat":38.86056,"lon":65.78905,"population":278300,"iso_a3":"UZB","country":"Uzbekistan","is_capital":false,"name_en":"Qarshi","name_es":"Qarshi","name_fr":"Karchi","name_it":"Qarshi","name_ru":"Карши","elevation":383.0,"timezone":"Asia/Samarkand","admin1_name":"Qashqadaryo"},{"name":"Navoiy","lat":40.08444,"lon":65.37917,"population":144158,"iso_a3":"UZB","country":"Uzbekistan","is_capital":false,"name_en":"Navoiy","name_es":"Navoiy","name_fr":"Navoï","name_it":"Navoiy","name_ru":"Навои","elevation":392.0,"timezone":"Asia/Samarkand","admin1_name":"Navoiy Region"},{"name":"Shahrisabz","lat":39.05778,"lon":66.83417,"population":142700,"iso_a3":"UZB","country":"Uzbekistan","is_capital":false,"name_en":"Shahrisabz","name_es":"Shahrisabz","name_fr":"Chakhrisabz","name_it":"Shahrisabz","name_ru":"Шахрисабз","elevation":631.0,"timezone":"Asia/Samarkand","admin1_name":"Qashqadaryo"},{"name":"Kattaqo’rg’on Shahri","lat":39.90546,"lon":66.26556,"population":90600,"iso_a3":"UZB","country":"Uzbekistan","is_capital":false,"name_en":"Kattaqo’rg’on Shahri","name_es":"Kattaqo’rg’on Shahri","name_fr":"Kattaqo’rg’on Shahri","name_it":"Kattaqo’rg’on Shahri","name_ru":"Каттакурган","elevation":486.0,"timezone":"Asia/Samarkand","admin1_name":"Samarqand Region"},{"name":"Koson","lat":39.0375,"lon":65.585,"population":68900,"iso_a3":"UZB","country":"Uzbekistan","is_capital":false,"name_en":"Koson","name_es":"Koson","name_fr":"Koson","name_it":"Koson","name_ru":"Косон","elevation":347.0,"timezone":"Asia/Samarkand","admin1_name":"Qashqadaryo"},{"name":"Urgut Shahri","lat":39.41902,"lon":67.26118,"population":65300,"iso_a3":"UZB","country":"Uzbekistan","is_capital":false,"name_en":"Urgut Shahri","name_es":"Urgut Shahri","name_fr":"Urgut Shahri","name_it":"Urgut Shahri","name_ru":"Ургут","elevation":948.0,"timezone":"Asia/Samarkand","admin1_name":"Samarqand Region"},{"name":"Kitob","lat":39.12158,"lon":66.88605,"population":40800,"iso_a3":"UZB","country":"Uzbekistan","is_capital":false,"name_en":"Kitob","name_es":"Kitob","name_fr":"Kitob","name_it":"Kitob","name_ru":"Китоб","elevation":652.0,"timezone":"Asia/Samarkand","admin1_name":"Qashqadaryo"},{"name":"Oqtosh","lat":39.92139,"lon":65.92528,"population":38307,"iso_a3":"UZB","country":"Uzbekistan","is_capital":false,"name_en":"Oqtosh","name_es":"Oqtosh","name_fr":"Oqtosh","name_it":"Oqtosh","name_ru":"Акташ","elevation":462.0,"timezone":"Asia/Samarkand","admin1_name":"Samarqand Region"},{"name":"Nurota","lat":40.56139,"lon":65.68861,"population":32300,"iso_a3":"UZB","country":"Uzbekistan","is_capital":false,"name_en":"Nurota","name_es":"Nurota","name_fr":"Nurota","name_it":"Nurota","name_ru":"Нурота","elevation":493.0,"timezone":"Asia/Samarkand","admin1_name":"Navoiy Region"},{"name":"Muborak","lat":39.25528,"lon":65.15278,"population":30100,"iso_a3":"UZB","country":"Uzbekistan","is_capital":false,"name_en":"Muborak","name_es":"Muborak","name_fr":"Muborak","name_it":"Muborak","name_ru":"Муборак","elevation":290.0,"timezone":"Asia/Samarkand","admin1_name":"Qashqadaryo"}]