[{"name":"Kunduz","lat":36.72895,"lon":68.857,"population":161902,"iso_a3":"AFG","country":"Afghanistan","is_capital":false,"name_en":"Kunduz","name_es":"Qundūz","name_fr":"Kondôz","name_it":"Konduz","name_ru":"Кундуз","elevation":402.0,"annual_mean_temp":17.7,"annual_precipitation":394.1,"sunshine_hours_yr":3752.0,"timezone":"Asia/Kabul","admin1_name":"Kunduz"},{"name":"Khanabad","lat":36.68304,"lon":69.11279,"population":71531,"iso_a3":"AFG","country":"Afghanistan","is_capital":false,"name_en":"Khanabad","name_es":"Khanabad","name_fr":"Khanabad","name_it":"Khanabad","name_ru":"Ханабад","elevation":499.0,"timezone":"Asia/Kabul","admin1_name":"Kunduz"},{"name":"Khulm","lat":36.69736,"lon":67.69826,"population":64933,"iso_a3":"AFG","country":"Afghanistan","is_capital":false,"name_en":"Khulm","name_es":"Khulm","name_fr":"Khulm","name_it":"Khulm","name_ru":"Ташкурган","elevation":445.0,"timezone":"Asia/Kabul","admin1_name":"Balkh"},{"name":"Taloqan","lat":36.73605,"lon":69.53451,"population":64256,"iso_a3":"AFG","country":"Afghanistan","is_capital":false,"name_en":"Taloqan","name_es":"Taloqan","name_fr":"Tâloqân","name_it":"Taloqan","name_ru":"Таликан","elevation":801.0,"timezone":"Asia/Kabul","admin1_name":"Takhar"},{"name":"Kŭlob","lat":37.91459,"lon":69.78454,"population":214700,"iso_a3":"TJK","country":"Tajikistan","is_capital":false,"name_en":"Kŭlob","name_es":"Kŭlob","name_fr":"Kŭlob","name_it":"Kŭlob","name_ru":"Куляб","elevation":609.0,"timezone":"Asia/Dushanbe","admin1_name":"Khatlon Province"},{"name":"Bokhtar","lat":37.83654,"lon":68.77762,"population":110800,"iso_a3":"TJK","country":"Tajikistan","is_capital":false,"name_en":"Kurgan-Tyube","name_es":"Kurgan-Tyube","name_fr":"Kurgan-Tyube","name_it":"Kurgan-Tyube","name_ru":"Курган Тюбе","elevation":426.0,"timezone":"Asia/Dushanbe","admin1_name":"Khatlon Province"},{"name":"Vahdat","lat":38.55632,"lon":69.01354,"population":45693,"iso_a3":"TJK","country":"Tajikistan","is_capital":false,"name_en":"Vahdat","name_es":"Vahdat","name_fr":"Vahdat","name_it":"Vahdat","name_ru":"Вахдат","elevation":872.0,"timezone":"Asia/Dushanbe","admin1_name":"Republican Subordination"},{"name":"Tursunzoda","lat":38.51271,"lon":68.23163,"population":37000,"iso_a3":"TJK","country":"Tajikistan","is_capital":false,"name_en":"Tursunzoda","name_es":"Tursunzoda","name_fr":"Tursunzoda","name_it":"Tursunzoda","name_ru":"Турсунзаде","elevation":707.0,"timezone":"Asia/Dushanbe","admin1_name":"Republican Subordination"},{"name":"Zarhalol","lat":37.46471,"lon":68.16947,"population":30689,"iso_a3":"TJK","country":"Tajikistan","is_capital":false,"name_en":"Zarhalol","name_es":"Zarhalol","name_fr":"Zarhalol","name_it":"Zarhalol","name_ru":"Zarhalol","elevation":414.0,"timezone":"Asia/Dushanbe","admin1_name":"Khatlon Province"},{"name":"Denov","lat":38.26746,"lon":67.89886,"population":78300,"iso_a3":"UZB","country":"Uzbekistan","is_capital":false,"name_en":"Denov","name_es":"Denov","name_fr":"Denov","name_it":"Denov","name_ru":"Денов","elevation":525.0,"timezone":"Asia/Samarkand","admin1_name":"Surxondaryo Region"}]