[{"name":"Porbandar","lat":21.64219,"lon":69.60929,"population":152760,"iso_a3":"IND","country":"India","is_capital":false,"name_en":"Porbandar","name_es":"Porbandar","name_fr":"Porbandar","name_it":"Porbandar","name_ru":"Порбандаром","elevation":7.0,"timezone":"Asia/Kolkata","admin1_name":"Gujarat"},{"name":"Keshod","lat":21.30328,"lon":70.24861,"population":76193,"iso_a3":"IND","country":"India","is_capital":false,"name_en":"Keshod","name_es":"Keshod","name_fr":"Keshod","name_it":"Keshod","name_ru":"Keshod","elevation":44.0,"timezone":"Asia/Kolkata","admin1_name":"Gujarat"},{"name":"Māngrol","lat":21.12268,"lon":70.11484,"population":69779,"iso_a3":"IND","country":"India","is_capital":false,"name_en":"Māngrol","name_es":"Māngrol","name_fr":"Māngrol","name_it":"Māngrol","name_ru":"Māngrol","elevation":22.0,"timezone":"Asia/Kolkata","admin1_name":"Gujarat"},{"name":"Upleta","lat":21.74015,"lon":70.28256,"population":58775,"iso_a3":"IND","country":"India","is_capital":false,"name_en":"Upleta","name_es":"Upleta","name_fr":"Upleta","name_it":"Upleta","name_ru":"Upleta","elevation":43.0,"timezone":"Asia/Kolkata","admin1_name":"Gujarat"},{"name":"Jodhpur","lat":21.90174,"lon":70.0327,"population":47329,"iso_a3":"IND","country":"India","is_capital":false,"name_en":"Jodhpur","name_es":"Jodhpur","name_fr":"Jodhpur","name_it":"Jodhpur","name_ru":"Jodhpur","elevation":99.0,"timezone":"Asia/Kolkata","admin1_name":"Gujarat"},{"name":"Rānāvāv","lat":21.68734,"lon":69.74485,"population":46018,"iso_a3":"IND","country":"India","is_capital":false,"name_en":"Rānāvāv","name_es":"Rānāvāv","name_fr":"Rānāvāv","name_it":"Rānāvāv","name_ru":"Rānāvāv","elevation":29.0,"timezone":"Asia/Kolkata","admin1_name":"Gujarat"},{"name":"Mānāvadar","lat":21.49813,"lon":70.13775,"population":30850,"iso_a3":"IND","country":"India","is_capital":false,"name_en":"Mānāvadar","name_es":"Mānāvadar","name_fr":"Mānāvadar","name_it":"Mānāvadar","name_ru":"Mānāvadar","elevation":29.0,"timezone":"Asia/Kolkata","admin1_name":"Gujarat"}]