[{"name":"Taraz","lat":42.89799,"lon":71.37334,"population":358153,"iso_a3":"KAZ","country":"Kazakhstan","is_capital":false,"name_en":"Taraz","name_es":"Taraz","name_fr":"Taraz","name_it":"Taraz","name_ru":"Тараз","elevation":611.0,"timezone":"Asia/Almaty","admin1_name":"Zhambyl"},{"name":"Bazar-Korgon","lat":41.0376,"lon":72.74586,"population":41011,"iso_a3":"KGZ","country":"Kyrgyzstan","is_capital":false,"name_en":"Bazar-Korgon","name_es":"Bazar-Korgon","name_fr":"Bazar-Korgon","name_it":"Bazar-Korgon","name_ru":"Базар-Коргон","elevation":729.0,"timezone":"Asia/Bishkek","admin1_name":"Jalal-Abad Region"},{"name":"Talas","lat":42.52256,"lon":72.2417,"population":40308,"iso_a3":"KGZ","country":"Kyrgyzstan","is_capital":false,"name_en":"Talas","name_es":"Talas","name_fr":"Talas","name_it":"Talas","name_ru":"Талас","elevation":1238.0,"timezone":"Asia/Bishkek","admin1_name":"Talas Region"},{"name":"Chust","lat":41.00329,"lon":71.23791,"population":100200,"iso_a3":"UZB","country":"Uzbekistan","is_capital":false,"name_en":"Chust","name_es":"Chust","name_fr":"Chust","name_it":"Chust","name_ru":"Чуст","elevation":662.0,"timezone":"Asia/Tashkent","admin1_name":"Namangan"},{"name":"Chortoq","lat":41.06924,"lon":71.82372,"population":53400,"iso_a3":"UZB","country":"Uzbekistan","is_capital":false,"name_en":"Chortoq","name_es":"Chortoq","name_fr":"Chortoq","name_it":"Chortoq","name_ru":"Chortoq","elevation":520.0,"timezone":"Asia/Tashkent","admin1_name":"Namangan"},{"name":"Kosonsoy","lat":41.24944,"lon":71.54738,"population":50900,"iso_a3":"UZB","country":"Uzbekistan","is_capital":false,"name_en":"Kosonsoy","name_es":"Kosonsoy","name_fr":"Kosonsoy","name_it":"Kosonsoy","name_ru":"Kosonsoy","elevation":892.0,"timezone":"Asia/Tashkent","admin1_name":"Namangan"},{"name":"Uchqŭrghon Shahri","lat":41.11371,"lon":72.07915,"population":40000,"iso_a3":"UZB","country":"Uzbekistan","is_capital":false,"name_en":"Uchqŭrghon Shahri","name_es":"Uchqŭrghon Shahri","name_fr":"Uchqŭrghon Shahri","name_it":"Uchqŭrghon Shahri","name_ru":"Учкурган","elevation":496.0,"timezone":"Asia/Tashkent","admin1_name":"Namangan"},{"name":"To‘rqao‘rg‘on","lat":40.99984,"lon":71.51162,"population":30300,"iso_a3":"UZB","country":"Uzbekistan","is_capital":false,"name_en":"To‘rqao‘rg‘on","name_es":"To‘rqao‘rg‘on","name_fr":"To‘rqao‘rg‘on","name_it":"To‘rqao‘rg‘on","name_ru":"To‘rqao‘rg‘on","elevation":556.0,"timezone":"Asia/Tashkent","admin1_name":"Namangan"}]