[{"name":"Panvel","lat":18.98878,"lon":73.11013,"population":195373,"iso_a3":"IND","country":"India","is_capital":false,"name_en":"Panvel","name_es":"Panvel","name_fr":"Panvel","name_it":"Panvel","name_ru":"Panvel","elevation":12.0,"timezone":"Asia/Kolkata","admin1_name":"Maharashtra"},{"name":"Airoli","lat":19.15096,"lon":72.99625,"population":100000,"iso_a3":"IND","country":"India","is_capital":false,"name_en":"Airoli","name_es":"Airoli","name_fr":"Airoli","name_it":"Airoli","name_ru":"Airoli","elevation":5.0,"timezone":"Asia/Kolkata","admin1_name":"Maharashtra"},{"name":"Roha","lat":18.43687,"lon":73.11964,"population":90000,"iso_a3":"IND","country":"India","is_capital":false,"name_en":"Roha","name_es":"Roha","name_fr":"Roha","name_it":"Roha","name_ru":"Roha","elevation":11.0,"timezone":"Asia/Kolkata","admin1_name":"Maharashtra"},{"name":"Kharghar","lat":19.04979,"lon":73.07024,"population":80612,"iso_a3":"IND","country":"India","is_capital":false,"name_en":"Kharghar","name_es":"Kharghar","name_fr":"Kharghar","name_it":"Kharghar","name_ru":"Kharghar","elevation":8.0,"timezone":"Asia/Kolkata","admin1_name":"Maharashtra"},{"name":"Pen","lat":18.73734,"lon":73.09603,"population":37852,"iso_a3":"IND","country":"India","is_capital":false,"name_en":"Pen","name_es":"Pen","name_fr":"Pen","name_it":"Pen","name_ru":"Pen","elevation":22.0,"timezone":"Asia/Kolkata","admin1_name":"Maharashtra"},{"name":"Uran","lat":18.87813,"lon":72.93924,"population":30439,"iso_a3":"IND","country":"India","is_capital":false,"name_en":"Uran","name_es":"Uran","name_fr":"Uran","name_it":"Uran","name_ru":"Уран","elevation":7.0,"timezone":"Asia/Kolkata","admin1_name":"Maharashtra"}]