[{"name":"Hisar","lat":29.15394,"lon":75.72294,"population":307024,"iso_a3":"IND","country":"India","is_capital":false,"name_en":"Hisar","name_es":"Hisar","name_fr":"Hisar","name_it":"Hisar","name_ru":"Хисар","elevation":216.0,"timezone":"Asia/Kolkata","admin1_name":"Haryana"},{"name":"Sīkar","lat":27.61206,"lon":75.13996,"population":244497,"iso_a3":"IND","country":"India","is_capital":false,"name_en":"Sīkar","name_es":"Sīkar","name_fr":"Sīkar","name_it":"Sīkar","name_ru":"Sīkar","elevation":435.0,"timezone":"Asia/Kolkata","admin1_name":"Rajasthan"},{"name":"Sūjāngarh","lat":27.7,"lon":74.46667,"population":183808,"iso_a3":"IND","country":"India","is_capital":false,"name_en":"Sūjāngarh","name_es":"Sūjāngarh","name_fr":"Sūjāngarh","name_it":"Sūjāngarh","name_ru":"Sūjāngarh","elevation":319.0,"timezone":"Asia/Kolkata","admin1_name":"Rajasthan"},{"name":"Sirsa","lat":29.53489,"lon":75.02898,"population":182534,"iso_a3":"IND","country":"India","is_capital":false,"name_en":"Sirsa","name_es":"Sirsa","name_fr":"Sirsa","name_it":"Sirsa","name_ru":"Сирса","elevation":205.0,"timezone":"Asia/Kolkata","admin1_name":"Haryana"},{"name":"Chūru","lat":28.30415,"lon":74.96718,"population":120157,"iso_a3":"IND","country":"India","is_capital":false,"name_en":"Chūru","name_es":"Chūru","name_fr":"Chūru","name_it":"Chūru","name_ru":"Chūru","elevation":291.0,"timezone":"Asia/Kolkata","admin1_name":"Rajasthan"},{"name":"Jhunjhunūn","lat":28.12559,"lon":75.39797,"population":118473,"iso_a3":"IND","country":"India","is_capital":false,"name_en":"Jhunjhunūn","name_es":"Jhunjhunūn","name_fr":"Jhunjhunūn","name_it":"Jhunjhunūn","name_ru":"Jhunjhunūn","elevation":343.0,"timezone":"Asia/Kolkata","admin1_name":"Rajasthan"},{"name":"Nāgaur","lat":27.20201,"lon":73.73394,"population":105218,"iso_a3":"IND","country":"India","is_capital":false,"name_en":"Nāgaur","name_es":"Nāgaur","name_fr":"Nāgaur","name_it":"Nāgaur","name_ru":"Nāgaur","elevation":305.0,"timezone":"Asia/Kolkata","admin1_name":"Rajasthan"},{"name":"Sardārshahr","lat":28.44062,"lon":74.491,"population":95911,"iso_a3":"IND","country":"India","is_capital":false,"name_en":"Sardārshahr","name_es":"Sardārshahr","name_fr":"Sardārshahr","name_it":"Sardārshahr","name_ru":"Sardārshahr","elevation":249.0,"timezone":"Asia/Kolkata","admin1_name":"Rajasthan"},{"name":"Fatehpur","lat":27.99486,"lon":74.95628,"population":92595,"iso_a3":"IND","country":"India","is_capital":false,"name_en":"Fatehpur","name_es":"Fatehpur","name_fr":"Fatehpur","name_it":"Fatehpur","name_ru":"Fatehpur","elevation":329.0,"timezone":"Asia/Kolkata","admin1_name":"Rajasthan"},{"name":"Ratangarh","lat":28.08137,"lon":74.61854,"population":71124,"iso_a3":"IND","country":"India","is_capital":false,"name_en":"Ratangarh","name_es":"Ratangarh","name_fr":"Ratangarh","name_it":"Ratangarh","name_ru":"Ratangarh","elevation":312.0,"timezone":"Asia/Kolkata","admin1_name":"Rajasthan"},{"name":"Fatehābād","lat":29.51525,"lon":75.45554,"population":70777,"iso_a3":"IND","country":"India","is_capital":false,"name_en":"Fatehābād","name_es":"Fatehābād","name_fr":"Fatehābād","name_it":"Fatehābād","name_ru":"Fatehābād","elevation":216.0,"timezone":"Asia/Kolkata","admin1_name":"Haryana"},{"name":"Suratgarh","lat":29.3215,"lon":73.89979,"population":70536,"iso_a3":"IND","country":"India","is_capital":false,"name_en":"Suratgarh","name_es":"Suratgarh","name_fr":"Suratgarh","name_it":"Suratgarh","name_ru":"Суратгарх","elevation":172.0,"timezone":"Asia/Kolkata","admin1_name":"Rajasthan"},{"name":"Lādnūn","lat":27.65312,"lon":74.39993,"population":65575,"iso_a3":"IND","country":"India","is_capital":false,"name_en":"Lādnūn","name_es":"Lādnūn","name_fr":"Lādnūn","name_it":"Lādnūn","name_ru":"Lādnūn","elevation":322.0,"timezone":"Asia/Kolkata","admin1_name":"Rajasthan"},{"name":"Chaumu","lat":27.16955,"lon":75.72226,"population":64417,"iso_a3":"IND","country":"India","is_capital":false,"name_en":"Chaumu","name_es":"Chaumu","name_fr":"Chaumu","name_it":"Chaumu","name_ru":"Chaumu","elevation":488.0,"timezone":"Asia/Kolkata","admin1_name":"Rajasthan"},{"name":"Nawalgarh","lat":27.85161,"lon":75.27384,"population":63948,"iso_a3":"IND","country":"India","is_capital":false,"name_en":"Nawalgarh","name_es":"Nawalgarh","name_fr":"Nawalgarh","name_it":"Nawalgarh","name_ru":"Навалгарх","elevation":391.0,"timezone":"Asia/Kolkata","admin1_name":"Rajasthan"},{"name":"Nokha","lat":27.56155,"lon":73.47141,"population":62699,"iso_a3":"IND","country":"India","is_capital":false,"name_en":"Nokha","name_es":"Nokha","name_fr":"Nokha","name_it":"Nokha","name_ru":"Nokha","elevation":320.0,"timezone":"Asia/Kolkata","admin1_name":"Rajasthan"},{"name":"Kuchāman","lat":27.14745,"lon":74.85655,"population":61969,"iso_a3":"IND","country":"India","is_capital":false,"name_en":"Kuchāman","name_es":"Kuchāman","name_fr":"Kuchāman","name_it":"Kuchāman","name_ru":"Kuchāman","elevation":396.0,"timezone":"Asia/Kolkata","admin1_name":"Rajasthan"},{"name":"Rājgarh","lat":28.64201,"lon":75.38612,"population":59193,"iso_a3":"IND","country":"India","is_capital":false,"name_en":"Rājgarh","name_es":"Rājgarh","name_fr":"Rājgarh","name_it":"Rājgarh","name_ru":"Rājgarh","elevation":240.0,"timezone":"Asia/Kolkata","admin1_name":"Rajasthan"},{"name":"Dīdwāna","lat":27.40096,"lon":74.57537,"population":53749,"iso_a3":"IND","country":"India","is_capital":false,"name_en":"Dīdwāna","name_es":"Dīdwāna","name_fr":"Dīdwāna","name_it":"Dīdwāna","name_ru":"Dīdwāna","elevation":348.0,"timezone":"Asia/Kolkata","admin1_name":"Rajasthan"},{"name":"Laxmangarh","lat":27.82294,"lon":75.02754,"population":53392,"iso_a3":"IND","country":"India","is_capital":false,"name_en":"Laxmangarh","name_es":"Laxmangarh","name_fr":"Laxmangarh","name_it":"Laxmangarh","name_ru":"Laxmangarh","elevation":365.0,"timezone":"Asia/Kolkata","admin1_name":"Rajasthan"},{"name":"Sri Dūngargarh","lat":28.09617,"lon":74.00868,"population":53294,"iso_a3":"IND","country":"India","is_capital":false,"name_en":"Sri Dūngargarh","name_es":"Sri Dūngargarh","name_fr":"Sri Dūngargarh","name_it":"Sri Dūngargarh","name_ru":"Sri Dūngargarh","elevation":262.0,"timezone":"Asia/Kolkata","admin1_name":"Rajasthan"},{"name":"Nohar","lat":29.18292,"lon":74.77064,"population":49835,"iso_a3":"IND","country":"India","is_capital":false,"name_en":"Nohar","name_es":"Nohar","name_fr":"Nohar","name_it":"Nohar","name_ru":"Нохар","elevation":193.0,"timezone":"Asia/Kolkata","admin1_name":"Rajasthan"},{"name":"Chidawa","lat":28.23937,"lon":75.64035,"population":43953,"iso_a3":"IND","country":"India","is_capital":false,"name_en":"Chidawa","name_es":"Chidawa","name_fr":"Chidawa","name_it":"Chidawa","name_ru":"Chidawa","elevation":316.0,"timezone":"Asia/Kolkata","admin1_name":"Rajasthan"},{"name":"Barwāla","lat":29.36747,"lon":75.90809,"population":43384,"iso_a3":"IND","country":"India","is_capital":false,"name_en":"Barwāla","name_es":"Barwāla","name_fr":"Barwāla","name_it":"Barwāla","name_ru":"Barwāla","elevation":226.0,"timezone":"Asia/Kolkata","admin1_name":"Haryana"},{"name":"Bhādra","lat":29.10298,"lon":75.17138,"population":40662,"iso_a3":"IND","country":"India","is_capital":false,"name_en":"Bhādra","name_es":"Bhādra","name_fr":"Bhādra","name_it":"Bhādra","name_ru":"Бхадра","elevation":200.0,"timezone":"Asia/Kolkata","admin1_name":"Rajasthan"},{"name":"Ellenabad","lat":29.45282,"lon":74.66122,"population":37680,"iso_a3":"IND","country":"India","is_capital":false,"name_en":"Ellenabad","name_es":"Ellenabad","name_fr":"Ellenabad","name_it":"Ellenabad","name_ru":"Ellenabad","elevation":196.0,"timezone":"Asia/Kolkata","admin1_name":"Haryana"},{"name":"Pilibangan","lat":29.44964,"lon":74.10093,"population":37288,"iso_a3":"IND","country":"India","is_capital":false,"name_en":"Pilibangan","name_es":"Pilibangan","name_fr":"Pilibangan","name_it":"Pilibangan","name_ru":"Pilibangan","elevation":179.0,"timezone":"Asia/Kolkata","admin1_name":"Rajasthan"},{"name":"Neem ka Thana","lat":27.73976,"lon":75.78652,"population":36231,"iso_a3":"IND","country":"India","is_capital":false,"name_en":"Neem ka Thana","name_es":"Neem ka Thana","name_fr":"Neem ka Thana","name_it":"Neem ka Thana","name_ru":"Neem ka Thana","elevation":458.0,"timezone":"Asia/Kolkata","admin1_name":"Rajasthan"},{"name":"Bīdāsar","lat":27.83598,"lon":74.31776,"population":35683,"iso_a3":"IND","country":"India","is_capital":false,"name_en":"Bīdāsar","name_es":"Bīdāsar","name_fr":"Bīdāsar","name_it":"Bīdāsar","name_ru":"Bīdāsar","elevation":304.0,"timezone":"Asia/Kolkata","admin1_name":"Rajasthan"},{"name":"Rāwatsār","lat":29.26724,"lon":74.40288,"population":35102,"iso_a3":"IND","country":"India","is_capital":false,"name_en":"Rāwatsār","name_es":"Rāwatsār","name_fr":"Rāwatsār","name_it":"Rāwatsār","name_ru":"Rāwatsār","elevation":182.0,"timezone":"Asia/Kolkata","admin1_name":"Rajasthan"},{"name":"Anūpgarh","lat":29.19111,"lon":73.20861,"population":33309,"iso_a3":"IND","country":"India","is_capital":false,"name_en":"Anūpgarh","name_es":"Anūpgarh","name_fr":"Anūpgarh","name_it":"Anūpgarh","name_ru":"Anūpgarh","elevation":156.0,"timezone":"Asia/Kolkata","admin1_name":"Rajasthan"},{"name":"Rāmgarh","lat":28.17096,"lon":74.97973,"population":33024,"iso_a3":"IND","country":"India","is_capital":false,"name_en":"Rāmgarh","name_es":"Rāmgarh","name_fr":"Rāmgarh","name_it":"Rāmgarh","name_ru":"Rāmgarh","elevation":306.0,"timezone":"Asia/Kolkata","admin1_name":"Rajasthan"},{"name":"Bhādāsar","lat":28.31457,"lon":74.28952,"population":33006,"iso_a3":"IND","country":"India","is_capital":false,"name_en":"Bhādāsar","name_es":"Bhādāsar","name_fr":"Bhādāsar","name_it":"Bhādāsar","name_ru":"Bhādāsar","elevation":244.0,"timezone":"Asia/Kolkata","admin1_name":"Rajasthan"},{"name":"Tārānagar","lat":28.6686,"lon":75.03207,"population":32640,"iso_a3":"IND","country":"India","is_capital":false,"name_en":"Tārānagar","name_es":"Tārānagar","name_fr":"Tārānagar","name_it":"Tārānagar","name_ru":"Tārānagar","elevation":232.0,"timezone":"Asia/Kolkata","admin1_name":"Rajasthan"},{"name":"Sri Mādhopur","lat":27.46599,"lon":75.59736,"population":31366,"iso_a3":"IND","country":"India","is_capital":false,"name_en":"Sri Mādhopur","name_es":"Sri Mādhopur","name_fr":"Sri Mādhopur","name_it":"Sri Mādhopur","name_ru":"Sri Mādhopur","elevation":502.0,"timezone":"Asia/Kolkata","admin1_name":"Rajasthan"},{"name":"Udaipur","lat":27.72297,"lon":75.47178,"population":30264,"iso_a3":"IND","country":"India","is_capital":false,"name_en":"Udaipur","name_es":"Udaipur","name_fr":"Udaipur","name_it":"Udaipur","name_ru":"Udaipur","elevation":446.0,"timezone":"Asia/Kolkata","admin1_name":"Rajasthan"}]