[{"name":"Ponnāni","lat":10.76695,"lon":75.92523,"population":105512,"iso_a3":"IND","country":"India","is_capital":false,"name_en":"Ponnāni","name_es":"Ponnāni","name_fr":"Ponnāni","name_it":"Ponnāni","name_ru":"Ponnāni","elevation":7.0,"timezone":"Asia/Kolkata","admin1_name":"Kerala"},{"name":"Beypore","lat":11.17151,"lon":75.80611,"population":70751,"iso_a3":"IND","country":"India","is_capital":false,"name_en":"Beypore","name_es":"Beypore","name_fr":"Beypore","name_it":"Beypore","name_ru":"Beypore","elevation":15.0,"timezone":"Asia/Kolkata","admin1_name":"Kerala"},{"name":"Tirūrangādi","lat":11.04316,"lon":75.92337,"population":56632,"iso_a3":"IND","country":"India","is_capital":false,"name_en":"Tirūrangādi","name_es":"Tirūrangādi","name_fr":"Tirūrangādi","name_it":"Tirūrangādi","name_ru":"Tirūrangādi","elevation":33.0,"timezone":"Asia/Kolkata","admin1_name":"Kerala"},{"name":"Tennala","lat":10.99342,"lon":75.93504,"population":56546,"iso_a3":"IND","country":"India","is_capital":false,"name_en":"Tennala","name_es":"Tennala","name_fr":"Tennala","name_it":"Tennala","name_ru":"Tennala","elevation":36.0,"timezone":"Asia/Kolkata","admin1_name":"Kerala"},{"name":"Tirur","lat":10.91368,"lon":75.92118,"population":56058,"iso_a3":"IND","country":"India","is_capital":false,"name_en":"Tirur","name_es":"Tirur","name_fr":"Tirur","name_it":"Tirur","name_ru":"Tirur","elevation":15.0,"timezone":"Asia/Kolkata","admin1_name":"Kerala"},{"name":"Pallikal","lat":11.13723,"lon":75.92575,"population":46962,"iso_a3":"IND","country":"India","is_capital":false,"name_en":"Pallikal","name_es":"Pallikal","name_fr":"Pallikal","name_it":"Pallikal","name_ru":"Pallikal","elevation":33.0,"timezone":"Asia/Kolkata","admin1_name":"Kerala"},{"name":"Neduva","lat":11.05669,"lon":75.86685,"population":35996,"iso_a3":"IND","country":"India","is_capital":false,"name_en":"Neduva","name_es":"Neduva","name_fr":"Neduva","name_it":"Neduva","name_ru":"Neduva","elevation":1.0,"timezone":"Asia/Kolkata","admin1_name":"Kerala"},{"name":"Ramanattukara","lat":11.17802,"lon":75.86892,"population":35937,"iso_a3":"IND","country":"India","is_capital":false,"name_en":"Ramanattukara","name_es":"Ramanattukara","name_fr":"Ramanattukara","name_it":"Ramanattukara","name_ru":"Ramanattukara","elevation":15.0,"timezone":"Asia/Kolkata","admin1_name":"Kerala"}]