[{"name":"Tumkūr","lat":13.34136,"lon":77.1022,"population":307359,"iso_a3":"IND","country":"India","is_capital":false,"name_en":"Tumakuru","name_es":"Tumakuru","name_fr":"Tumakuru","name_it":"Tumakuru","name_ru":"Tumakuru","elevation":822.0,"timezone":"Asia/Kolkata","admin1_name":"Karnataka"},{"name":"Ooty","lat":11.4134,"lon":76.69521,"population":233426,"iso_a3":"IND","country":"India","is_capital":false,"name_en":"Udhagamandalam","name_es":"Udhagamandalam","name_fr":"Udhagamandalam","name_it":"Udhagamandalam","name_ru":"Утакаманд","elevation":2242.0,"timezone":"Asia/Kolkata","admin1_name":"Tamil Nadu"},{"name":"Hosūr","lat":12.73647,"lon":77.83264,"population":229528,"iso_a3":"IND","country":"India","is_capital":false,"name_en":"Hosūr","name_es":"Hosūr","name_fr":"Hosūr","name_it":"Hosūr","name_ru":"Hosūr","elevation":871.0,"timezone":"Asia/Kolkata","admin1_name":"Tamil Nadu"},{"name":"Kumarapalayam","lat":11.44495,"lon":77.71102,"population":195071,"iso_a3":"IND","country":"India","is_capital":false,"name_en":"Komarapalayam","name_es":"Komarapalayam","name_fr":"Komarapalayam","name_it":"Komarapalayam","name_ru":"Komarapalayam","elevation":182.0,"timezone":"Asia/Kolkata","admin1_name":"Tamil Nadu"},{"name":"Madanapalle","lat":13.5503,"lon":78.50288,"population":180180,"iso_a3":"IND","country":"India","is_capital":false,"name_en":"Madanapalle","name_es":"Madanapalle","name_fr":"Madanapalle","name_it":"Madanapalle","name_ru":"Madanapalle","elevation":694.0,"timezone":"Asia/Kolkata","admin1_name":"Andhra Pradesh"},{"name":"Robertsonpet","lat":12.95629,"lon":78.27539,"population":162230,"iso_a3":"IND","country":"India","is_capital":false,"name_en":"Robertsonpet","name_es":"Robertsonpet","name_fr":"Robertson Pet","name_it":"Robertson Pet","name_ru":"Robertsonpet","elevation":851.0,"timezone":"Asia/Kolkata","admin1_name":"Karnataka"},{"name":"Hassan","lat":13.00715,"lon":76.0962,"population":155006,"iso_a3":"IND","country":"India","is_capital":false,"name_en":"Hassan","name_es":"Hassan","name_fr":"Hassan","name_it":"Hassan","name_ru":"Хасан","elevation":955.0,"timezone":"Asia/Kolkata","admin1_name":"Karnataka"},{"name":"Hindupur","lat":13.82807,"lon":77.49143,"population":151677,"iso_a3":"IND","country":"India","is_capital":false,"name_en":"Hindupur","name_es":"Hindupur","name_fr":"Hindupur","name_it":"Hindupur","name_ru":"Hindupur","elevation":630.0,"timezone":"Asia/Kolkata","admin1_name":"Andhra Pradesh"},{"name":"Kolār","lat":13.13768,"lon":78.12999,"population":138462,"iso_a3":"IND","country":"India","is_capital":false,"name_en":"Kolār","name_es":"Kolār","name_fr":"Kolār","name_it":"Kolār","name_ru":"Колар","elevation":848.0,"timezone":"Asia/Kolkata","admin1_name":"Karnataka"},{"name":"Mandya","lat":12.5223,"lon":76.89746,"population":137358,"iso_a3":"IND","country":"India","is_capital":false,"name_en":"Mandya","name_es":"Mandya","name_fr":"Mandya","name_it":"Mandya","name_ru":"Мандья","elevation":681.0,"timezone":"Asia/Kolkata","admin1_name":"Karnataka"},{"name":"Yelahanka","lat":13.10073,"lon":77.59632,"population":116447,"iso_a3":"IND","country":"India","is_capital":false,"name_en":"Yelahanka","name_es":"Yelahanka","name_fr":"Yelahanka","name_it":"Yelahanka","name_ru":"Yelahanka","elevation":903.0,"timezone":"Asia/Kolkata","admin1_name":"Karnataka"},{"name":"Ambur","lat":12.79163,"lon":78.71644,"population":114608,"iso_a3":"IND","country":"India","is_capital":false,"name_en":"Ambur","name_es":"Ambur","name_fr":"Ambur","name_it":"Ambur","name_ru":"Ambur","elevation":322.0,"timezone":"Asia/Kolkata","admin1_name":"Tamil Nadu"},{"name":"Tiruchengode","lat":11.38016,"lon":77.89444,"population":95335,"iso_a3":"IND","country":"India","is_capital":false,"name_en":"Tiruchengode","name_es":"Tiruchengode","name_fr":"Tiruchengode","name_it":"Tiruchengode","name_ru":"Тирученгоде","elevation":246.0,"timezone":"Asia/Kolkata","admin1_name":"Tamil Nadu"},{"name":"Closepet","lat":12.72181,"lon":77.28149,"population":95167,"iso_a3":"IND","country":"India","is_capital":false,"name_en":"Closepet","name_es":"Closepet","name_fr":"Closepet","name_it":"Closepet","name_ru":"Раманагарам","elevation":695.0,"timezone":"Asia/Kolkata","admin1_name":"Karnataka"},{"name":"Vaniyambadi","lat":12.68162,"lon":78.62014,"population":95061,"iso_a3":"IND","country":"India","is_capital":false,"name_en":"Vaniyambadi","name_es":"Vaniyambadi","name_fr":"Vaniyambadi","name_it":"Vaniyambadi","name_ru":"Vaniyambadi","elevation":352.0,"timezone":"Asia/Kolkata","admin1_name":"Tamil Nadu"},{"name":"Doddaballapura","lat":13.29452,"lon":77.53777,"population":93105,"iso_a3":"IND","country":"India","is_capital":false,"name_en":"Doddaballapura","name_es":"Doddaballapura","name_fr":"Doddaballapura","name_it":"Doddaballapura","name_ru":"Doddaballapura","elevation":904.0,"timezone":"Asia/Kolkata","admin1_name":"Karnataka"},{"name":"Electronic City Phase I","lat":12.85492,"lon":77.6633,"population":76348,"iso_a3":"IND","country":"India","is_capital":false,"name_en":"Electronic City Phase I","name_es":"Electronic City Phase I","name_fr":"Electronic City Phase I","name_it":"Electronic City Phase I","name_ru":"Electronic City Phase I","elevation":917.0,"timezone":"Asia/Kolkata","admin1_name":"Karnataka"},{"name":"Chintamani","lat":13.40051,"lon":78.05172,"population":76068,"iso_a3":"IND","country":"India","is_capital":false,"name_en":"Chintamani","name_es":"Chintamani","name_fr":"Chintamani","name_it":"Chintamani","name_ru":"Чинтамани","elevation":890.0,"timezone":"Asia/Kolkata","admin1_name":"Karnataka"},{"name":"Channapatna","lat":12.65143,"lon":77.20672,"population":71942,"iso_a3":"IND","country":"India","is_capital":false,"name_en":"Channapatna","name_es":"Channapatna","name_fr":"Channapatna","name_it":"Channapatna","name_ru":"Чаннапатна","elevation":669.0,"timezone":"Asia/Kolkata","admin1_name":"Karnataka"},{"name":"Krishnagiri","lat":12.51921,"lon":78.21382,"population":71323,"iso_a3":"IND","country":"India","is_capital":false,"name_en":"Krishnagiri","name_es":"Krishnagiri","name_fr":"Krishnagiri","name_it":"Krishnagiri","name_ru":"Кришнагири","elevation":492.0,"timezone":"Asia/Kolkata","admin1_name":"Tamil Nadu"},{"name":"Chamrajnagar","lat":11.92312,"lon":76.93949,"population":69875,"iso_a3":"IND","country":"India","is_capital":false,"name_en":"Chamrajnagar","name_es":"Chamrajnagar","name_fr":"Chamrajnagar","name_it":"Chamrajnagar","name_ru":"Chamrajnagar","elevation":717.0,"timezone":"Asia/Kolkata","admin1_name":"Karnataka"},{"name":"Mettupalayam","lat":11.29971,"lon":76.93485,"population":69213,"iso_a3":"IND","country":"India","is_capital":false,"name_en":"Mettupalayam","name_es":"Mettupalayam","name_fr":"Mettupalayam","name_it":"Mettupalayam","name_ru":"Mettupalayam","elevation":331.0,"timezone":"Asia/Kolkata","admin1_name":"Tamil Nadu"},{"name":"Dharmapuri","lat":12.1277,"lon":78.15794,"population":68619,"iso_a3":"IND","country":"India","is_capital":false,"name_en":"Dharmapuri","name_es":"Dharmapuri","name_fr":"Dharmapuri","name_it":"Dharmapuri","name_ru":"Дхармапури","elevation":468.0,"timezone":"Asia/Kolkata","admin1_name":"Tamil Nadu"},{"name":"Tirupattur","lat":12.49239,"lon":78.56804,"population":64125,"iso_a3":"IND","country":"India","is_capital":false,"name_en":"Tirupattur","name_es":"Tirupattur","name_fr":"Tirupattur","name_it":"Tirupattur","name_ru":"Tirupattur","elevation":390.0,"timezone":"Asia/Kolkata","admin1_name":"Tamil Nadu"},{"name":"Chik Ballāpur","lat":13.43512,"lon":77.72787,"population":63652,"iso_a3":"IND","country":"India","is_capital":false,"name_en":"Chik Ballāpur","name_es":"Chik Ballāpur","name_fr":"Chik Ballāpur","name_it":"Chik Ballāpur","name_ru":"Chik Ballāpur","elevation":918.0,"timezone":"Asia/Kolkata","admin1_name":"Karnataka"},{"name":"Attur","lat":11.59414,"lon":78.60143,"population":61793,"iso_a3":"IND","country":"India","is_capital":false,"name_en":"Attur","name_es":"Attur","name_fr":"Attur","name_it":"Attur","name_ru":"Аттур","elevation":219.0,"timezone":"Asia/Kolkata","admin1_name":"Tamil Nadu"},{"name":"Tiptūr","lat":13.2563,"lon":76.47768,"population":60957,"iso_a3":"IND","country":"India","is_capital":false,"name_en":"Tiptūr","name_es":"Tiptūr","name_fr":"Tiptūr","name_it":"Tiptūr","name_ru":"Tiptūr","elevation":862.0,"timezone":"Asia/Kolkata","admin1_name":"Karnataka"},{"name":"Gobichettipalayam","lat":11.45496,"lon":77.4422,"population":59523,"iso_a3":"IND","country":"India","is_capital":false,"name_en":"Gobichettipalayam","name_es":"Gobichettipalayam","name_fr":"Gobichettipalayam","name_it":"Gobichettipalayam","name_ru":"Gobichettipalayam","elevation":220.0,"timezone":"Asia/Kolkata","admin1_name":"Tamil Nadu"},{"name":"Sīra","lat":13.74155,"lon":76.9043,"population":57928,"iso_a3":"IND","country":"India","is_capital":false,"name_en":"Sīra","name_es":"Sīra","name_fr":"Sīra","name_it":"Sīra","name_ru":"Sīra","elevation":654.0,"timezone":"Asia/Kolkata","admin1_name":"Karnataka"},{"name":"Mulbāgal","lat":13.16352,"lon":78.39346,"population":57276,"iso_a3":"IND","country":"India","is_capital":false,"name_en":"Mulbāgal","name_es":"Mulbāgal","name_fr":"Mulbāgal","name_it":"Mulbāgal","name_ru":"Mulbāgal","elevation":849.0,"timezone":"Asia/Kolkata","admin1_name":"Karnataka"},{"name":"Kollegāl","lat":12.15449,"lon":77.11051,"population":57149,"iso_a3":"IND","country":"India","is_capital":false,"name_en":"Kollegāl","name_es":"Kollegāl","name_fr":"Kollegāl","name_it":"Kollegāl","name_ru":"Kollegāl","elevation":657.0,"timezone":"Asia/Kolkata","admin1_name":"Karnataka"},{"name":"Hoskote","lat":13.0707,"lon":77.79814,"population":56980,"iso_a3":"IND","country":"India","is_capital":false,"name_en":"Hoskote","name_es":"Hosakote","name_fr":"Hoskote","name_it":"Hoskote","name_ru":"Хоскоте","elevation":884.0,"timezone":"Asia/Kolkata","admin1_name":"Karnataka"},{"name":"Mettur","lat":11.78796,"lon":77.8008,"population":56743,"iso_a3":"IND","country":"India","is_capital":false,"name_en":"Mettur","name_es":"Mettur","name_fr":"Mettur","name_it":"Mettur","name_ru":"Mettur","elevation":205.0,"timezone":"Asia/Kolkata","admin1_name":"Tamil Nadu"},{"name":"Nāmakkal","lat":11.22126,"lon":78.16524,"population":55997,"iso_a3":"IND","country":"India","is_capital":false,"name_en":"Namakkal","name_es":"Namakkal","name_fr":"Namakkal","name_it":"Namakkal","name_ru":"Namakkal","elevation":223.0,"timezone":"Asia/Kolkata","admin1_name":"Tamil Nadu"},{"name":"Idappadi","lat":11.58624,"lon":77.83891,"population":54823,"iso_a3":"IND","country":"India","is_capital":false,"name_en":"Idappadi","name_es":"Idappadi","name_fr":"Idappadi","name_it":"Idappadi","name_ru":"Idappadi","elevation":209.0,"timezone":"Asia/Kolkata","admin1_name":"Tamil Nadu"},{"name":"Punganūru","lat":13.36672,"lon":78.57186,"population":54746,"iso_a3":"IND","country":"India","is_capital":false,"name_en":"Punganūru","name_es":"Punganūru","name_fr":"Punganūru","name_it":"Punganūru","name_ru":"Punganūru","elevation":730.0,"timezone":"Asia/Kolkata","admin1_name":"Andhra Pradesh"},{"name":"Palmaner","lat":13.2,"lon":78.74725,"population":54035,"iso_a3":"IND","country":"India","is_capital":false,"name_en":"Palmaner","name_es":"Palmaner","name_fr":"Palmaner","name_it":"Palmaner","name_ru":"Palmaner","elevation":675.0,"timezone":"Asia/Kolkata","admin1_name":"Andhra Pradesh"},{"name":"Kanakapura","lat":12.54654,"lon":77.42005,"population":54014,"iso_a3":"IND","country":"India","is_capital":false,"name_en":"Kanakapura","name_es":"Kanakapura","name_fr":"Kanakapura","name_it":"Kanakapura","name_ru":"Канакапура","elevation":639.0,"timezone":"Asia/Kolkata","admin1_name":"Karnataka"},{"name":"Arsikere","lat":13.31446,"lon":76.25704,"population":53216,"iso_a3":"IND","country":"India","is_capital":false,"name_en":"Arsikere","name_es":"Arsikere","name_fr":"Arsikere","name_it":"Arsikere","name_ru":"Арсикере","elevation":809.0,"timezone":"Asia/Kolkata","admin1_name":"Karnataka"},{"name":"Peranāmpattu","lat":12.9343,"lon":78.7189,"population":51271,"iso_a3":"IND","country":"India","is_capital":false,"name_en":"Peranāmpattu","name_es":"Peranāmpattu","name_fr":"Peranāmpattu","name_it":"Peranāmpattu","name_ru":"Peranāmpattu","elevation":369.0,"timezone":"Asia/Kolkata","admin1_name":"Tamil Nadu"},{"name":"Sidlaghatta","lat":13.38896,"lon":77.86444,"population":51159,"iso_a3":"IND","country":"India","is_capital":false,"name_en":"Sidlaghatta","name_es":"Sidlaghatta","name_fr":"Sidlaghatta","name_it":"Sidlaghatta","name_ru":"Сидлагхатта","elevation":901.0,"timezone":"Asia/Kolkata","admin1_name":"Karnataka"},{"name":"Hunsūr","lat":12.30359,"lon":76.29275,"population":50865,"iso_a3":"IND","country":"India","is_capital":false,"name_en":"Hunsūr","name_es":"Hunsūr","name_fr":"Hunsūr","name_it":"Hunsūr","name_ru":"Хунсур","elevation":794.0,"timezone":"Asia/Kolkata","admin1_name":"Karnataka"},{"name":"Nanjangūd","lat":12.11764,"lon":76.68397,"population":50598,"iso_a3":"IND","country":"India","is_capital":false,"name_en":"Nanjangūd","name_es":"Nanjangūd","name_fr":"Nanjangūd","name_it":"Nanjangūd","name_ru":"Nanjangūd","elevation":666.0,"timezone":"Asia/Kolkata","admin1_name":"Karnataka"},{"name":"Rasipuram","lat":11.46009,"lon":78.18635,"population":50244,"iso_a3":"IND","country":"India","is_capital":false,"name_en":"Rasipuram","name_es":"Rasipuram","name_fr":"Rasipuram","name_it":"Rasipuram","name_ru":"Rasipuram","elevation":234.0,"timezone":"Asia/Kolkata","admin1_name":"Tamil Nadu"},{"name":"Gudalur","lat":11.52073,"lon":76.48141,"population":49535,"iso_a3":"IND","country":"India","is_capital":false,"name_en":"Gudalur","name_es":"Gudalur","name_fr":"Gudalur","name_it":"Gudalur","name_ru":"Gudalur","elevation":918.0,"timezone":"Asia/Kolkata","admin1_name":"Tamil Nadu"},{"name":"Nilambūr","lat":11.27271,"lon":76.22571,"population":46366,"iso_a3":"IND","country":"India","is_capital":false,"name_en":"Nilambūr","name_es":"Nilambūr","name_fr":"Nilambūr","name_it":"Nilambūr","name_ru":"Nilambūr","elevation":50.0,"timezone":"Asia/Kolkata","admin1_name":"Kerala"},{"name":"Coonoor","lat":11.34979,"lon":76.79375,"population":45494,"iso_a3":"IND","country":"India","is_capital":false,"name_en":"Coonoor","name_es":"Coonoor","name_fr":"Coonoor","name_it":"Coonoor","name_ru":"Coonoor","elevation":1746.0,"timezone":"Asia/Kolkata","admin1_name":"Tamil Nadu"},{"name":"Bangarapet","lat":12.99116,"lon":78.17804,"population":44849,"iso_a3":"IND","country":"India","is_capital":false,"name_en":"Bangarapet","name_es":"Bangarapet","name_fr":"Bangarapet","name_it":"Bangarapet","name_ru":"Bangarapet","elevation":826.0,"timezone":"Asia/Kolkata","admin1_name":"Karnataka"},{"name":"Tondalam","lat":11.50137,"lon":76.34983,"population":44590,"iso_a3":"IND","country":"India","is_capital":false,"name_en":"Tondalam","name_es":"Tondalam","name_fr":"Tondalam","name_it":"Tondalam","name_ru":"Tondalam","elevation":934.0,"timezone":"Asia/Kolkata","admin1_name":"Tamil Nadu"},{"name":"Anekal","lat":12.7111,"lon":77.69557,"population":44260,"iso_a3":"IND","country":"India","is_capital":false,"name_en":"Anekal","name_es":"Anekal","name_fr":"Anekal","name_it":"Anekal","name_ru":"Anekal","elevation":927.0,"timezone":"Asia/Kolkata","admin1_name":"Karnataka"},{"name":"Jalārpet","lat":12.57025,"lon":78.57318,"population":40959,"iso_a3":"IND","country":"India","is_capital":false,"name_en":"Jalārpet","name_es":"Jalārpet","name_fr":"Jalārpet","name_it":"Jalārpet","name_ru":"Jalārpet","elevation":414.0,"timezone":"Asia/Kolkata","admin1_name":"Tamil Nadu"},{"name":"Channarāyapatna","lat":12.90642,"lon":76.38775,"population":40417,"iso_a3":"IND","country":"India","is_capital":false,"name_en":"Channarāyapatna","name_es":"Channarāyapatna","name_fr":"Channarāyapatna","name_it":"Channarāyapatna","name_ru":"Channarāyapatna","elevation":855.0,"timezone":"Asia/Kolkata","admin1_name":"Karnataka"},{"name":"Mālūr","lat":13.00322,"lon":77.93798,"population":40050,"iso_a3":"IND","country":"India","is_capital":false,"name_en":"Mālūr","name_es":"Mālūr","name_fr":"Mālūr","name_it":"Mālūr","name_ru":"Mālūr","elevation":914.0,"timezone":"Asia/Kolkata","admin1_name":"Karnataka"},{"name":"Malavalli","lat":12.38556,"lon":77.06045,"population":38129,"iso_a3":"IND","country":"India","is_capital":false,"name_en":"Malavalli","name_es":"Malavalli","name_fr":"Malavalli","name_it":"Malavalli","name_ru":"Malavalli","elevation":621.0,"timezone":"Asia/Kolkata","admin1_name":"Karnataka"},{"name":"Gauribidanur","lat":13.61072,"lon":77.51738,"population":37947,"iso_a3":"IND","country":"India","is_capital":false,"name_en":"Gauribidanur","name_es":"Gauribidanur","name_fr":"Gauribidanur","name_it":"Gauribidanur","name_ru":"Gauribidanur","elevation":690.0,"timezone":"Asia/Kolkata","admin1_name":"Karnataka"},{"name":"Sathyamangalam","lat":11.50526,"lon":77.23826,"population":37816,"iso_a3":"IND","country":"India","is_capital":false,"name_en":"Sathyamangalam","name_es":"Sathyamangalam","name_fr":"Sathyamangalam","name_it":"Sathyamangalam","name_ru":"Sathyamangalam","elevation":239.0,"timezone":"Asia/Kolkata","admin1_name":"Tamil Nadu"},{"name":"Nelamangala","lat":13.09978,"lon":77.39364,"population":37232,"iso_a3":"IND","country":"India","is_capital":false,"name_en":"Nelamangala","name_es":"Nelamangala","name_fr":"Nelamangala","name_it":"Nelamangala","name_ru":"Nelamangala","elevation":898.0,"timezone":"Asia/Kolkata","admin1_name":"Karnataka"},{"name":"Krishnarājāsāgara","lat":12.43976,"lon":76.38276,"population":35805,"iso_a3":"IND","country":"India","is_capital":false,"name_en":"Krishnarājāsāgara","name_es":"Krishnarājāsāgara","name_fr":"Krishnarājāsāgara","name_it":"Krishnarājāsāgara","name_ru":"Krishnarājāsāgara","elevation":813.0,"timezone":"Asia/Kolkata","admin1_name":"Karnataka"},{"name":"Kāramadai","lat":11.24058,"lon":76.96009,"population":35166,"iso_a3":"IND","country":"India","is_capital":false,"name_en":"Kāramadai","name_es":"Kāramadai","name_fr":"Kāramadai","name_it":"Kāramadai","name_ru":"Kāramadai","elevation":367.0,"timezone":"Asia/Kolkata","admin1_name":"Tamil Nadu"},{"name":"Vijayapura","lat":13.29724,"lon":77.80184,"population":34866,"iso_a3":"IND","country":"India","is_capital":false,"name_en":"Vijayapura","name_es":"Vijayapura","name_fr":"Vijayapura","name_it":"Vijayapura","name_ru":"Vijayapura","elevation":886.0,"timezone":"Asia/Kolkata","admin1_name":"Karnataka"},{"name":"Kunigal","lat":13.02319,"lon":77.02518,"population":34155,"iso_a3":"IND","country":"India","is_capital":false,"name_en":"Kunigal","name_es":"Kunigal","name_fr":"Kunigal","name_it":"Kunigal","name_ru":"Кунигал","elevation":778.0,"timezone":"Asia/Kolkata","admin1_name":"Karnataka"},{"name":"Kadūr","lat":13.55285,"lon":76.01164,"population":34151,"iso_a3":"IND","country":"India","is_capital":false,"name_en":"Kadūr","name_es":"Kadūr","name_fr":"Kadūr","name_it":"Kadūr","name_ru":"Kadūr","elevation":774.0,"timezone":"Asia/Kolkata","admin1_name":"Karnataka"},{"name":"Idangansālai","lat":11.62721,"lon":77.98898,"population":33245,"iso_a3":"IND","country":"India","is_capital":false,"name_en":"Idangansālai","name_es":"Idangansālai","name_fr":"Idangansālai","name_it":"Idangansālai","name_ru":"Idangansālai","elevation":261.0,"timezone":"Asia/Kolkata","admin1_name":"Tamil Nadu"},{"name":"Jūjūvādi","lat":12.76794,"lon":77.79184,"population":32474,"iso_a3":"IND","country":"India","is_capital":false,"name_en":"Jūjūvādi","name_es":"Jūjūvādi","name_fr":"Jūjūvādi","name_it":"Jūjūvādi","name_ru":"Jūjūvādi","elevation":892.0,"timezone":"Asia/Kolkata","admin1_name":"Tamil Nadu"},{"name":"Kalpatta","lat":11.60871,"lon":76.08343,"population":31580,"iso_a3":"IND","country":"India","is_capital":false,"name_en":"Kalpatta","name_es":"Kalpatta","name_fr":"Kalpatta","name_it":"Kalpatta","name_ru":"Калпетта","elevation":755.0,"timezone":"Asia/Kolkata","admin1_name":"Kerala"},{"name":"Tāramangalam","lat":11.69403,"lon":77.97035,"population":30222,"iso_a3":"IND","country":"India","is_capital":false,"name_en":"Tāramangalam","name_es":"Tāramangalam","name_fr":"Tāramangalam","name_it":"Tāramangalam","name_ru":"Tāramangalam","elevation":266.0,"timezone":"Asia/Kolkata","admin1_name":"Tamil Nadu"}]