[{"name":"Akola","lat":20.70957,"lon":76.9981,"population":428857,"iso_a3":"IND","country":"India","is_capital":false,"name_en":"Akola","name_es":"Akola","name_fr":"Akola","name_it":"Akola","name_ru":"Акола","elevation":285.0,"timezone":"Asia/Kolkata","admin1_name":"Maharashtra"},{"name":"Burhānpur","lat":21.30868,"lon":76.23026,"population":210886,"iso_a3":"IND","country":"India","is_capital":false,"name_en":"Burhānpur","name_es":"Burhānpur","name_fr":"Burhānpur","name_it":"Burhānpur","name_ru":"Burhānpur","elevation":251.0,"timezone":"Asia/Kolkata","admin1_name":"Madhya Pradesh"},{"name":"Khandwa","lat":21.82427,"lon":76.35086,"population":200738,"iso_a3":"IND","country":"India","is_capital":false,"name_en":"Khandwa","name_es":"Khandwa","name_fr":"Khandwa","name_it":"Khandwa","name_ru":"Khandwa","elevation":314.0,"timezone":"Asia/Kolkata","admin1_name":"Madhya Pradesh"},{"name":"Yavatmāl","lat":20.39324,"lon":78.13201,"population":128175,"iso_a3":"IND","country":"India","is_capital":false,"name_en":"Yavatmal","name_es":"Yavatmal","name_fr":"Yavatmal","name_it":"Yavatmal","name_ru":"Yavatmal","elevation":446.0,"timezone":"Asia/Kolkata","admin1_name":"Maharashtra"},{"name":"Ādilābād","lat":19.67203,"lon":78.5359,"population":118526,"iso_a3":"IND","country":"India","is_capital":false,"name_en":"Adilabad","name_es":"Adilabad","name_fr":"Adilabad","name_it":"Adilabad","name_ru":"Adilabad","elevation":257.0,"timezone":"Asia/Kolkata","admin1_name":"Telangana"},{"name":"Wardha","lat":20.73933,"lon":78.59784,"population":113759,"iso_a3":"IND","country":"India","is_capital":false,"name_en":"Wardha","name_es":"Wardha","name_fr":"Wardha","name_it":"Wardha","name_ru":"Вардха","elevation":292.0,"timezone":"Asia/Kolkata","admin1_name":"Maharashtra"},{"name":"Achalpur","lat":21.25665,"lon":77.51006,"population":112311,"iso_a3":"IND","country":"India","is_capital":false,"name_en":"Achalpur","name_es":"Achalpur","name_fr":"Achalpur","name_it":"Achalpur","name_ru":"Ачалпур","elevation":376.0,"timezone":"Asia/Kolkata","admin1_name":"Maharashtra"},{"name":"Betūl","lat":21.90056,"lon":77.90229,"population":103330,"iso_a3":"IND","country":"India","is_capital":false,"name_en":"Betūl","name_es":"Betūl","name_fr":"Betūl","name_it":"Betūl","name_ru":"Betūl","elevation":645.0,"timezone":"Asia/Kolkata","admin1_name":"Madhya Pradesh"},{"name":"Khāmgaon","lat":20.70738,"lon":76.56827,"population":94604,"iso_a3":"IND","country":"India","is_capital":false,"name_en":"Khāmgaon","name_es":"Khāmgaon","name_fr":"Khāmgaon","name_it":"Khāmgaon","name_ru":"Khāmgaon","elevation":304.0,"timezone":"Asia/Kolkata","admin1_name":"Maharashtra"},{"name":"Akot","lat":21.0963,"lon":77.0588,"population":92637,"iso_a3":"IND","country":"India","is_capital":false,"name_en":"Akot","name_es":"Akot","name_fr":"Akot","name_it":"Akot","name_ru":"Акот","elevation":311.0,"timezone":"Asia/Kolkata","admin1_name":"Maharashtra"},{"name":"Hingoli","lat":19.71464,"lon":77.14238,"population":85103,"iso_a3":"IND","country":"India","is_capital":false,"name_en":"Hingoli","name_es":"Hingoli","name_fr":"Hingoli","name_it":"Hingoli","name_ru":"Хинголи","elevation":458.0,"timezone":"Asia/Kolkata","admin1_name":"Maharashtra"},{"name":"Wāshīm","lat":20.11128,"lon":77.133,"population":78387,"iso_a3":"IND","country":"India","is_capital":false,"name_en":"Wāshīm","name_es":"Wāshīm","name_fr":"Wāshīm","name_it":"Wāshīm","name_ru":"Wāshīm","elevation":550.0,"timezone":"Asia/Kolkata","admin1_name":"Maharashtra"},{"name":"Pusad","lat":19.91274,"lon":77.57838,"population":73046,"iso_a3":"IND","country":"India","is_capital":false,"name_en":"Pusad","name_es":"Pusad","name_fr":"Pusad","name_it":"Pusad","name_ru":"Pusad","elevation":336.0,"timezone":"Asia/Kolkata","admin1_name":"Maharashtra"},{"name":"Basmat","lat":19.32872,"lon":77.15746,"population":68846,"iso_a3":"IND","country":"India","is_capital":false,"name_en":"Basmat","name_es":"Basmat","name_fr":"Basmat","name_it":"Basmat","name_ru":"Basmat","elevation":397.0,"timezone":"Asia/Kolkata","admin1_name":"Maharashtra"},{"name":"Kāranja","lat":20.48273,"lon":77.48857,"population":67907,"iso_a3":"IND","country":"India","is_capital":false,"name_en":"Kāranja","name_es":"Kāranja","name_fr":"Kāranja","name_it":"Kāranja","name_ru":"Каранджа","elevation":414.0,"timezone":"Asia/Kolkata","admin1_name":"Maharashtra"},{"name":"Malkāpur","lat":20.88555,"lon":76.19932,"population":67740,"iso_a3":"IND","country":"India","is_capital":false,"name_en":"Malkāpur","name_es":"Malkāpur","name_fr":"Malkāpur","name_it":"Malkāpur","name_ru":"Malkāpur","elevation":253.0,"timezone":"Asia/Kolkata","admin1_name":"Maharashtra"},{"name":"Buldāna","lat":20.52933,"lon":76.18457,"population":67431,"iso_a3":"IND","country":"India","is_capital":false,"name_en":"Buldāna","name_es":"Buldāna","name_fr":"Buldāna","name_it":"Buldāna","name_ru":"Buldāna","elevation":654.0,"timezone":"Asia/Kolkata","admin1_name":"Maharashtra"},{"name":"Shegaon","lat":20.7932,"lon":76.69921,"population":59672,"iso_a3":"IND","country":"India","is_capital":false,"name_en":"Shegaon","name_es":"Shegaon","name_fr":"Shegaon","name_it":"Shegaon","name_ru":"Shegaon","elevation":275.0,"timezone":"Asia/Kolkata","admin1_name":"Maharashtra"},{"name":"Chikhli","lat":20.35046,"lon":76.25774,"population":57889,"iso_a3":"IND","country":"India","is_capital":false,"name_en":"Chikhli","name_es":"Chikhli","name_fr":"Chikhli","name_it":"Chikhli","name_ru":"Чикхли","elevation":601.0,"timezone":"Asia/Kolkata","admin1_name":"Maharashtra"},{"name":"Anjangaon","lat":21.16516,"lon":77.3091,"population":56380,"iso_a3":"IND","country":"India","is_capital":false,"name_en":"Anjangaon","name_es":"Anjangaon","name_fr":"Anjangaon","name_it":"Anjangaon","name_ru":"Anjangaon","elevation":344.0,"timezone":"Asia/Kolkata","admin1_name":"Maharashtra"},{"name":"Warud","lat":21.47101,"lon":78.26965,"population":47817,"iso_a3":"IND","country":"India","is_capital":false,"name_en":"Warud","name_es":"Warud","name_fr":"Warud","name_it":"Warud","name_ru":"Варуд","elevation":402.0,"timezone":"Asia/Kolkata","admin1_name":"Maharashtra"},{"name":"Umarkhed","lat":19.60144,"lon":77.68878,"population":47458,"iso_a3":"IND","country":"India","is_capital":false,"name_en":"Umarkhed","name_es":"Umarkhed","name_fr":"Umarkhed","name_it":"Umarkhed","name_ru":"Umarkhed","elevation":424.0,"timezone":"Asia/Kolkata","admin1_name":"Maharashtra"},{"name":"Selu","lat":19.45512,"lon":76.44073,"population":46915,"iso_a3":"IND","country":"India","is_capital":false,"name_en":"Selu","name_es":"Selu","name_fr":"Selu","name_it":"Selu","name_ru":"Selu","elevation":424.0,"timezone":"Asia/Kolkata","admin1_name":"Maharashtra"},{"name":"Pāndhurnā","lat":21.59556,"lon":78.52628,"population":45479,"iso_a3":"IND","country":"India","is_capital":false,"name_en":"Pāndhurnā","name_es":"Pāndhurnā","name_fr":"Pāndhurnā","name_it":"Pāndhurnā","name_ru":"Pāndhurnā","elevation":470.0,"timezone":"Asia/Kolkata","admin1_name":"Madhya Pradesh"},{"name":"Mehkar","lat":20.1505,"lon":76.56841,"population":45248,"iso_a3":"IND","country":"India","is_capital":false,"name_en":"Mehkar","name_es":"Mehkar","name_fr":"Mehkar","name_it":"Mehkar","name_ru":"Мехкар","elevation":559.0,"timezone":"Asia/Kolkata","admin1_name":"Maharashtra"},{"name":"Digras","lat":20.1035,"lon":77.71846,"population":44767,"iso_a3":"IND","country":"India","is_capital":false,"name_en":"Digras","name_es":"Digras","name_fr":"Digras","name_it":"Digras","name_ru":"Digras","elevation":341.0,"timezone":"Asia/Kolkata","admin1_name":"Maharashtra"},{"name":"Bālāpur","lat":20.66612,"lon":76.77386,"population":44594,"iso_a3":"IND","country":"India","is_capital":false,"name_en":"Bālāpur","name_es":"Bālāpur","name_fr":"Bālāpur","name_it":"Bālāpur","name_ru":"Bālāpur","elevation":277.0,"timezone":"Asia/Kolkata","admin1_name":"Maharashtra"},{"name":"Nāndūra","lat":20.83417,"lon":76.45924,"population":44419,"iso_a3":"IND","country":"India","is_capital":false,"name_en":"Nāndūra","name_es":"Nāndūra","name_fr":"Nāndūra","name_it":"Nāndūra","name_ru":"Nāndūra","elevation":271.0,"timezone":"Asia/Kolkata","admin1_name":"Maharashtra"},{"name":"Jintūr","lat":19.61186,"lon":76.6874,"population":44291,"iso_a3":"IND","country":"India","is_capital":false,"name_en":"Jintūr","name_es":"Jintūr","name_fr":"Jintūr","name_it":"Jintūr","name_ru":"Jintūr","elevation":442.0,"timezone":"Asia/Kolkata","admin1_name":"Maharashtra"},{"name":"Kātol","lat":21.27388,"lon":78.5858,"population":43267,"iso_a3":"IND","country":"India","is_capital":false,"name_en":"Kātol","name_es":"Kātol","name_fr":"Kātol","name_it":"Kātol","name_ru":"Kātol","elevation":413.0,"timezone":"Asia/Kolkata","admin1_name":"Maharashtra"},{"name":"Ārvi","lat":20.99585,"lon":78.22914,"population":42822,"iso_a3":"IND","country":"India","is_capital":false,"name_en":"Ārvi","name_es":"Ārvi","name_fr":"Ārvi","name_it":"Ārvi","name_ru":"Ārvi","elevation":307.0,"timezone":"Asia/Kolkata","admin1_name":"Maharashtra"},{"name":"Murtajāpur","lat":20.73299,"lon":77.36694,"population":40295,"iso_a3":"IND","country":"India","is_capital":false,"name_en":"Murtajāpur","name_es":"Murtajāpur","name_fr":"Murtajāpur","name_it":"Murtajāpur","name_ru":"Murtajāpur","elevation":303.0,"timezone":"Asia/Kolkata","admin1_name":"Maharashtra"},{"name":"Morsi","lat":21.3403,"lon":78.01258,"population":37333,"iso_a3":"IND","country":"India","is_capital":false,"name_en":"Morsi","name_es":"Morsi","name_fr":"Morsi","name_it":"Morsi","name_ru":"Morsi","elevation":351.0,"timezone":"Asia/Kolkata","admin1_name":"Maharashtra"},{"name":"Daryāpur","lat":20.92489,"lon":77.32644,"population":36463,"iso_a3":"IND","country":"India","is_capital":false,"name_en":"Daryāpur","name_es":"Daryāpur","name_fr":"Daryāpur","name_it":"Daryāpur","name_ru":"Daryāpur","elevation":287.0,"timezone":"Asia/Kolkata","admin1_name":"Maharashtra"},{"name":"Partūr","lat":19.59925,"lon":76.21541,"population":35883,"iso_a3":"IND","country":"India","is_capital":false,"name_en":"Partūr","name_es":"Partūr","name_fr":"Partūr","name_it":"Partūr","name_ru":"Partūr","elevation":453.0,"timezone":"Asia/Kolkata","admin1_name":"Maharashtra"},{"name":"Pulgaon","lat":20.72204,"lon":78.32056,"population":35238,"iso_a3":"IND","country":"India","is_capital":false,"name_en":"Pulgaon","name_es":"Pulgaon","name_fr":"Pulgaon","name_it":"Pulgaon","name_ru":"Pulgaon","elevation":276.0,"timezone":"Asia/Kolkata","admin1_name":"Maharashtra"},{"name":"Risod","lat":19.97671,"lon":76.78799,"population":34136,"iso_a3":"IND","country":"India","is_capital":false,"name_en":"Risod","name_es":"Risod","name_fr":"Risod","name_it":"Risod","name_ru":"Risod","elevation":542.0,"timezone":"Asia/Kolkata","admin1_name":"Maharashtra"},{"name":"Nepānagar","lat":21.4538,"lon":76.39335,"population":32611,"iso_a3":"IND","country":"India","is_capital":false,"name_en":"Nepānagar","name_es":"Nepānagar","name_fr":"Nepānagar","name_it":"Nepānagar","name_ru":"Nepānagar","elevation":289.0,"timezone":"Asia/Kolkata","admin1_name":"Madhya Pradesh"},{"name":"Pāndharkawada","lat":20.02108,"lon":78.54628,"population":31094,"iso_a3":"IND","country":"India","is_capital":false,"name_en":"Pāndharkawada","name_es":"Pāndharkawada","name_fr":"Pāndharkawada","name_it":"Pāndharkawada","name_ru":"Pāndharkawada","elevation":249.0,"timezone":"Asia/Kolkata","admin1_name":"Maharashtra"},{"name":"Mangrūl Pīr","lat":20.31379,"lon":77.34178,"population":30983,"iso_a3":"IND","country":"India","is_capital":false,"name_en":"Mangrūl Pīr","name_es":"Mangrūl Pīr","name_fr":"Mangrūl Pīr","name_it":"Mangrūl Pīr","name_ru":"Mangrūl Pīr","elevation":450.0,"timezone":"Asia/Kolkata","admin1_name":"Maharashtra"},{"name":"Deūlgaon Rāja","lat":20.01757,"lon":76.03755,"population":30827,"iso_a3":"IND","country":"India","is_capital":false,"name_en":"Deūlgaon Rāja","name_es":"Deūlgaon Rāja","name_fr":"Deūlgaon Rāja","name_it":"Deūlgaon Rāja","name_ru":"Deūlgaon Rāja","elevation":568.0,"timezone":"Asia/Kolkata","admin1_name":"Maharashtra"},{"name":"Amla","lat":21.92485,"lon":78.12786,"population":30215,"iso_a3":"IND","country":"India","is_capital":false,"name_en":"Amla","name_es":"Amla","name_fr":"Amla","name_it":"Amla","name_ru":"Amla","elevation":745.0,"timezone":"Asia/Kolkata","admin1_name":"Madhya Pradesh"}]