[{"name":"Latur","lat":18.39721,"lon":76.56784,"population":382940,"iso_a3":"IND","country":"India","is_capital":false,"name_en":"Latur","name_es":"Latur","name_fr":"Latur","name_it":"Latur","name_ru":"Латур","elevation":638.0,"timezone":"Asia/Kolkata","admin1_name":"Maharashtra"},{"name":"Kukatpally","lat":17.48486,"lon":78.41376,"population":341709,"iso_a3":"IND","country":"India","is_capital":false,"name_en":"Kukatpally","name_es":"Kukatpally","name_fr":"Kukatpally","name_it":"Kukatpally","name_ru":"Kukatpally","elevation":566.0,"timezone":"Asia/Kolkata","admin1_name":"Telangana"},{"name":"Nizāmābād","lat":18.67154,"lon":78.0988,"population":311152,"iso_a3":"IND","country":"India","is_capital":false,"name_en":"Nizāmābād","name_es":"Nizāmābād","name_fr":"Nizāmābād","name_it":"Nizāmābād","name_ru":"Nizāmābād","elevation":389.0,"timezone":"Asia/Kolkata","admin1_name":"Telangana"},{"name":"Parbhani","lat":19.26855,"lon":76.77081,"population":307170,"iso_a3":"IND","country":"India","is_capital":false,"name_en":"Parbhani","name_es":"Parbhani","name_fr":"Parbhani","name_it":"Parbhani","name_ru":"Парбхани","elevation":421.0,"timezone":"Asia/Kolkata","admin1_name":"Maharashtra"},{"name":"Lal Bahadur Nagar","lat":17.34769,"lon":78.55757,"population":261987,"iso_a3":"IND","country":"India","is_capital":false,"name_en":"Lal Bahadur Nagar","name_es":"Lal Bahadur Nagar","name_fr":"Lal Bahadur Nagar","name_it":"Lal Bahadur Nagar","name_ru":"Lal Bahadur Nagar","elevation":511.0,"timezone":"Asia/Kolkata","admin1_name":"Telangana"},{"name":"Quthbullapur","lat":17.50107,"lon":78.45818,"population":225816,"iso_a3":"IND","country":"India","is_capital":false,"name_en":"Quthbullapur","name_es":"Quthbullapur","name_fr":"Quthbullapur","name_it":"Quthbullapur","name_ru":"Quthbullapur","elevation":554.0,"timezone":"Asia/Kolkata","admin1_name":"Telangana"},{"name":"Bidar","lat":17.90802,"lon":77.51524,"population":216020,"iso_a3":"IND","country":"India","is_capital":false,"name_en":"Bidar","name_es":"Bidar","name_fr":"Bidar","name_it":"Bidar","name_ru":"Бидар","elevation":672.0,"timezone":"Asia/Kolkata","admin1_name":"Karnataka"},{"name":"Secunderabad","lat":17.50427,"lon":78.54263,"population":204182,"iso_a3":"IND","country":"India","is_capital":false,"name_en":"Secunderabad","name_es":"Secunderabad","name_fr":"Secunderabad","name_it":"Secunderabad","name_ru":"Секундерабад","elevation":566.0,"timezone":"Asia/Kolkata","admin1_name":"Telangana"},{"name":"Mahbūbnagar","lat":16.74385,"lon":77.98597,"population":190400,"iso_a3":"IND","country":"India","is_capital":false,"name_en":"Mahbūbnagar","name_es":"Mahbūbnagar","name_fr":"Mahbūbnagar","name_it":"Mahbūbnagar","name_ru":"Mahbūbnagar","elevation":505.0,"timezone":"Asia/Kolkata","admin1_name":"Telangana"},{"name":"Serilingampalle","lat":17.49313,"lon":78.30196,"population":150525,"iso_a3":"IND","country":"India","is_capital":false,"name_en":"Serilingampalle","name_es":"Serilingampalle","name_fr":"Serilingampalle","name_it":"Serilingampalle","name_ru":"Serilingampalle","elevation":564.0,"timezone":"Asia/Kolkata","admin1_name":"Telangana"},{"name":"Malkajgiri","lat":17.44781,"lon":78.52633,"population":150000,"iso_a3":"IND","country":"India","is_capital":false,"name_en":"Malkajgiri","name_es":"Malkajgiri","name_fr":"Malkajgiri","name_it":"Malkajgiri","name_ru":"Malkajgiri","elevation":536.0,"timezone":"Asia/Kolkata","admin1_name":"Telangana"},{"name":"Uppal Kalan","lat":17.40577,"lon":78.55911,"population":118259,"iso_a3":"IND","country":"India","is_capital":false,"name_en":"Uppal Kalan","name_es":"Uppal Kalan","name_fr":"Uppal Kalan","name_it":"Uppal Kalan","name_ru":"Uppal Kalan","elevation":502.0,"timezone":"Asia/Kolkata","admin1_name":"Telangana"},{"name":"Dharashiv","lat":18.18158,"lon":76.03889,"population":112085,"iso_a3":"IND","country":"India","is_capital":false,"name_en":"Dharashiv","name_es":"Dharashiv","name_fr":"Dharashiv","name_it":"Dharashiv","name_ru":"Османабад","elevation":665.0,"timezone":"Asia/Kolkata","admin1_name":"Maharashtra"},{"name":"Udgīr","lat":18.39258,"lon":77.11756,"population":103550,"iso_a3":"IND","country":"India","is_capital":false,"name_en":"Udgīr","name_es":"Udgīr","name_fr":"Udgīr","name_it":"Udgīr","name_ru":"Udgīr","elevation":643.0,"timezone":"Asia/Kolkata","admin1_name":"Maharashtra"},{"name":"Parli Vaijnāth","lat":18.85057,"lon":76.53163,"population":94863,"iso_a3":"IND","country":"India","is_capital":false,"name_en":"Parli","name_es":"Parli","name_fr":"Parli","name_it":"Parli","name_ru":"Parli","elevation":463.0,"timezone":"Asia/Kolkata","admin1_name":"Maharashtra"},{"name":"Nirmal","lat":19.09685,"lon":78.34407,"population":88433,"iso_a3":"IND","country":"India","is_capital":false,"name_en":"Nirmal","name_es":"Nirmal","name_fr":"Nirmal","name_it":"Nirmal","name_ru":"Нирмала","elevation":338.0,"timezone":"Asia/Kolkata","admin1_name":"Telangana"},{"name":"Kāmāreddi","lat":18.32001,"lon":78.34177,"population":80315,"iso_a3":"IND","country":"India","is_capital":false,"name_en":"Kāmāreddi","name_es":"Kāmāreddi","name_fr":"Kāmāreddi","name_it":"Kāmāreddi","name_ru":"Kāmāreddi","elevation":523.0,"timezone":"Asia/Kolkata","admin1_name":"Telangana"},{"name":"Bodhan","lat":18.66208,"lon":77.88581,"population":77573,"iso_a3":"IND","country":"India","is_capital":false,"name_en":"Bodhan","name_es":"Bodhan","name_fr":"Bodhan","name_it":"Bodhan","name_ru":"Bodhan","elevation":375.0,"timezone":"Asia/Kolkata","admin1_name":"Telangana"},{"name":"Yadgir","lat":16.77007,"lon":77.13755,"population":74294,"iso_a3":"IND","country":"India","is_capital":false,"name_en":"Yadgir","name_es":"Yadgir","name_fr":"Yadgir","name_it":"Yadgir","name_ru":"Ядгир","elevation":379.0,"timezone":"Asia/Kolkata","admin1_name":"Karnataka"},{"name":"Ambājogāi","lat":18.73312,"lon":76.38616,"population":74114,"iso_a3":"IND","country":"India","is_capital":false,"name_en":"Ambajogai","name_es":"Ambajogai","name_fr":"Ambajogai","name_it":"Ambajogai","name_ru":"Ambajogai","elevation":633.0,"timezone":"Asia/Kolkata","admin1_name":"Maharashtra"},{"name":"Sangāreddi","lat":17.62477,"lon":78.08669,"population":72344,"iso_a3":"IND","country":"India","is_capital":false,"name_en":"Sangāreddi","name_es":"Sangāreddi","name_fr":"Sangāreddi","name_it":"Sangāreddi","name_ru":"Sangāreddi","elevation":514.0,"timezone":"Asia/Kolkata","admin1_name":"Telangana"},{"name":"Zahirābād","lat":17.68138,"lon":77.60743,"population":71166,"iso_a3":"IND","country":"India","is_capital":false,"name_en":"Zahirābād","name_es":"Zahirābād","name_fr":"Zahirābād","name_it":"Zahirābād","name_ru":"Zahirābād","elevation":626.0,"timezone":"Asia/Kolkata","admin1_name":"Telangana"},{"name":"Basavakalyan","lat":17.87445,"lon":76.94972,"population":69717,"iso_a3":"IND","country":"India","is_capital":false,"name_en":"Basavakalyan","name_es":"Basavakalyan","name_fr":"Basavakalyan","name_it":"Basavakalyan","name_ru":"Басавакальян","elevation":631.0,"timezone":"Asia/Kolkata","admin1_name":"Karnataka"},{"name":"Koratla","lat":18.82154,"lon":78.71186,"population":66504,"iso_a3":"IND","country":"India","is_capital":false,"name_en":"Koratla","name_es":"Koratla","name_fr":"Koratla","name_it":"Koratla","name_ru":"Koratla","elevation":301.0,"timezone":"Asia/Kolkata","admin1_name":"Telangana"},{"name":"Tandur","lat":17.24849,"lon":77.57698,"population":65115,"iso_a3":"IND","country":"India","is_capital":false,"name_en":"Tandur","name_es":"Tandur","name_fr":"Tandur","name_it":"Tandur","name_ru":"Tandur","elevation":452.0,"timezone":"Asia/Kolkata","admin1_name":"Telangana"},{"name":"Āmūr","lat":18.79284,"lon":78.27666,"population":64023,"iso_a3":"IND","country":"India","is_capital":false,"name_en":"Āmūr","name_es":"Āmūr","name_fr":"Āmūr","name_it":"Āmūr","name_ru":"Āmūr","elevation":382.0,"timezone":"Asia/Kolkata","admin1_name":"Telangana"},{"name":"Deglur","lat":18.54829,"lon":77.57695,"population":54493,"iso_a3":"IND","country":"India","is_capital":false,"name_en":"Deglur","name_es":"Deglur","name_fr":"Deglur","name_it":"Deglur","name_ru":"Деглур","elevation":383.0,"timezone":"Asia/Kolkata","admin1_name":"Maharashtra"},{"name":"Shāhpur","lat":16.69605,"lon":76.8422,"population":53366,"iso_a3":"IND","country":"India","is_capital":false,"name_en":"Shāhpur","name_es":"Shāhpur","name_fr":"Shāhpur","name_it":"Shāhpur","name_ru":"Шахпура","elevation":418.0,"timezone":"Asia/Kolkata","admin1_name":"Karnataka"},{"name":"Vikārābād","lat":17.3381,"lon":77.90441,"population":53143,"iso_a3":"IND","country":"India","is_capital":false,"name_en":"Vikārābād","name_es":"Vikārābād","name_fr":"Vikārābād","name_it":"Vikārābād","name_ru":"Vikārābād","elevation":638.0,"timezone":"Asia/Kolkata","admin1_name":"Telangana"},{"name":"Shāhābād","lat":17.1307,"lon":76.94361,"population":52952,"iso_a3":"IND","country":"India","is_capital":false,"name_en":"Shāhābād","name_es":"Shāhābād","name_fr":"Shāhābād","name_it":"Shāhābād","name_ru":"Shāhābād","elevation":394.0,"timezone":"Asia/Kolkata","admin1_name":"Karnataka"},{"name":"Metpalle","lat":18.84724,"lon":78.62563,"population":50902,"iso_a3":"IND","country":"India","is_capital":false,"name_en":"Metpalle","name_es":"Metpalle","name_fr":"Metpalle","name_it":"Metpalle","name_ru":"Metpalle","elevation":312.0,"timezone":"Asia/Kolkata","admin1_name":"Telangana"},{"name":"Gangākher","lat":18.96962,"lon":76.74946,"population":49891,"iso_a3":"IND","country":"India","is_capital":false,"name_en":"Gangākher","name_es":"Gangākher","name_fr":"Gangākher","name_it":"Gangākher","name_ru":"Gangākher","elevation":382.0,"timezone":"Asia/Kolkata","admin1_name":"Maharashtra"},{"name":"Bhaisa","lat":19.11285,"lon":77.96336,"population":49764,"iso_a3":"IND","country":"India","is_capital":false,"name_en":"Bhaisa","name_es":"Bhaisa","name_fr":"Bhaisa","name_it":"Bhaisa","name_ru":"Bhaisa","elevation":369.0,"timezone":"Asia/Kolkata","admin1_name":"Telangana"},{"name":"Majalgaon","lat":19.15513,"lon":76.20992,"population":49453,"iso_a3":"IND","country":"India","is_capital":false,"name_en":"Majalgaon","name_es":"Majalgaon","name_fr":"Majalgaon","name_it":"Majalgaon","name_ru":"Majalgaon","elevation":420.0,"timezone":"Asia/Kolkata","admin1_name":"Maharashtra"},{"name":"Sadasivpet","lat":17.61925,"lon":77.95263,"population":47920,"iso_a3":"IND","country":"India","is_capital":false,"name_en":"Sadasivpet","name_es":"Sadasivpet","name_fr":"Sadasivpet","name_it":"Sadasivpet","name_ru":"Sadasivpet","elevation":550.0,"timezone":"Asia/Kolkata","admin1_name":"Telangana"},{"name":"Medak","lat":18.04531,"lon":78.26078,"population":46880,"iso_a3":"IND","country":"India","is_capital":false,"name_en":"Medak","name_es":"Medak","name_fr":"Medak","name_it":"Medak","name_ru":"Медак","elevation":474.0,"timezone":"Asia/Kolkata","admin1_name":"Telangana"},{"name":"Patancheru","lat":17.53334,"lon":78.2645,"population":46821,"iso_a3":"IND","country":"India","is_capital":false,"name_en":"Patancheru","name_es":"Patancheru","name_fr":"Patancheru","name_it":"Patancheru","name_ru":"Patancheru","elevation":540.0,"timezone":"Asia/Kolkata","admin1_name":"Telangana"},{"name":"Farrukhnagar","lat":17.07787,"lon":78.20339,"population":45675,"iso_a3":"IND","country":"India","is_capital":false,"name_en":"Farrukhnagar","name_es":"Farrukhnagar","name_fr":"Farrukhnagar","name_it":"Farrukhnagar","name_ru":"Farrukhnagar","elevation":647.0,"timezone":"Asia/Kolkata","admin1_name":"Telangana"},{"name":"Homnābād","lat":17.77074,"lon":77.12519,"population":44483,"iso_a3":"IND","country":"India","is_capital":false,"name_en":"Homnābād","name_es":"Homnābād","name_fr":"Homnābād","name_it":"Homnābād","name_ru":"Homnābād","elevation":641.0,"timezone":"Asia/Kolkata","admin1_name":"Karnataka"},{"name":"Ahmadpur","lat":18.70622,"lon":76.93731,"population":43936,"iso_a3":"IND","country":"India","is_capital":false,"name_en":"Ahmadpur","name_es":"Ahmadpur","name_fr":"Ahmadpur","name_it":"Ahmadpur","name_ru":"Ahmadpur","elevation":526.0,"timezone":"Asia/Kolkata","admin1_name":"Maharashtra"},{"name":"Aland","lat":17.56425,"lon":76.56854,"population":42371,"iso_a3":"IND","country":"India","is_capital":false,"name_en":"Aland","name_es":"Aland","name_fr":"Aland","name_it":"Aland","name_ru":"Аланд","elevation":499.0,"timezone":"Asia/Kolkata","admin1_name":"Karnataka"},{"name":"Nārāyanpet","lat":16.74799,"lon":77.4954,"population":41752,"iso_a3":"IND","country":"India","is_capital":false,"name_en":"Nārāyanpet","name_es":"Nārāyanpet","name_fr":"Nārāyanpet","name_it":"Nārāyanpet","name_ru":"Nārāyanpet","elevation":443.0,"timezone":"Asia/Kolkata","admin1_name":"Telangana"},{"name":"Bhālki","lat":18.04348,"lon":77.206,"population":40333,"iso_a3":"IND","country":"India","is_capital":false,"name_en":"Bhālki","name_es":"Bhālki","name_fr":"Bhālki","name_it":"Bhālki","name_ru":"Bhālki","elevation":583.0,"timezone":"Asia/Kolkata","admin1_name":"Karnataka"},{"name":"Akalkot","lat":17.52532,"lon":76.20611,"population":40103,"iso_a3":"IND","country":"India","is_capital":false,"name_en":"Akalkot","name_es":"Akalkot","name_fr":"Akalkot","name_it":"Akalkot","name_ru":"Akalkot","elevation":471.0,"timezone":"Asia/Kolkata","admin1_name":"Maharashtra"},{"name":"Sedam","lat":17.17859,"lon":77.28998,"population":39341,"iso_a3":"IND","country":"India","is_capital":false,"name_en":"Sedam","name_es":"Sedam","name_fr":"Sedam","name_it":"Sedam","name_ru":"Серам","elevation":425.0,"timezone":"Asia/Kolkata","admin1_name":"Karnataka"},{"name":"Indi","lat":17.17735,"lon":75.9526,"population":38217,"iso_a3":"IND","country":"India","is_capital":false,"name_en":"Indi","name_es":"Indi","name_fr":"Indi","name_it":"Indi","name_ru":"Indi","elevation":466.0,"timezone":"Asia/Kolkata","admin1_name":"Karnataka"},{"name":"Wādi","lat":17.05183,"lon":76.99048,"population":37988,"iso_a3":"IND","country":"India","is_capital":false,"name_en":"Wādi","name_es":"Wādi","name_fr":"Wādi","name_it":"Wādi","name_ru":"Вади","elevation":431.0,"timezone":"Asia/Kolkata","admin1_name":"Karnataka"},{"name":"Pāthri","lat":19.2588,"lon":76.43412,"population":37648,"iso_a3":"IND","country":"India","is_capital":false,"name_en":"Pāthri","name_es":"Pāthri","name_fr":"Pāthri","name_it":"Pāthri","name_ru":"Патри","elevation":432.0,"timezone":"Asia/Kolkata","admin1_name":"Maharashtra"},{"name":"Sindgi","lat":16.91883,"lon":76.23368,"population":37226,"iso_a3":"IND","country":"India","is_capital":false,"name_en":"Sindgi","name_es":"Sindgi","name_fr":"Sindgi","name_it":"Sindgi","name_ru":"Sindgi","elevation":503.0,"timezone":"Asia/Kolkata","admin1_name":"Karnataka"},{"name":"Pūrna","lat":19.1817,"lon":77.02566,"population":36433,"iso_a3":"IND","country":"India","is_capital":false,"name_en":"Pūrna","name_es":"Pūrna","name_fr":"Pūrna","name_it":"Pūrna","name_ru":"Пурна","elevation":381.0,"timezone":"Asia/Kolkata","admin1_name":"Maharashtra"},{"name":"Nilanga","lat":18.11675,"lon":76.75279,"population":36172,"iso_a3":"IND","country":"India","is_capital":false,"name_en":"Nilanga","name_es":"Nilanga","name_fr":"Nilanga","name_it":"Nilanga","name_ru":"Ниланга","elevation":607.0,"timezone":"Asia/Kolkata","admin1_name":"Maharashtra"},{"name":"Ausa","lat":18.24728,"lon":76.4993,"population":36118,"iso_a3":"IND","country":"India","is_capital":false,"name_en":"Ausa","name_es":"Ausa","name_fr":"Ausa","name_it":"Ausa","name_ru":"Ауса","elevation":637.0,"timezone":"Asia/Kolkata","admin1_name":"Maharashtra"},{"name":"Medchal","lat":17.62972,"lon":78.48139,"population":35611,"iso_a3":"IND","country":"India","is_capital":false,"name_en":"Medchal","name_es":"Medchal","name_fr":"Medchal","name_it":"Medchal","name_ru":"Medchal","elevation":591.0,"timezone":"Asia/Kolkata","admin1_name":"Telangana"},{"name":"Tuljāpur","lat":18.00804,"lon":76.07011,"population":35596,"iso_a3":"IND","country":"India","is_capital":false,"name_en":"Tuljāpur","name_es":"Tuljāpur","name_fr":"Tuljāpur","name_it":"Tuljāpur","name_ru":"Tuljāpur","elevation":647.0,"timezone":"Asia/Kolkata","admin1_name":"Maharashtra"},{"name":"Umarga","lat":17.83841,"lon":76.62331,"population":35477,"iso_a3":"IND","country":"India","is_capital":false,"name_en":"Umarga","name_es":"Umarga","name_fr":"Umarga","name_it":"Umarga","name_ru":"Умарга","elevation":580.0,"timezone":"Asia/Kolkata","admin1_name":"Maharashtra"},{"name":"Bolārum","lat":17.55606,"lon":78.34824,"population":34667,"iso_a3":"IND","country":"India","is_capital":false,"name_en":"Bolārum","name_es":"Bolārum","name_fr":"Bolārum","name_it":"Bolārum","name_ru":"Bolārum","elevation":574.0,"timezone":"Asia/Kolkata","admin1_name":"Telangana"},{"name":"Dharmābād","lat":18.89116,"lon":77.8494,"population":33741,"iso_a3":"IND","country":"India","is_capital":false,"name_en":"Dharmābād","name_es":"Dharmābād","name_fr":"Dharmābād","name_it":"Dharmābād","name_ru":"Dharmābād","elevation":360.0,"timezone":"Asia/Kolkata","admin1_name":"Maharashtra"},{"name":"Bhokar","lat":19.21933,"lon":77.66962,"population":32899,"iso_a3":"IND","country":"India","is_capital":false,"name_en":"Bhokar","name_es":"Bhokar","name_fr":"Bhokar","name_it":"Bhokar","name_ru":"Бхокар","elevation":469.0,"timezone":"Asia/Kolkata","admin1_name":"Maharashtra"},{"name":"Bādepalli","lat":16.7549,"lon":78.14427,"population":32598,"iso_a3":"IND","country":"India","is_capital":false,"name_en":"Bādepalli","name_es":"Bādepalli","name_fr":"Bādepalli","name_it":"Bādepalli","name_ru":"Bādepalli","elevation":542.0,"timezone":"Asia/Kolkata","admin1_name":"Telangana"},{"name":"Shamshabad","lat":17.25186,"lon":78.41835,"population":32583,"iso_a3":"IND","country":"India","is_capital":false,"name_en":"Shamshabad","name_es":"Shamshabad","name_fr":"Shamshabad","name_it":"Shamshabad","name_ru":"Shamshabad","elevation":611.0,"timezone":"Asia/Kolkata","admin1_name":"Telangana"},{"name":"Manwath","lat":19.30133,"lon":76.49735,"population":32488,"iso_a3":"IND","country":"India","is_capital":false,"name_en":"Manwath","name_es":"Manwath","name_fr":"Manwath","name_it":"Manwath","name_ru":"Manwath","elevation":440.0,"timezone":"Asia/Kolkata","admin1_name":"Maharashtra"},{"name":"Chītāpur","lat":17.12357,"lon":77.0824,"population":31299,"iso_a3":"IND","country":"India","is_capital":false,"name_en":"Chītāpur","name_es":"Chītāpur","name_fr":"Chītāpur","name_it":"Chītāpur","name_ru":"Chītāpur","elevation":411.0,"timezone":"Asia/Kolkata","admin1_name":"Karnataka"},{"name":"Kaij","lat":18.71364,"lon":76.06718,"population":30704,"iso_a3":"IND","country":"India","is_capital":false,"name_en":"Kaij","name_es":"Kaij","name_fr":"Kaij","name_it":"Kaij","name_ru":"Kaij","elevation":680.0,"timezone":"Asia/Kolkata","admin1_name":"Maharashtra"},{"name":"Nāgāvaram","lat":17.48862,"lon":78.60208,"population":30502,"iso_a3":"IND","country":"India","is_capital":false,"name_en":"Nāgāvaram","name_es":"Nāgāvaram","name_fr":"Nāgāvaram","name_it":"Nāgāvaram","name_ru":"Nāgāvaram","elevation":528.0,"timezone":"Asia/Kolkata","admin1_name":"Telangana"}]