[{"name":"Sahāranpur","lat":29.9679,"lon":77.54522,"population":484873,"iso_a3":"IND","country":"India","is_capital":false,"name_en":"Sahāranpur","name_es":"Sahāranpur","name_fr":"Sahāranpur","name_it":"Sahāranpur","name_ru":"Sahāranpur","elevation":280.0,"timezone":"Asia/Kolkata","admin1_name":"Uttar Pradesh"},{"name":"Patiāla","lat":30.33625,"lon":76.3922,"population":446246,"iso_a3":"IND","country":"India","is_capital":false,"name_en":"Patiāla","name_es":"Patiāla","name_fr":"Patiāla","name_it":"Patiāla","name_ru":"Патьяла","elevation":258.0,"timezone":"Asia/Kolkata","admin1_name":"Punjab"},{"name":"Karnāl","lat":29.69197,"lon":76.98448,"population":302140,"iso_a3":"IND","country":"India","is_capital":false,"name_en":"Karnāl","name_es":"Karnāl","name_fr":"Karnāl","name_it":"Karnāl","name_ru":"Карнал","elevation":255.0,"timezone":"Asia/Kolkata","admin1_name":"Haryana"},{"name":"Yamuna Nagar","lat":30.12796,"lon":77.28371,"population":217071,"iso_a3":"IND","country":"India","is_capital":false,"name_en":"Yamunanagar","name_es":"Yamunanagar","name_fr":"Yamunanagar","name_it":"Yamunanagar","name_ru":"Yamunanagar","elevation":278.0,"timezone":"Asia/Kolkata","admin1_name":"Haryana"},{"name":"Panchkula","lat":30.69461,"lon":76.8504,"population":211355,"iso_a3":"IND","country":"India","is_capital":false,"name_en":"Panchkula","name_es":"Panchkula","name_fr":"Panchkula","name_it":"Panchkula","name_ru":"Панчкула","elevation":335.0,"timezone":"Asia/Kolkata","admin1_name":"Haryana"},{"name":"Ambāla","lat":30.36099,"lon":76.79782,"population":195153,"iso_a3":"IND","country":"India","is_capital":false,"name_en":"Ambāla","name_es":"Ambāla","name_fr":"Ambāla","name_it":"Ambāla","name_ru":"Ambāla","elevation":276.0,"timezone":"Asia/Kolkata","admin1_name":"Haryana"},{"name":"Haridwar","lat":29.94791,"lon":78.16025,"population":186079,"iso_a3":"IND","country":"India","is_capital":false,"name_en":"Haridwar","name_es":"Haridwar","name_fr":"Haridwar","name_it":"Haridwar","name_ru":"Харидвар","elevation":295.0,"timezone":"Asia/Kolkata","admin1_name":"Uttarakhand"},{"name":"Shimla","lat":31.10442,"lon":77.16662,"population":173503,"iso_a3":"IND","country":"India","is_capital":false,"name_en":"Shimla","name_es":"Shimla","name_fr":"Shimla","name_it":"Shimla","name_ru":"Шимла","elevation":2073.0,"timezone":"Asia/Kolkata","admin1_name":"Himachal Pradesh"},{"name":"Mohali","lat":30.67995,"lon":76.72211,"population":166864,"iso_a3":"IND","country":"India","is_capital":false,"name_en":"Mohali","name_es":"Mohali","name_fr":"Mohali","name_it":"Mohali","name_ru":"Mohali","elevation":312.0,"timezone":"Asia/Kolkata","admin1_name":"Punjab"},{"name":"Thānesar","lat":29.97323,"lon":76.83214,"population":155152,"iso_a3":"IND","country":"India","is_capital":false,"name_en":"Thānesar","name_es":"Thānesar","name_fr":"Thānesar","name_it":"Thānesar","name_ru":"Thānesar","elevation":260.0,"timezone":"Asia/Kolkata","admin1_name":"Haryana"},{"name":"Kaithal","lat":29.80153,"lon":76.39959,"population":144915,"iso_a3":"IND","country":"India","is_capital":false,"name_en":"Kaithal","name_es":"Kaithal","name_fr":"Kaithal","name_it":"Kaithal","name_ru":"Кайтхал","elevation":232.0,"timezone":"Asia/Kolkata","admin1_name":"Haryana"},{"name":"Khanna","lat":30.70547,"lon":76.22196,"population":128137,"iso_a3":"IND","country":"India","is_capital":false,"name_en":"Khanna","name_es":"Khanna","name_fr":"Khanna","name_it":"Khanna","name_ru":"Ханна","elevation":269.0,"timezone":"Asia/Kolkata","admin1_name":"Punjab"},{"name":"Ambala Sadar","lat":30.33544,"lon":76.86265,"population":104974,"iso_a3":"IND","country":"India","is_capital":false,"name_en":"Ambala Sadar","name_es":"Ambala Sadar","name_fr":"Ambala Sadar","name_it":"Ambala Sadar","name_ru":"Ambala Sadar","elevation":265.0,"timezone":"Asia/Kolkata","admin1_name":"Haryana"},{"name":"Roorkee","lat":29.86632,"lon":77.89118,"population":103894,"iso_a3":"IND","country":"India","is_capital":false,"name_en":"Roorkee","name_es":"Roorkee","name_fr":"Roorkee","name_it":"Roorkee","name_ru":"Рурки","elevation":268.0,"timezone":"Asia/Kolkata","admin1_name":"Uttarakhand"},{"name":"Zerakpur","lat":30.65622,"lon":76.82093,"population":95553,"iso_a3":"IND","country":"India","is_capital":false,"name_en":"Zerakpur","name_es":"Zerakpur","name_fr":"Zerakpur","name_it":"Zerakpur","name_ru":"Zerakpur","elevation":310.0,"timezone":"Asia/Kolkata","admin1_name":"Punjab"},{"name":"Rajpura","lat":30.47856,"lon":76.59284,"population":92301,"iso_a3":"IND","country":"India","is_capital":false,"name_en":"Rajpura","name_es":"Rajpura","name_fr":"Rajpura","name_it":"Rajpura","name_ru":"Rajpura","elevation":273.0,"timezone":"Asia/Kolkata","admin1_name":"Punjab"},{"name":"Deoband","lat":29.69505,"lon":77.67964,"population":88171,"iso_a3":"IND","country":"India","is_capital":false,"name_en":"Deoband","name_es":"Deoband","name_fr":"Deoband","name_it":"Deoband","name_ru":"Деобанде","elevation":263.0,"timezone":"Asia/Kolkata","admin1_name":"Uttar Pradesh"},{"name":"Najībābād","lat":29.61194,"lon":78.34274,"population":84006,"iso_a3":"IND","country":"India","is_capital":false,"name_en":"Najībābād","name_es":"Najībābād","name_fr":"Najībābād","name_it":"Najībābād","name_ru":"Najībābād","elevation":273.0,"timezone":"Asia/Kolkata","admin1_name":"Uttar Pradesh"},{"name":"Gobindgarh","lat":30.67089,"lon":76.30192,"population":82266,"iso_a3":"IND","country":"India","is_capital":false,"name_en":"Gobindgarh","name_es":"Gobindgarh","name_fr":"Gobindgarh","name_it":"Gobindgarh","name_ru":"Gobindgarh","elevation":268.0,"timezone":"Asia/Kolkata","admin1_name":"Punjab"},{"name":"Kharar","lat":30.74632,"lon":76.64689,"population":74460,"iso_a3":"IND","country":"India","is_capital":false,"name_en":"Kharar","name_es":"Kharar","name_fr":"Kharar","name_it":"Kharar","name_ru":"Кхарар","elevation":313.0,"timezone":"Asia/Kolkata","admin1_name":"Punjab"},{"name":"Nābha","lat":30.37577,"lon":76.15292,"population":67972,"iso_a3":"IND","country":"India","is_capital":false,"name_en":"Nābha","name_es":"Nābha","name_fr":"Nābha","name_it":"Nābha","name_ru":"Nābha","elevation":256.0,"timezone":"Asia/Kolkata","admin1_name":"Punjab"},{"name":"Rishīkesh","lat":30.10778,"lon":78.29255,"population":66390,"iso_a3":"IND","country":"India","is_capital":false,"name_en":"Rishikesh","name_es":"Rishikesh","name_fr":"Rishikesh","name_it":"Rishikesh","name_ru":"Ришикеш","elevation":361.0,"timezone":"Asia/Kolkata","admin1_name":"Uttarakhand"},{"name":"Narwāna","lat":29.59903,"lon":76.11927,"population":62090,"iso_a3":"IND","country":"India","is_capital":false,"name_en":"Narwāna","name_es":"Narwāna","name_fr":"Narwāna","name_it":"Narwāna","name_ru":"Narwāna","elevation":235.0,"timezone":"Asia/Kolkata","admin1_name":"Haryana"},{"name":"Sirhind","lat":30.64321,"lon":76.38421,"population":60847,"iso_a3":"IND","country":"India","is_capital":false,"name_en":"Sirhind","name_es":"Sirhind","name_fr":"Sirhind","name_it":"Sirhind","name_ru":"Sirhind","elevation":270.0,"timezone":"Asia/Kolkata","admin1_name":"Punjab"},{"name":"Gangoh","lat":29.78004,"lon":77.26346,"population":59519,"iso_a3":"IND","country":"India","is_capital":false,"name_en":"Gangoh","name_es":"Gangoh","name_fr":"Gangoh","name_it":"Gangoh","name_ru":"Gangoh","elevation":268.0,"timezone":"Asia/Kolkata","admin1_name":"Uttar Pradesh"},{"name":"Ropar","lat":30.96896,"lon":76.52695,"population":56038,"iso_a3":"IND","country":"India","is_capital":false,"name_en":"Ropar","name_es":"Ropar","name_fr":"Ropar","name_it":"Ropar","name_ru":"Ropar","elevation":287.0,"timezone":"Asia/Kolkata","admin1_name":"Punjab"},{"name":"Samāna","lat":30.15395,"lon":76.19851,"population":54072,"iso_a3":"IND","country":"India","is_capital":false,"name_en":"Samāna","name_es":"Samāna","name_fr":"Samāna","name_it":"Samāna","name_ru":"Samāna","elevation":241.0,"annual_mean_temp":23.7,"annual_precipitation":781.0,"sunshine_hours_yr":3869.0,"timezone":"Asia/Kolkata","admin1_name":"Punjab"},{"name":"Nangal","lat":31.38966,"lon":76.37574,"population":48497,"iso_a3":"IND","country":"India","is_capital":false,"name_en":"Nangal","name_es":"Nangal","name_fr":"Nangal","name_it":"Nangal","name_ru":"Нангал","elevation":364.0,"timezone":"Asia/Kolkata","admin1_name":"Punjab"},{"name":"Manglaur","lat":29.79094,"lon":77.87836,"population":46395,"iso_a3":"IND","country":"India","is_capital":false,"name_en":"Manglaur","name_es":"Manglaur","name_fr":"Manglaur","name_it":"Manglaur","name_ru":"Manglaur","elevation":268.0,"timezone":"Asia/Kolkata","admin1_name":"Uttarakhand"},{"name":"Nawanshahr","lat":31.1245,"lon":76.11613,"population":46024,"iso_a3":"IND","country":"India","is_capital":false,"name_en":"Nawanshahr","name_es":"Nawanshahr","name_fr":"Nawanshahr","name_it":"Nawanshahr","name_ru":"Nawanshahr","elevation":264.0,"timezone":"Asia/Kolkata","admin1_name":"Punjab"},{"name":"Shāhābād","lat":30.16776,"lon":76.87046,"population":42607,"iso_a3":"IND","country":"India","is_capital":false,"name_en":"Shāhābād","name_es":"Shāhābād","name_fr":"Shāhābād","name_it":"Shāhābād","name_ru":"Shāhābād","elevation":268.0,"timezone":"Asia/Kolkata","admin1_name":"Haryana"},{"name":"Solan","lat":30.90908,"lon":77.10869,"population":40283,"iso_a3":"IND","country":"India","is_capital":false,"name_en":"Solan","name_es":"Solan","name_fr":"Solan","name_it":"Solan","name_ru":"Солана","elevation":1509.0,"timezone":"Asia/Kolkata","admin1_name":"Himachal Pradesh"},{"name":"Pehowa","lat":29.97897,"lon":76.58249,"population":39101,"iso_a3":"IND","country":"India","is_capital":false,"name_en":"Pehowa","name_es":"Pehowa","name_fr":"Pehowa","name_it":"Pehowa","name_ru":"Пехова","elevation":261.0,"timezone":"Asia/Kolkata","admin1_name":"Haryana"},{"name":"Chīka","lat":30.04891,"lon":76.343,"population":38952,"iso_a3":"IND","country":"India","is_capital":false,"name_en":"Chīka","name_es":"Chīka","name_fr":"Chīka","name_it":"Chīka","name_ru":"Chīka","elevation":243.0,"timezone":"Asia/Kolkata","admin1_name":"Haryana"},{"name":"Gharaunda","lat":29.53692,"lon":76.97142,"population":37816,"iso_a3":"IND","country":"India","is_capital":false,"name_en":"Gharaunda","name_es":"Gharaunda","name_fr":"Gharaunda","name_it":"Gharaunda","name_ru":"Gharaunda","elevation":243.0,"timezone":"Asia/Kolkata","admin1_name":"Haryana"},{"name":"Pinjaur","lat":30.79873,"lon":76.91822,"population":35912,"iso_a3":"IND","country":"India","is_capital":false,"name_en":"Pinjaur","name_es":"Pinjaur","name_fr":"Pinjaur","name_it":"Pinjaur","name_ru":"Pinjaur","elevation":558.0,"timezone":"Asia/Kolkata","admin1_name":"Haryana"},{"name":"Kālka","lat":30.83982,"lon":76.94065,"population":34134,"iso_a3":"IND","country":"India","is_capital":false,"name_en":"Kālka","name_es":"Kālka","name_fr":"Kālka","name_it":"Kālka","name_ru":"Калки","elevation":703.0,"timezone":"Asia/Kolkata","admin1_name":"Himachal Pradesh"},{"name":"Thāna Bhawan","lat":29.58605,"lon":77.41811,"population":33498,"iso_a3":"IND","country":"India","is_capital":false,"name_en":"Thāna Bhawan","name_es":"Thāna Bhawan","name_fr":"Thāna Bhawan","name_it":"Thāna Bhawan","name_ru":"Thāna Bhawan","elevation":253.0,"timezone":"Asia/Kolkata","admin1_name":"Uttar Pradesh"},{"name":"Pūndri","lat":29.76096,"lon":76.56034,"population":33484,"iso_a3":"IND","country":"India","is_capital":false,"name_en":"Pūndri","name_es":"Pūndri","name_fr":"Pūndri","name_it":"Pūndri","name_ru":"Pūndri","elevation":249.0,"timezone":"Asia/Kolkata","admin1_name":"Haryana"},{"name":"Kūrāli","lat":30.83424,"lon":76.57677,"population":31060,"iso_a3":"IND","country":"India","is_capital":false,"name_en":"Kūrāli","name_es":"Kūrāli","name_fr":"Kūrāli","name_it":"Kūrāli","name_ru":"Kūrāli","elevation":302.0,"timezone":"Asia/Kolkata","admin1_name":"Punjab"}]