[{"name":"Huocheng","lat":44.05305,"lon":80.87173,"population":360000,"iso_a3":"CHN","country":"China","is_capital":false,"name_en":"Huocheng","name_es":"Huocheng","name_fr":"Huocheng","name_it":"Huocheng","name_ru":"Huocheng","elevation":639.0,"timezone":"Asia/Urumqi","admin1_name":"Xinjiang"},{"name":"Ghulja","lat":43.91515,"lon":81.32151,"population":269158,"iso_a3":"CHN","country":"China","is_capital":false,"name_en":"Yining","name_es":"Yining","name_fr":"Yining","name_it":"Yining","name_ru":"Yining","elevation":639.0,"timezone":"Asia/Urumqi","admin1_name":"Xinjiang"},{"name":"Qarasu","lat":44.20276,"lon":80.41639,"population":71446,"iso_a3":"CHN","country":"China","is_capital":false,"name_en":"Qarasu","name_es":"Qarasu","name_fr":"Qarasu","name_it":"Qarasu","name_ru":"Qarasu","elevation":789.0,"timezone":"Asia/Urumqi","admin1_name":"Xinjiang"},{"name":"Jelilyüzi","lat":43.9749,"lon":81.53555,"population":37238,"iso_a3":"CHN","country":"China","is_capital":false,"name_en":"Jelilyüzi","name_es":"Jelilyüzi","name_fr":"Jelilyüzi","name_it":"Jelilyüzi","name_ru":"Jelilyüzi","elevation":783.0,"timezone":"Asia/Urumqi","admin1_name":"Xinjiang"},{"name":"Zharkent","lat":44.16619,"lon":80.00736,"population":34422,"iso_a3":"KAZ","country":"Kazakhstan","is_capital":false,"name_en":"Zharkent","name_es":"Zharkent","name_fr":"Zharkent","name_it":"Zharkent","name_ru":"Жаркент","elevation":636.0,"timezone":"Asia/Almaty","admin1_name":"Jetisu Region"}]