[{"name":"Vellore","lat":12.9184,"lon":79.13255,"population":484690,"iso_a3":"IND","country":"India","is_capital":false,"name_en":"Vellore","name_es":"Vellore","name_fr":"Vellore","name_it":"Vellore","name_ru":"Веллор","elevation":218.0,"timezone":"Asia/Kolkata","admin1_name":"Tamil Nadu"},{"name":"Ambattur","lat":13.09818,"lon":80.16152,"population":466205,"iso_a3":"IND","country":"India","is_capital":false,"name_en":"Ambattur","name_es":"Ambattur","name_fr":"Ambattur","name_it":"Ambattur","name_ru":"Ambattur","elevation":18.0,"timezone":"Asia/Kolkata","admin1_name":"Tamil Nadu"},{"name":"Avadi","lat":13.1147,"lon":80.10981,"population":345996,"iso_a3":"IND","country":"India","is_capital":false,"name_en":"Avadi","name_es":"Avadi","name_fr":"Avadi","name_it":"Avadi","name_ru":"Авади","elevation":29.0,"timezone":"Asia/Kolkata","admin1_name":"Tamil Nadu"},{"name":"Tirupati","lat":13.63551,"lon":79.41989,"population":295323,"iso_a3":"IND","country":"India","is_capital":false,"name_en":"Tirupati","name_es":"Tirupati","name_fr":"Tirupati","name_it":"Tirupati","name_ru":"Тирупати","elevation":156.0,"timezone":"Asia/Kolkata","admin1_name":"Andhra Pradesh"},{"name":"Rānipet","lat":12.92471,"lon":79.33331,"population":264330,"iso_a3":"IND","country":"India","is_capital":false,"name_en":"Ranipet","name_es":"Ranipet","name_fr":"Ranipet","name_it":"Ranipet","name_ru":"Ranipet","elevation":171.0,"timezone":"Asia/Kolkata","admin1_name":"Tamil Nadu"},{"name":"Tiruvottiyūr","lat":13.15823,"lon":80.30181,"population":249446,"iso_a3":"IND","country":"India","is_capital":false,"name_en":"Tiruvottiyūr","name_es":"Tiruvottiyūr","name_fr":"Tiruvottiyūr","name_it":"Tiruvottiyūr","name_ru":"Tiruvottiyūr","elevation":9.0,"timezone":"Asia/Kolkata","admin1_name":"Tamil Nadu"},{"name":"Pallāvaram","lat":12.96796,"lon":80.15025,"population":233984,"iso_a3":"IND","country":"India","is_capital":false,"name_en":"Pallāvaram","name_es":"Pallāvaram","name_fr":"Pallāvaram","name_it":"Pallāvaram","name_ru":"Pallāvaram","elevation":25.0,"timezone":"Asia/Kolkata","admin1_name":"Tamil Nadu"},{"name":"Kanchipuram","lat":12.83515,"lon":79.70006,"population":221715,"iso_a3":"IND","country":"India","is_capital":false,"name_en":"Kanchipuram","name_es":"Kanchipuram","name_fr":"Kanchipuram","name_it":"Kanchipuram","name_ru":"Канчипурам","elevation":85.0,"timezone":"Asia/Kolkata","admin1_name":"Tamil Nadu"},{"name":"Neyveli","lat":11.60877,"lon":79.4994,"population":179150,"iso_a3":"IND","country":"India","is_capital":false,"name_en":"Neyveli","name_es":"Neyveli","name_fr":"Neyveli","name_it":"Neyveli","name_ru":"Neyveli","elevation":67.0,"timezone":"Asia/Kolkata","admin1_name":"Tamil Nadu"},{"name":"Tambaram","lat":12.9246,"lon":80.12707,"population":174787,"iso_a3":"IND","country":"India","is_capital":false,"name_en":"Tambaram","name_es":"Tambaram","name_fr":"Tambaram","name_it":"Tambaram","name_ru":"Tambaram","elevation":33.0,"timezone":"Asia/Kolkata","admin1_name":"Tamil Nadu"},{"name":"Cuddalore","lat":11.75617,"lon":79.76693,"population":173636,"iso_a3":"IND","country":"India","is_capital":false,"name_en":"Cuddalore","name_es":"Cuddalore","name_fr":"Gondelour","name_it":"Cuddalore","name_ru":"Куддалоре","elevation":13.0,"timezone":"Asia/Kolkata","admin1_name":"Tamil Nadu"},{"name":"Chittoor","lat":13.21055,"lon":79.0956,"population":160722,"iso_a3":"IND","country":"India","is_capital":false,"name_en":"Chittoor","name_es":"Chittoor","name_fr":"Chittoor","name_it":"Chittoor","name_ru":"Читтур","elevation":334.0,"timezone":"Asia/Kolkata","admin1_name":"Andhra Pradesh"},{"name":"Tiruvannamalai","lat":12.22662,"lon":79.07461,"population":145278,"iso_a3":"IND","country":"India","is_capital":false,"name_en":"Tiruvannamalai","name_es":"Tiruvannamalai","name_fr":"Tiruvannamalai","name_it":"Tiruvannamalai","name_ru":"Тируваннамалай","elevation":174.0,"timezone":"Asia/Kolkata","admin1_name":"Tamil Nadu"},{"name":"Madhavaram","lat":13.14819,"lon":80.2314,"population":119105,"iso_a3":"IND","country":"India","is_capital":false,"name_en":"Madhavaram","name_es":"Madavaram","name_fr":"Madhavaram","name_it":"Madavaram","name_ru":"Мадхаварам","elevation":10.0,"timezone":"Asia/Kolkata","admin1_name":"Tamil Nadu"},{"name":"Villupuram","lat":11.93975,"lon":79.49244,"population":97380,"iso_a3":"IND","country":"India","is_capital":false,"name_en":"Villupuram","name_es":"Villupuram","name_fr":"Villupuram","name_it":"Villupuram","name_ru":"Villupuram","elevation":50.0,"timezone":"Asia/Kolkata","admin1_name":"Tamil Nadu"},{"name":"Gudiyatham","lat":12.94601,"lon":78.87377,"population":93973,"iso_a3":"IND","country":"India","is_capital":false,"name_en":"Gudiyatham","name_es":"Gudiyatham","name_fr":"Gudiyatham","name_it":"Gudiyatham","name_ru":"Gudiyatham","elevation":280.0,"timezone":"Asia/Kolkata","admin1_name":"Tamil Nadu"},{"name":"Maraimalainagar","lat":12.79782,"lon":80.02502,"population":81872,"iso_a3":"IND","country":"India","is_capital":false,"name_en":"Maraimalainagar","name_es":"Maraimalainagar","name_fr":"Maraimalainagar","name_it":"Maraimalainagar","name_ru":"Maraimalainagar","elevation":54.0,"timezone":"Asia/Kolkata","admin1_name":"Tamil Nadu"},{"name":"Srikalahasti","lat":13.75514,"lon":79.70143,"population":80056,"iso_a3":"IND","country":"India","is_capital":false,"name_en":"Srikalahasti","name_es":"Srikalahasti","name_fr":"Srikalahasti","name_it":"Srikalahasti","name_ru":"Калахасти","elevation":77.0,"timezone":"Asia/Kolkata","admin1_name":"Andhra Pradesh"},{"name":"Arakkonam","lat":13.08449,"lon":79.67053,"population":79080,"iso_a3":"IND","country":"India","is_capital":false,"name_en":"Arakkonam","name_es":"Arakkonam","name_fr":"Arakkonam","name_it":"Arakkonam","name_ru":"Arakkonam","elevation":90.0,"timezone":"Asia/Kolkata","admin1_name":"Tamil Nadu"},{"name":"Neelankarai","lat":12.9495,"lon":80.2592,"population":76600,"iso_a3":"IND","country":"India","is_capital":false,"name_en":"Neelankarai","name_es":"Neelankarai","name_fr":"Neelankarai","name_it":"Neelankarai","name_ru":"Ниланкарай","elevation":5.0,"timezone":"Asia/Kolkata","admin1_name":"Tamil Nadu"},{"name":"Virudhachalam","lat":11.51497,"lon":79.32824,"population":73585,"iso_a3":"IND","country":"India","is_capital":false,"name_en":"Virudhachalam","name_es":"Virudhachalam","name_fr":"Virudhachalam","name_it":"Virudhachalam","name_ru":"Virudhachalam","elevation":41.0,"timezone":"Asia/Kolkata","admin1_name":"Tamil Nadu"},{"name":"Tindivanam","lat":12.234,"lon":79.65551,"population":72796,"iso_a3":"IND","country":"India","is_capital":false,"name_en":"Tindivanam","name_es":"Tindivanam","name_fr":"Tindivanam","name_it":"Tindivanam","name_ru":"Tindivanam","elevation":43.0,"timezone":"Asia/Kolkata","admin1_name":"Tamil Nadu"},{"name":"Chengalpattu","lat":12.69184,"lon":79.97661,"population":65689,"iso_a3":"IND","country":"India","is_capital":false,"name_en":"Chengalpattu","name_es":"Chengalpattu","name_fr":"Chengalpattu","name_it":"Chengalpattu","name_ru":"Chengalpattu","elevation":61.0,"timezone":"Asia/Kolkata","admin1_name":"Tamil Nadu"},{"name":"Arni","lat":12.66771,"lon":79.28529,"population":63671,"iso_a3":"IND","country":"India","is_capital":false,"name_en":"Arni","name_es":"Arni","name_fr":"Arni","name_it":"Arni","name_ru":"Arni","elevation":149.0,"timezone":"Asia/Kolkata","admin1_name":"Tamil Nadu"},{"name":"Nagari","lat":13.32139,"lon":79.58557,"population":62253,"iso_a3":"IND","country":"India","is_capital":false,"name_en":"Nagari","name_es":"Nagari","name_fr":"Nagari","name_it":"Nagari","name_ru":"Nagari","elevation":116.0,"timezone":"Asia/Kolkata","admin1_name":"Andhra Pradesh"},{"name":"Chidambaram","lat":11.39933,"lon":79.69144,"population":62153,"iso_a3":"IND","country":"India","is_capital":false,"name_en":"Chidambaram","name_es":"Chidambaram","name_fr":"Chidambaram","name_it":"Chidambaram","name_ru":"Чидамбарам","elevation":16.0,"timezone":"Asia/Kolkata","admin1_name":"Tamil Nadu"},{"name":"Poonamalle","lat":13.04888,"lon":80.11488,"population":60607,"iso_a3":"IND","country":"India","is_capital":false,"name_en":"Poonamalle","name_es":"Poonamalle","name_fr":"Poonamalle","name_it":"Poonamalle","name_ru":"Poonamalle","elevation":21.0,"timezone":"Asia/Kolkata","admin1_name":"Tamil Nadu"},{"name":"Panruti","lat":11.77662,"lon":79.55269,"population":60323,"iso_a3":"IND","country":"India","is_capital":false,"name_en":"Panruti","name_es":"Panruti","name_fr":"Panruti","name_it":"Panruti","name_ru":"Panruti","elevation":27.0,"timezone":"Asia/Kolkata","admin1_name":"Tamil Nadu"},{"name":"Nerkunram","lat":13.06194,"lon":80.20944,"population":59790,"iso_a3":"IND","country":"India","is_capital":false,"name_en":"Nerkunram","name_es":"Nerkunram","name_fr":"Nerkunram","name_it":"Nerkunram","name_ru":"Nerkunram","elevation":11.0,"timezone":"Asia/Kolkata","admin1_name":"Tamil Nadu"},{"name":"Tiruvallur","lat":13.14376,"lon":79.90889,"population":56074,"iso_a3":"IND","country":"India","is_capital":false,"name_en":"Tiruvallur","name_es":"Tiruvallur","name_fr":"Tiruvallur","name_it":"Tiruvallur","name_ru":"Тируваллур","elevation":46.0,"timezone":"Asia/Kolkata","admin1_name":"Tamil Nadu"},{"name":"Kavanur","lat":12.99623,"lon":80.07514,"population":54986,"iso_a3":"IND","country":"India","is_capital":false,"name_en":"Kavanur","name_es":"Kavanur","name_fr":"Kavanur","name_it":"Kavanur","name_ru":"Kavanur","elevation":27.0,"timezone":"Asia/Kolkata","admin1_name":"Tamil Nadu"},{"name":"Puttūr","lat":13.44189,"lon":79.55314,"population":54092,"iso_a3":"IND","country":"India","is_capital":false,"name_en":"Puttūr","name_es":"Puttūr","name_fr":"Puttūr","name_it":"Puttūr","name_ru":"Puttūr","elevation":152.0,"timezone":"Asia/Kolkata","admin1_name":"Andhra Pradesh"},{"name":"Perambalur","lat":11.23333,"lon":78.88333,"population":49648,"iso_a3":"IND","country":"India","is_capital":false,"name_en":"Perambalur","name_es":"Perambalur","name_fr":"Perambalur","name_it":"Perambalur","name_ru":"Перамбалур","elevation":124.0,"timezone":"Asia/Kolkata","admin1_name":"Tamil Nadu"},{"name":"Nellikkuppam","lat":11.77554,"lon":79.67016,"population":46678,"iso_a3":"IND","country":"India","is_capital":false,"name_en":"Nellikkuppam","name_es":"Nellikkuppam","name_fr":"Nellikkuppam","name_it":"Nellikkuppam","name_ru":"Nellikkuppam","elevation":22.0,"timezone":"Asia/Kolkata","admin1_name":"Tamil Nadu"},{"name":"Nāyudupet","lat":13.90742,"lon":79.89465,"population":45769,"iso_a3":"IND","country":"India","is_capital":false,"name_en":"Nāyudupet","name_es":"Nāyudupet","name_fr":"Nāyudupet","name_it":"Nāyudupet","name_ru":"Nāyudupet","elevation":34.0,"timezone":"Asia/Kolkata","admin1_name":"Andhra Pradesh"},{"name":"Meddappakkam","lat":12.91661,"lon":80.19385,"population":45356,"iso_a3":"IND","country":"India","is_capital":false,"name_en":"Meddappakkam","name_es":"Meddappakkam","name_fr":"Meddappakkam","name_it":"Meddappakkam","name_ru":"Meddappakkam","elevation":20.0,"timezone":"Asia/Kolkata","admin1_name":"Tamil Nadu"},{"name":"Vishāram","lat":12.91808,"lon":79.27756,"population":44786,"iso_a3":"IND","country":"India","is_capital":false,"name_en":"Vishāram","name_es":"Vishāram","name_fr":"Vishāram","name_it":"Vishāram","name_ru":"Vishāram","elevation":180.0,"timezone":"Asia/Kolkata","admin1_name":"Tamil Nadu"},{"name":"Thiruthani","lat":13.17594,"lon":79.61637,"population":44781,"iso_a3":"IND","country":"India","is_capital":false,"name_en":"Thiruthani","name_es":"Thiruthani","name_fr":"Thiruthani","name_it":"Thiruthani","name_ru":"Thiruthani","elevation":85.0,"timezone":"Asia/Kolkata","admin1_name":"Tamil Nadu"},{"name":"Gūduvāncheri","lat":12.84519,"lon":80.06055,"population":44098,"iso_a3":"IND","country":"India","is_capital":false,"name_en":"Gūduvāncheri","name_es":"Gūduvāncheri","name_fr":"Gūduvāncheri","name_it":"Gūduvāncheri","name_ru":"Gūduvāncheri","elevation":40.0,"timezone":"Asia/Kolkata","admin1_name":"Tamil Nadu"},{"name":"Saint Thomas Mount","lat":13.00334,"lon":80.19614,"population":43795,"iso_a3":"IND","country":"India","is_capital":false,"name_en":"Saint Thomas Mount","name_es":"Saint Thomas Mount","name_fr":"Saint Thomas Mount","name_it":"Saint Thomas Mount","name_ru":"Saint Thomas Mount","elevation":25.0,"timezone":"Asia/Kolkata","admin1_name":"Tamil Nadu"},{"name":"Pīleru","lat":13.65584,"lon":78.93854,"population":41489,"iso_a3":"IND","country":"India","is_capital":false,"name_en":"Pīleru","name_es":"Pīleru","name_fr":"Pīleru","name_it":"Pīleru","name_ru":"Pīleru","elevation":475.0,"timezone":"Asia/Kolkata","admin1_name":"Andhra Pradesh"},{"name":"Kurinjippādi","lat":11.55028,"lon":79.59066,"population":39514,"iso_a3":"IND","country":"India","is_capital":false,"name_en":"Kurinjippādi","name_es":"Kurinjippādi","name_fr":"Kurinjippādi","name_it":"Kurinjippādi","name_ru":"Kurinjippādi","elevation":22.0,"timezone":"Asia/Kolkata","admin1_name":"Tamil Nadu"},{"name":"Kātpādi","lat":12.96951,"lon":79.14552,"population":38833,"iso_a3":"IND","country":"India","is_capital":false,"name_en":"Kātpādi","name_es":"Kātpādi","name_fr":"Kātpādi","name_it":"Kātpādi","name_ru":"Kātpādi","elevation":213.0,"timezone":"Asia/Kolkata","admin1_name":"Tamil Nadu"},{"name":"Sūlūru","lat":13.7,"lon":80.01667,"population":38065,"iso_a3":"IND","country":"India","is_capital":false,"name_en":"Sūlūru","name_es":"Sūlūru","name_fr":"Sūlūru","name_it":"Sūlūru","name_ru":"Sūlūru","elevation":10.0,"timezone":"Asia/Kolkata","admin1_name":"Andhra Pradesh"},{"name":"Tirupati NMA","lat":13.63229,"lon":79.48568,"population":37968,"iso_a3":"IND","country":"India","is_capital":false,"name_en":"Tirupati NMA","name_es":"Tirupati NMA","name_fr":"Tirupati NMA","name_it":"Tirupati NMA","name_ru":"Tirupati NMA","elevation":120.0,"timezone":"Asia/Kolkata","admin1_name":"Andhra Pradesh"},{"name":"Cheyyar","lat":12.66052,"lon":79.54308,"population":37802,"iso_a3":"IND","country":"India","is_capital":false,"name_en":"Cheyyar","name_es":"Cheyyar","name_fr":"Cheyyar","name_it":"Cheyyar","name_ru":"Cheyyar","elevation":99.0,"timezone":"Asia/Kolkata","admin1_name":"Tamil Nadu"},{"name":"Tinnanūr","lat":13.11448,"lon":80.02713,"population":37095,"iso_a3":"IND","country":"India","is_capital":false,"name_en":"Tinnanūr","name_es":"Tinnanūr","name_fr":"Tinnanūr","name_it":"Tinnanūr","name_ru":"Tinnanūr","elevation":36.0,"timezone":"Asia/Kolkata","admin1_name":"Tamil Nadu"},{"name":"Kattivākkam","lat":13.21667,"lon":80.31667,"population":36617,"iso_a3":"IND","country":"India","is_capital":false,"name_en":"Kattivākkam","name_es":"Kattivākkam","name_fr":"Kattivākkam","name_it":"Kattivākkam","name_ru":"Kattivākkam","elevation":2.0,"timezone":"Asia/Kolkata","admin1_name":"Tamil Nadu"},{"name":"Sholinganallur","lat":12.88996,"lon":80.23127,"population":35602,"iso_a3":"IND","country":"India","is_capital":false,"name_en":"Sholinganallur","name_es":"Sholinganallur","name_fr":"Sholinganallur","name_it":"Sholinganallur","name_ru":"Sholinganallur","elevation":10.0,"timezone":"Asia/Kolkata","admin1_name":"Tamil Nadu"},{"name":"Podaturpet","lat":13.28169,"lon":79.48538,"population":35000,"iso_a3":"IND","country":"India","is_capital":false,"name_en":"Podaturpet","name_es":"Podaturpet","name_fr":"Podaturpet","name_it":"Podaturpet","name_ru":"Podaturpet","elevation":156.0,"timezone":"Asia/Kolkata","admin1_name":"Tamil Nadu"},{"name":"Sīrkāzhi","lat":11.23725,"lon":79.73585,"population":34927,"iso_a3":"IND","country":"India","is_capital":false,"name_en":"Sīrkāzhi","name_es":"Sīrkāzhi","name_fr":"Sīrkāzhi","name_it":"Sīrkāzhi","name_ru":"Sīrkāzhi","elevation":12.0,"timezone":"Asia/Kolkata","admin1_name":"Tamil Nadu"},{"name":"Villianur","lat":11.91393,"lon":79.75568,"population":34383,"iso_a3":"IND","country":"India","is_capital":false,"name_en":"Villianur","name_es":"Villianur","name_fr":"Villianur","name_it":"Villianur","name_ru":"Villianur","elevation":14.0,"timezone":"Asia/Kolkata","admin1_name":"Puducherry"},{"name":"Nagalapuram","lat":13.38836,"lon":79.79623,"population":34026,"iso_a3":"IND","country":"India","is_capital":false,"name_en":"Nagalapuram","name_es":"Nagalapuram","name_fr":"Nagalapuram","name_it":"Nagalapuram","name_ru":"Nagalapuram","elevation":72.0,"timezone":"Asia/Kolkata","admin1_name":"Andhra Pradesh"},{"name":"Jayamkondacholapuram","lat":11.21266,"lon":79.36369,"population":33945,"iso_a3":"IND","country":"India","is_capital":false,"name_en":"Jayamkondacholapuram","name_es":"Jayamkondacholapuram","name_fr":"Jayamkondacholapuram","name_it":"Jayamkondacholapuram","name_ru":"Jayamkondacholapuram","elevation":64.0,"timezone":"Asia/Kolkata","admin1_name":"Tamil Nadu"},{"name":"Vandavāsi","lat":12.50429,"lon":79.60556,"population":31530,"iso_a3":"IND","country":"India","is_capital":false,"name_en":"Vandavāsi","name_es":"Vandavāsi","name_fr":"Vandavāsi","name_it":"Vandavāsi","name_ru":"Vandavāsi","elevation":79.0,"timezone":"Asia/Kolkata","admin1_name":"Tamil Nadu"},{"name":"Rāmāpuram","lat":13.10091,"lon":79.1841,"population":31169,"iso_a3":"IND","country":"India","is_capital":false,"name_en":"Rāmāpuram","name_es":"Rāmāpuram","name_fr":"Rāmāpuram","name_it":"Rāmāpuram","name_ru":"Rāmāpuram","elevation":283.0,"timezone":"Asia/Kolkata","admin1_name":"Andhra Pradesh"},{"name":"Ponneri","lat":13.33868,"lon":80.19487,"population":31025,"iso_a3":"IND","country":"India","is_capital":false,"name_en":"Ponneri","name_es":"Ponneri","name_fr":"Ponneri","name_it":"Ponneri","name_ru":"Ponneri","elevation":12.0,"timezone":"Asia/Kolkata","admin1_name":"Tamil Nadu"},{"name":"Sholinghur","lat":13.1181,"lon":79.42025,"population":30856,"iso_a3":"IND","country":"India","is_capital":false,"name_en":"Sholinghur","name_es":"Sholinghur","name_fr":"Sholinghur","name_it":"Sholinghur","name_ru":"Sholinghur","elevation":157.0,"timezone":"Asia/Kolkata","admin1_name":"Tamil Nadu"},{"name":"Madurāntakam","lat":12.51167,"lon":79.88485,"population":30796,"iso_a3":"IND","country":"India","is_capital":false,"name_en":"Madurāntakam","name_es":"Madurāntakam","name_fr":"Madurāntakam","name_it":"Madurāntakam","name_ru":"Madurāntakam","elevation":30.0,"timezone":"Asia/Kolkata","admin1_name":"Tamil Nadu"},{"name":"Tirukkoyilur","lat":11.9662,"lon":79.20259,"population":30212,"iso_a3":"IND","country":"India","is_capital":false,"name_en":"Tirukkoyilur","name_es":"Tirukkoyilur","name_fr":"Tirukkoyilur","name_it":"Tirukkoyilur","name_ru":"Tirukkoyilur","elevation":104.0,"timezone":"Asia/Kolkata","admin1_name":"Tamil Nadu"}]