[{"name":"Kadapa","lat":14.47995,"lon":78.82346,"population":344893,"iso_a3":"IND","country":"India","is_capital":false,"name_en":"Kadapa","name_es":"Kadapa","name_fr":"Kadapa","name_it":"Kadapa","name_ru":"Kadapa","elevation":135.0,"timezone":"Asia/Kolkata","admin1_name":"Andhra Pradesh"},{"name":"Ongole","lat":15.50357,"lon":80.04454,"population":208344,"iso_a3":"IND","country":"India","is_capital":false,"name_en":"Ongole","name_es":"Ongole","name_fr":"Ongole","name_it":"Ongole","name_ru":"Онголе","elevation":28.0,"timezone":"Asia/Kolkata","admin1_name":"Andhra Pradesh"},{"name":"Machilīpatnam","lat":16.18747,"lon":81.13888,"population":192827,"iso_a3":"IND","country":"India","is_capital":false,"name_en":"Machilipatnam","name_es":"Machilipatnam","name_fr":"Machilipatnam","name_it":"Machilipatnam","name_ru":"Machilipatnam","elevation":11.0,"timezone":"Asia/Kolkata","admin1_name":"Andhra Pradesh"},{"name":"Thenali","lat":16.24253,"lon":80.63982,"population":164937,"iso_a3":"IND","country":"India","is_capital":false,"name_en":"Thenali","name_es":"Thenali","name_fr":"Thenali","name_it":"Thenali","name_ru":"Thenali","elevation":15.0,"timezone":"Asia/Kolkata","admin1_name":"Andhra Pradesh"},{"name":"Bhimavaram","lat":16.54078,"lon":81.52322,"population":146961,"iso_a3":"IND","country":"India","is_capital":false,"name_en":"Bhimavaram","name_es":"Bhimavaram","name_fr":"Bhimavaram","name_it":"Bhimavaram","name_ru":"Bhimavaram","elevation":11.0,"timezone":"Asia/Kolkata","admin1_name":"Andhra Pradesh"},{"name":"Gudivāda","lat":16.43547,"lon":80.99555,"population":118167,"iso_a3":"IND","country":"India","is_capital":false,"name_en":"Gudivāda","name_es":"Gudivāda","name_fr":"Gudivāda","name_it":"Gudivāda","name_ru":"Gudivāda","elevation":13.0,"timezone":"Asia/Kolkata","admin1_name":"Andhra Pradesh"},{"name":"Narasaraopet","lat":16.23488,"lon":80.04927,"population":117489,"iso_a3":"IND","country":"India","is_capital":false,"name_en":"Narasaraopet","name_es":"Narasaraopet","name_fr":"Narasaraopet","name_it":"Narasaraopet","name_ru":"Narasaraopet","elevation":76.0,"timezone":"Asia/Kolkata","admin1_name":"Andhra Pradesh"},{"name":"Mangalagiri","lat":16.43083,"lon":80.56815,"population":107197,"iso_a3":"IND","country":"India","is_capital":false,"name_en":"Mangalagiri","name_es":"Mangalagiri","name_fr":"Mangalagiri","name_it":"Mangalagiri","name_ru":"Mangalagiri","elevation":34.0,"timezone":"Asia/Kolkata","admin1_name":"Andhra Pradesh"},{"name":"Amaravati","lat":16.514,"lon":80.516,"population":103000,"iso_a3":"IND","country":"India","is_capital":false,"name_en":"Amaravati","name_es":"Amaravati","name_fr":"Amaravati","name_it":"Amaravati","name_ru":"Amaravati","elevation":22.0,"timezone":"Asia/Kolkata","admin1_name":"Andhra Pradesh"},{"name":"Chilakalūrupet","lat":16.08987,"lon":80.16705,"population":101398,"iso_a3":"IND","country":"India","is_capital":false,"name_en":"Chilakalūrupet","name_es":"Chilakalūrupet","name_fr":"Chilakalūrupet","name_it":"Chilakalūrupet","name_ru":"Chilakalūrupet","elevation":32.0,"timezone":"Asia/Kolkata","admin1_name":"Andhra Pradesh"},{"name":"Chīrāla","lat":15.82385,"lon":80.35219,"population":92942,"iso_a3":"IND","country":"India","is_capital":false,"name_en":"Chīrāla","name_es":"Chīrāla","name_fr":"Chīrāla","name_it":"Chīrāla","name_ru":"Chīrāla","elevation":11.0,"timezone":"Asia/Kolkata","admin1_name":"Andhra Pradesh"},{"name":"Rayachoti","lat":14.05723,"lon":78.75056,"population":91234,"iso_a3":"IND","country":"India","is_capital":false,"name_en":"Rayachoti","name_es":"Rayachoti","name_fr":"Rayachoti","name_it":"Rayachoti","name_ru":"Rayachoti","elevation":361.0,"timezone":"Asia/Kolkata","admin1_name":"Andhra Pradesh"},{"name":"Kāvali","lat":14.9163,"lon":79.99449,"population":90099,"iso_a3":"IND","country":"India","is_capital":false,"name_en":"Kāvali","name_es":"Kāvali","name_fr":"Kāvali","name_it":"Kāvali","name_ru":"Kāvali","elevation":18.0,"timezone":"Asia/Kolkata","admin1_name":"Andhra Pradesh"},{"name":"Gūdūr","lat":14.15093,"lon":79.8521,"population":74851,"iso_a3":"IND","country":"India","is_capital":false,"name_en":"Gūdūr","name_es":"Gūdūr","name_fr":"Gūdūr","name_it":"Gūdūr","name_ru":"Gūdūr","elevation":17.0,"timezone":"Asia/Kolkata","admin1_name":"Andhra Pradesh"},{"name":"Mārkāpur","lat":15.73534,"lon":79.26848,"population":71092,"iso_a3":"IND","country":"India","is_capital":false,"name_en":"Mārkāpur","name_es":"Mārkāpur","name_fr":"Mārkāpur","name_it":"Mārkāpur","name_ru":"Mārkāpur","elevation":158.0,"timezone":"Asia/Kolkata","admin1_name":"Andhra Pradesh"},{"name":"Bāpatla","lat":15.90422,"lon":80.46743,"population":70777,"iso_a3":"IND","country":"India","is_capital":false,"name_en":"Bāpatla","name_es":"Bāpatla","name_fr":"Bāpatla","name_it":"Bāpatla","name_ru":"Bāpatla","elevation":10.0,"timezone":"Asia/Kolkata","admin1_name":"Andhra Pradesh"},{"name":"Badvel","lat":14.7451,"lon":79.06288,"population":70626,"iso_a3":"IND","country":"India","is_capital":false,"name_en":"Badvel","name_es":"Badvel","name_fr":"Badvel","name_it":"Badvel","name_ru":"Badvel","elevation":139.0,"timezone":"Asia/Kolkata","admin1_name":"Andhra Pradesh"},{"name":"Tādepalle","lat":16.48333,"lon":80.6,"population":64149,"iso_a3":"IND","country":"India","is_capital":false,"name_en":"Tādepalle","name_es":"Tādepalle","name_fr":"Tādepalle","name_it":"Tādepalle","name_ru":"Tādepalle","elevation":54.0,"timezone":"Asia/Kolkata","admin1_name":"Andhra Pradesh"},{"name":"Pidugurālla","lat":16.47926,"lon":79.88632,"population":63103,"iso_a3":"IND","country":"India","is_capital":false,"name_en":"Pidugurālla","name_es":"Pidugurālla","name_fr":"Pidugurālla","name_it":"Pidugurālla","name_ru":"Pidugurālla","elevation":105.0,"timezone":"Asia/Kolkata","admin1_name":"Andhra Pradesh"},{"name":"Vinukonda","lat":16.0531,"lon":79.73964,"population":62550,"iso_a3":"IND","country":"India","is_capital":false,"name_en":"Vinukonda","name_es":"Vinukonda","name_fr":"Vinukonda","name_it":"Vinukonda","name_ru":"Vinukonda","elevation":96.0,"timezone":"Asia/Kolkata","admin1_name":"Andhra Pradesh"},{"name":"Ponnur","lat":16.07114,"lon":80.54944,"population":59913,"iso_a3":"IND","country":"India","is_capital":false,"name_en":"Ponnur","name_es":"Ponnur","name_fr":"Ponnur","name_it":"Ponnur","name_ru":"Ponnur","elevation":11.0,"timezone":"Asia/Kolkata","admin1_name":"Andhra Pradesh"},{"name":"Mācherla","lat":16.47635,"lon":79.43533,"population":57290,"iso_a3":"IND","country":"India","is_capital":false,"name_en":"Mācherla","name_es":"Mācherla","name_fr":"Mācherla","name_it":"Mācherla","name_ru":"Mācherla","elevation":142.0,"timezone":"Asia/Kolkata","admin1_name":"Andhra Pradesh"},{"name":"Kandukūr","lat":15.21542,"lon":79.9039,"population":57246,"iso_a3":"IND","country":"India","is_capital":false,"name_en":"Kandukūr","name_es":"Kandukūr","name_fr":"Kandukūr","name_it":"Kandukūr","name_ru":"Kandukūr","elevation":22.0,"timezone":"Asia/Kolkata","admin1_name":"Andhra Pradesh"},{"name":"Sattenapalle","lat":16.39381,"lon":80.15221,"population":56721,"iso_a3":"IND","country":"India","is_capital":false,"name_en":"Sattenapalle","name_es":"Sattenapalle","name_fr":"Sattenapalle","name_it":"Sattenapalle","name_ru":"Sattenapalle","elevation":78.0,"timezone":"Asia/Kolkata","admin1_name":"Andhra Pradesh"},{"name":"Rāzampeta","lat":14.19544,"lon":79.15896,"population":54050,"iso_a3":"IND","country":"India","is_capital":false,"name_en":"Rāzampeta","name_es":"Rāzampeta","name_fr":"Rāzampeta","name_it":"Rāzampeta","name_ru":"Rāzampeta","elevation":139.0,"annual_mean_temp":28.2,"annual_precipitation":710.5,"sunshine_hours_yr":3634.0,"timezone":"Asia/Kolkata","admin1_name":"Andhra Pradesh"},{"name":"Venkatagiri","lat":13.96005,"lon":79.58032,"population":52688,"iso_a3":"IND","country":"India","is_capital":false,"name_en":"Venkatagiri","name_es":"Venkatagiri","name_fr":"Venkatagiri","name_it":"Venkatagiri","name_ru":"Venkatagiri","elevation":68.0,"timezone":"Asia/Kolkata","admin1_name":"Andhra Pradesh"},{"name":"Repalle","lat":16.0184,"lon":80.82958,"population":50866,"iso_a3":"IND","country":"India","is_capital":false,"name_en":"Repalle","name_es":"Repalle","name_fr":"Repalle","name_it":"Repalle","name_ru":"Репалле","elevation":8.0,"timezone":"Asia/Kolkata","admin1_name":"Andhra Pradesh"},{"name":"Kanuru","lat":16.28584,"lon":81.25464,"population":43696,"iso_a3":"IND","country":"India","is_capital":false,"name_en":"Kanuru","name_es":"Kanuru","name_fr":"Kanuru","name_it":"Kanuru","name_ru":"Кануру","elevation":6.0,"timezone":"Asia/Kolkata","admin1_name":"Andhra Pradesh"},{"name":"Akivīdu","lat":16.58225,"lon":81.38112,"population":40413,"iso_a3":"IND","country":"India","is_capital":false,"name_en":"Akivīdu","name_es":"Akivīdu","name_fr":"Akivīdu","name_it":"Akivīdu","name_ru":"Akivīdu","elevation":13.0,"timezone":"Asia/Kolkata","admin1_name":"Andhra Pradesh"},{"name":"Kondapalle","lat":16.61989,"lon":80.54244,"population":38714,"iso_a3":"IND","country":"India","is_capital":false,"name_en":"Kondapalle","name_es":"Kondapalle","name_fr":"Kondapalle","name_it":"Kondapalle","name_ru":"Kondapalle","elevation":37.0,"timezone":"Asia/Kolkata","admin1_name":"Andhra Pradesh"},{"name":"Vetapālem","lat":15.78502,"lon":80.30663,"population":38671,"iso_a3":"IND","country":"India","is_capital":false,"name_en":"Vetapālem","name_es":"Vetapālem","name_fr":"Vetapālem","name_it":"Vetapālem","name_ru":"Vetapālem","elevation":11.0,"timezone":"Asia/Kolkata","admin1_name":"Andhra Pradesh"},{"name":"Kanigiri U","lat":15.40637,"lon":79.50702,"population":37420,"iso_a3":"IND","country":"India","is_capital":false,"name_en":"Kanigiri U","name_es":"Kanigiri U","name_fr":"Kanigiri U","name_it":"Kanigiri U","name_ru":"Kanigiri U","elevation":110.0,"timezone":"Asia/Kolkata","admin1_name":"Andhra Pradesh"},{"name":"Vuyyūru","lat":16.36307,"lon":80.84406,"population":36755,"iso_a3":"IND","country":"India","is_capital":false,"name_en":"Vuyyūru","name_es":"Vuyyūru","name_fr":"Vuyyūru","name_it":"Vuyyūru","name_ru":"Vuyyūru","elevation":18.0,"timezone":"Asia/Kolkata","admin1_name":"Andhra Pradesh"},{"name":"Kovūr","lat":14.5005,"lon":79.98518,"population":35600,"iso_a3":"IND","country":"India","is_capital":false,"name_en":"Kovūr","name_es":"Kovūr","name_fr":"Kovūr","name_it":"Kovūr","name_ru":"Kovūr","elevation":23.0,"timezone":"Asia/Kolkata","admin1_name":"Andhra Pradesh"},{"name":"Giddalūr","lat":15.37439,"lon":78.92609,"population":35150,"iso_a3":"IND","country":"India","is_capital":false,"name_en":"Giddalūr","name_es":"Giddalūr","name_fr":"Giddalūr","name_it":"Giddalūr","name_ru":"Giddalūr","elevation":265.0,"timezone":"Asia/Kolkata","admin1_name":"Andhra Pradesh"},{"name":"Darsi","lat":15.76978,"lon":79.67939,"population":33418,"iso_a3":"IND","country":"India","is_capital":false,"name_en":"Darsi","name_es":"Darsi","name_fr":"Darsi","name_it":"Darsi","name_ru":"Darsi","elevation":111.0,"timezone":"Asia/Kolkata","admin1_name":"Andhra Pradesh"},{"name":"Podili","lat":15.60639,"lon":79.61489,"population":31145,"iso_a3":"IND","country":"India","is_capital":false,"name_en":"Podili","name_es":"Podili","name_fr":"Podili","name_it":"Podili","name_ru":"Podili","elevation":88.0,"timezone":"Asia/Kolkata","admin1_name":"Andhra Pradesh"},{"name":"Pedana","lat":16.25582,"lon":81.14378,"population":30721,"iso_a3":"IND","country":"India","is_capital":false,"name_en":"Pedana","name_es":"Pedana","name_fr":"Pedana","name_it":"Pedana","name_ru":"Pedana","elevation":13.0,"timezone":"Asia/Kolkata","admin1_name":"Andhra Pradesh"}]