[{"name":"Kushinagar","lat":26.74134,"lon":83.88689,"population":274403,"iso_a3":"IND","country":"India","is_capital":false,"name_en":"Kushinagar","name_es":"Kushinagar","name_fr":"Kushinagar","name_it":"Kushinagar","name_ru":"Kushinagar","elevation":72.0,"timezone":"Asia/Kolkata","admin1_name":"Uttar Pradesh"},{"name":"Mau","lat":25.94167,"lon":83.56111,"population":246050,"iso_a3":"IND","country":"India","is_capital":false,"name_en":"Mau","name_es":"Mau","name_fr":"Mau","name_it":"Mau","name_ru":"Мау","elevation":78.0,"timezone":"Asia/Kolkata","admin1_name":"Uttar Pradesh"},{"name":"Mirzāpur","lat":25.1449,"lon":82.56534,"population":220029,"iso_a3":"IND","country":"India","is_capital":false,"name_en":"Mirzāpur","name_es":"Mirzāpur","name_fr":"Mirzāpur","name_it":"Mirzāpur","name_ru":"Мирзапур","elevation":90.0,"timezone":"Asia/Kolkata","admin1_name":"Uttar Pradesh"},{"name":"Gyānpur","lat":25.33268,"lon":82.46637,"population":200000,"iso_a3":"IND","country":"India","is_capital":false,"name_en":"Gyānpur","name_es":"Gyānpur","name_fr":"Gyānpur","name_it":"Gyānpur","name_ru":"Gyānpur","elevation":91.0,"timezone":"Asia/Kolkata","admin1_name":"Uttar Pradesh"},{"name":"Jaunpur","lat":25.75356,"lon":82.68689,"population":169572,"iso_a3":"IND","country":"India","is_capital":false,"name_en":"Jaunpur","name_es":"Jaunpur","name_fr":"Jawnpur","name_it":"Jaunpur","name_ru":"Джаунпур","elevation":85.0,"timezone":"Asia/Kolkata","admin1_name":"Uttar Pradesh"},{"name":"Fyzābād","lat":26.77549,"lon":82.15018,"population":153047,"iso_a3":"IND","country":"India","is_capital":false,"name_en":"Faizabad","name_es":"Faizabad","name_fr":"Faizabad","name_it":"Faizabad","name_ru":"Файзабад","elevation":106.0,"timezone":"Asia/Kolkata","admin1_name":"Uttar Pradesh"},{"name":"Sasarām","lat":24.94942,"lon":84.01645,"population":147408,"iso_a3":"IND","country":"India","is_capital":false,"name_en":"Sasarām","name_es":"Sasarām","name_fr":"Sasarām","name_it":"Sasarām","name_ru":"Sasarām","elevation":114.0,"timezone":"Asia/Kolkata","admin1_name":"Bihar"},{"name":"Madhurampur Dehri","lat":24.96899,"lon":84.1964,"population":137231,"iso_a3":"IND","country":"India","is_capital":false,"name_en":"Madhurampur Dehri","name_es":"Madhurampur Dehri","name_fr":"Madhurampur Dehri","name_it":"Madhurampur Dehri","name_ru":"Madhurampur Dehri","elevation":107.0,"timezone":"Asia/Kolkata","admin1_name":"Bihar"},{"name":"Siwān","lat":26.22096,"lon":84.35609,"population":135066,"iso_a3":"IND","country":"India","is_capital":false,"name_en":"Siwān","name_es":"Siwān","name_fr":"Siwān","name_it":"Siwān","name_ru":"Сиван","elevation":71.0,"timezone":"Asia/Kolkata","admin1_name":"Bihar"},{"name":"Deoria","lat":26.50167,"lon":83.77936,"population":129570,"iso_a3":"IND","country":"India","is_capital":false,"name_en":"Deoria","name_es":"Deoria","name_fr":"Deoria","name_it":"Deoria","name_ru":"Деория","elevation":82.0,"timezone":"Asia/Kolkata","admin1_name":"Uttar Pradesh"},{"name":"Azamgarh","lat":26.06832,"lon":83.18358,"population":116644,"iso_a3":"IND","country":"India","is_capital":false,"name_en":"Azamgarh","name_es":"Azamgarh","name_fr":"Azamgarh","name_it":"Azamgarh","name_ru":"Азамгарх","elevation":84.0,"timezone":"Asia/Kolkata","admin1_name":"Uttar Pradesh"},{"name":"Bastī","lat":26.78817,"lon":82.71617,"population":115115,"iso_a3":"IND","country":"India","is_capital":false,"name_en":"Basti","name_es":"Basti","name_fr":"Basti","name_it":"Basti","name_ru":"Басти","elevation":92.0,"timezone":"Asia/Kolkata","admin1_name":"Uttar Pradesh"},{"name":"Sultānpur","lat":26.25788,"lon":82.07269,"population":110368,"iso_a3":"IND","country":"India","is_capital":false,"name_en":"Sultānpur","name_es":"Sultānpur","name_fr":"Sultānpur","name_it":"Sultānpur","name_ru":"Sultānpur","elevation":104.0,"timezone":"Asia/Kolkata","admin1_name":"Uttar Pradesh"},{"name":"Ghazīpur","lat":25.58333,"lon":83.58526,"population":103095,"iso_a3":"IND","country":"India","is_capital":false,"name_en":"Ghazīpur","name_es":"Ghazīpur","name_fr":"Ghazīpur","name_it":"Ghazīpur","name_ru":"Ghazīpur","elevation":77.0,"timezone":"Asia/Kolkata","admin1_name":"Uttar Pradesh"},{"name":"Buxar","lat":25.57548,"lon":83.98043,"population":102861,"iso_a3":"IND","country":"India","is_capital":false,"name_en":"Buxar","name_es":"Buxar","name_fr":"Buxar","name_it":"Buxar","name_ru":"Buxar","elevation":67.0,"timezone":"Asia/Kolkata","admin1_name":"Bihar"},{"name":"Aurangābād","lat":24.75204,"lon":84.3742,"population":102244,"iso_a3":"IND","country":"India","is_capital":false,"name_en":"Aurangābād","name_es":"Aurangābād","name_fr":"Aurangābād","name_it":"Aurangābād","name_ru":"Aurangābād","elevation":116.0,"timezone":"Asia/Kolkata","admin1_name":"Bihar"},{"name":"Mughal Sarāi","lat":25.28307,"lon":83.11968,"population":98043,"iso_a3":"IND","country":"India","is_capital":false,"name_en":"Mughal Sarāi","name_es":"Mughal Sarāi","name_fr":"Mughal Sarāi","name_it":"Mughal Sarāi","name_ru":"Mughal Sarāi","elevation":85.0,"timezone":"Asia/Kolkata","admin1_name":"Uttar Pradesh"},{"name":"Tāndā","lat":26.54953,"lon":82.65841,"population":88073,"iso_a3":"IND","country":"India","is_capital":false,"name_en":"Tāndā","name_es":"Tāndā","name_fr":"Tāndā","name_it":"Tāndā","name_ru":"Tāndā","elevation":95.0,"timezone":"Asia/Kolkata","admin1_name":"Uttar Pradesh"},{"name":"Bhadohi","lat":25.39526,"lon":82.5703,"population":78568,"iso_a3":"IND","country":"India","is_capital":false,"name_en":"Bhadohi","name_es":"Bhadohi","name_fr":"Bhadohi","name_it":"Bhadohi","name_ru":"Bhadohi","elevation":94.0,"timezone":"Asia/Kolkata","admin1_name":"Uttar Pradesh"},{"name":"Bela","lat":25.92058,"lon":81.99629,"population":73992,"iso_a3":"IND","country":"India","is_capital":false,"name_en":"Bela","name_es":"Bela","name_fr":"Bela","name_it":"Bela","name_ru":"Бела","elevation":97.0,"timezone":"Asia/Kolkata","admin1_name":"Uttar Pradesh"},{"name":"Dumraon","lat":25.55265,"lon":84.15149,"population":53618,"iso_a3":"IND","country":"India","is_capital":false,"name_en":"Dumraon","name_es":"Dumraon","name_fr":"Dumraon","name_it":"Dumraon","name_ru":"Dumraon","elevation":76.0,"timezone":"Asia/Kolkata","admin1_name":"Bihar"},{"name":"Ayodhya","lat":26.79909,"lon":82.2047,"population":53293,"iso_a3":"IND","country":"India","is_capital":false,"name_en":"Ayodhya","name_es":"Ayodhya","name_fr":"Ayodhya","name_it":"Ayodhya","name_ru":"Айодхье","elevation":102.0,"timezone":"Asia/Kolkata","admin1_name":"Uttar Pradesh"},{"name":"Mubarakpur","lat":26.08866,"lon":83.29088,"population":53263,"iso_a3":"IND","country":"India","is_capital":false,"name_en":"Mubarakpur","name_es":"Mubarakpur","name_fr":"Mubarakpur","name_it":"Mubarakpur","name_ru":"Mubarakpur","elevation":81.0,"timezone":"Asia/Kolkata","admin1_name":"Uttar Pradesh"},{"name":"Bhabhua","lat":25.04049,"lon":83.60749,"population":50179,"iso_a3":"IND","country":"India","is_capital":false,"name_en":"Bhabhua","name_es":"Bhabhua","name_fr":"Bhabhua","name_it":"Bhabhua","name_ru":"Bhabhua","elevation":88.0,"timezone":"Asia/Kolkata","admin1_name":"Bihar"},{"name":"Bikramganj","lat":25.21073,"lon":84.25508,"population":48465,"iso_a3":"IND","country":"India","is_capital":false,"name_en":"Bikramganj","name_es":"Bikramganj","name_fr":"Bikramganj","name_it":"Bikramganj","name_ru":"Bikramganj","elevation":93.0,"timezone":"Asia/Kolkata","admin1_name":"Bihar"},{"name":"Padrauna","lat":26.90403,"lon":83.98087,"population":47181,"iso_a3":"IND","country":"India","is_capital":false,"name_en":"Padrauna","name_es":"Padrauna","name_fr":"Padrauna","name_it":"Padrauna","name_ru":"Падарауна","elevation":94.0,"timezone":"Asia/Kolkata","admin1_name":"Uttar Pradesh"},{"name":"Khalīlābād","lat":26.77268,"lon":83.07179,"population":45321,"iso_a3":"IND","country":"India","is_capital":false,"name_en":"Khalīlābād","name_es":"Khalīlābād","name_fr":"Khalīlābād","name_it":"Khalīlābād","name_ru":"Khalīlābād","elevation":84.0,"timezone":"Asia/Kolkata","admin1_name":"Uttar Pradesh"},{"name":"Rāmnagar","lat":25.26907,"lon":83.02971,"population":44277,"iso_a3":"IND","country":"India","is_capital":false,"name_en":"Rāmnagar","name_es":"Rāmnagar","name_fr":"Rāmnagar","name_it":"Rāmnagar","name_ru":"Rāmnagar","elevation":84.0,"timezone":"Asia/Kolkata","admin1_name":"Uttar Pradesh"},{"name":"Ghosī","lat":26.10587,"lon":83.5393,"population":39138,"iso_a3":"IND","country":"India","is_capital":false,"name_en":"Ghosi","name_es":"Ghosi","name_fr":"Ghosi","name_it":"Ghosi","name_ru":"Гхоси","elevation":82.0,"timezone":"Asia/Kolkata","admin1_name":"Uttar Pradesh"},{"name":"Robertsganj","lat":24.6886,"lon":83.06784,"population":37855,"iso_a3":"IND","country":"India","is_capital":false,"name_en":"Robertsganj","name_es":"Robertsganj","name_fr":"Robertsganj","name_it":"Robertsganj","name_ru":"Робертсгандж","elevation":321.0,"timezone":"Asia/Kolkata","admin1_name":"Uttar Pradesh"},{"name":"Akbarpur","lat":26.42953,"lon":82.53431,"population":36865,"iso_a3":"IND","country":"India","is_capital":false,"name_en":"Akbarpur","name_es":"Akbarpur","name_fr":"Akbarpur","name_it":"Akbarpur","name_ru":"Акбарпур","elevation":89.0,"timezone":"Asia/Kolkata","admin1_name":"Uttar Pradesh"},{"name":"Chunār","lat":25.12776,"lon":82.8821,"population":36459,"iso_a3":"IND","country":"India","is_capital":false,"name_en":"Chunār","name_es":"Chunār","name_fr":"Chunār","name_it":"Chunār","name_ru":"Chunār","elevation":83.0,"timezone":"Asia/Kolkata","admin1_name":"Uttar Pradesh"},{"name":"Kopāganj","lat":26.01923,"lon":83.5663,"population":33539,"iso_a3":"IND","country":"India","is_capital":false,"name_en":"Kopāganj","name_es":"Kopāganj","name_fr":"Kopāganj","name_it":"Kopāganj","name_ru":"Kopāganj","elevation":78.0,"timezone":"Asia/Kolkata","admin1_name":"Uttar Pradesh"},{"name":"Muhammadābād","lat":25.61907,"lon":83.75576,"population":33186,"iso_a3":"IND","country":"India","is_capital":false,"name_en":"Muhammadābād","name_es":"Muhammadābād","name_fr":"Muhammadābād","name_it":"Muhammadābād","name_ru":"Muhammadābād","elevation":73.0,"timezone":"Asia/Kolkata","admin1_name":"Uttar Pradesh"},{"name":"Zamānia","lat":25.41961,"lon":83.55786,"population":32008,"iso_a3":"IND","country":"India","is_capital":false,"name_en":"Zamānia","name_es":"Zamānia","name_fr":"Zamānia","name_it":"Zamānia","name_ru":"Zamānia","elevation":72.0,"timezone":"Asia/Kolkata","admin1_name":"Uttar Pradesh"},{"name":"Rasrā","lat":25.8576,"lon":83.85487,"population":31876,"iso_a3":"IND","country":"India","is_capital":false,"name_en":"Rasrā","name_es":"Rasrā","name_fr":"Rasrā","name_it":"Rasrā","name_ru":"Rasrā","elevation":72.0,"timezone":"Asia/Kolkata","admin1_name":"Uttar Pradesh"},{"name":"Jalālpur","lat":26.31162,"lon":82.73859,"population":31388,"iso_a3":"IND","country":"India","is_capital":false,"name_en":"Jalālpur","name_es":"Jalālpur","name_fr":"Jalālpur","name_it":"Jalālpur","name_ru":"Jalālpur","elevation":90.0,"timezone":"Asia/Kolkata","admin1_name":"Uttar Pradesh"},{"name":"Rūdarpur","lat":26.44467,"lon":83.61302,"population":30873,"iso_a3":"IND","country":"India","is_capital":false,"name_en":"Rūdarpur","name_es":"Rūdarpur","name_fr":"Rūdarpur","name_it":"Rūdarpur","name_ru":"Rūdarpur","elevation":79.0,"timezone":"Asia/Kolkata","admin1_name":"Uttar Pradesh"}]