[{"name":"Sambalpur","lat":21.46527,"lon":83.97573,"population":189366,"iso_a3":"IND","country":"India","is_capital":false,"name_en":"Sambalpur","name_es":"Sambalpur","name_fr":"Sambalpur","name_it":"Sambalpur","name_ru":"Самбалпур","elevation":152.0,"timezone":"Asia/Kolkata","admin1_name":"Odisha"},{"name":"Raigarh","lat":21.89764,"lon":83.3966,"population":150019,"iso_a3":"IND","country":"India","is_capital":false,"name_en":"Raigarh","name_es":"Raigarh","name_fr":"Raigârh","name_it":"Raigarh","name_ru":"Райгарх","elevation":224.0,"timezone":"Asia/Kolkata","admin1_name":"Chhattisgarh"},{"name":"Balāngīr","lat":20.70419,"lon":83.49029,"population":98238,"iso_a3":"IND","country":"India","is_capital":false,"name_en":"Balāngīr","name_es":"Balāngīr","name_fr":"Balāngīr","name_it":"Balāngīr","name_ru":"Balāngīr","elevation":187.0,"timezone":"Asia/Kolkata","admin1_name":"Odisha"},{"name":"Jharsuguda","lat":21.85531,"lon":84.00698,"population":97730,"iso_a3":"IND","country":"India","is_capital":false,"name_en":"Jharsuguda","name_es":"Jharsuguda","name_fr":"Jharsuguda","name_it":"Jharsuguda","name_ru":"Джхарсугуда","elevation":223.0,"timezone":"Asia/Kolkata","admin1_name":"Odisha"},{"name":"Bargarh","lat":21.33348,"lon":83.61905,"population":80625,"iso_a3":"IND","country":"India","is_capital":false,"name_en":"Bargarh","name_es":"Bargarh","name_fr":"Bargarh","name_it":"Bargarh","name_ru":"Баргарх","elevation":179.0,"timezone":"Asia/Kolkata","admin1_name":"Odisha"},{"name":"Brajarajnagar","lat":21.81667,"lon":83.91667,"population":80403,"iso_a3":"IND","country":"India","is_capital":false,"name_en":"Brajarajnagar","name_es":"Brajarajnagar","name_fr":"Brajarajnagar","name_it":"Brajarajnagar","name_ru":"Brajarajnagar","elevation":219.0,"timezone":"Asia/Kolkata","admin1_name":"Odisha"},{"name":"Bhawānipatna","lat":19.90717,"lon":83.16697,"population":69045,"iso_a3":"IND","country":"India","is_capital":false,"name_en":"Bhawānipatna","name_es":"Bhawānipatna","name_fr":"Bhawānipatna","name_it":"Bhawānipatna","name_ru":"Bhawānipatna","elevation":259.0,"timezone":"Asia/Kolkata","admin1_name":"Odisha"},{"name":"Bhātāpāra","lat":21.735,"lon":81.94711,"population":57537,"iso_a3":"IND","country":"India","is_capital":false,"name_en":"Bhātāpāra","name_es":"Bhātāpāra","name_fr":"Bhātāpāra","name_it":"Bhātāpāra","name_ru":"Bhātāpāra","elevation":275.0,"timezone":"Asia/Kolkata","admin1_name":"Chhattisgarh"},{"name":"Mahāsamund","lat":21.10743,"lon":82.0948,"population":54413,"iso_a3":"IND","country":"India","is_capital":false,"name_en":"Mahāsamund","name_es":"Mahāsamund","name_fr":"Mahāsamund","name_it":"Mahāsamund","name_ru":"Mahāsamund","elevation":299.0,"timezone":"Asia/Kolkata","admin1_name":"Chhattisgarh"},{"name":"Burla","lat":21.50976,"lon":83.87259,"population":46698,"iso_a3":"IND","country":"India","is_capital":false,"name_en":"Burla","name_es":"Burla","name_fr":"Burla","name_it":"Burla","name_ru":"Burla","elevation":167.0,"timezone":"Asia/Kolkata","admin1_name":"Odisha"},{"name":"Belpahar","lat":21.8218,"lon":83.8458,"population":38993,"iso_a3":"IND","country":"India","is_capital":false,"name_en":"Belpahar","name_es":"Belpahar","name_fr":"Belpahar","name_it":"Belpahar","name_ru":"Belpahar","elevation":224.0,"timezone":"Asia/Kolkata","admin1_name":"Odisha"},{"name":"Phulbāni","lat":20.48101,"lon":84.23063,"population":37371,"iso_a3":"IND","country":"India","is_capital":false,"name_en":"Phulbāni","name_es":"Phulbāni","name_fr":"Phulbāni","name_it":"Phulbāni","name_ru":"Phulbāni","elevation":482.0,"timezone":"Asia/Kolkata","admin1_name":"Odisha"},{"name":"Tilda Newra","lat":21.55324,"lon":81.80187,"population":36682,"iso_a3":"IND","country":"India","is_capital":false,"name_en":"Tilda Newra","name_es":"Tilda Newra","name_fr":"Tilda Newra","name_it":"Tilda Newra","name_ru":"Tilda Newra","elevation":283.0,"timezone":"Asia/Kolkata","admin1_name":"Chhattisgarh"},{"name":"Titlāgarh","lat":20.28961,"lon":83.15233,"population":34067,"iso_a3":"IND","country":"India","is_capital":false,"name_en":"Titlāgarh","name_es":"Titlāgarh","name_fr":"Titlāgarh","name_it":"Titlāgarh","name_ru":"Titlāgarh","elevation":217.0,"timezone":"Asia/Kolkata","admin1_name":"Odisha"},{"name":"Kondagaon","lat":19.59083,"lon":81.664,"population":30921,"iso_a3":"IND","country":"India","is_capital":false,"name_en":"Kondagaon","name_es":"Kondagaon","name_fr":"Kondagaon","name_it":"Kondagaon","name_ru":"Kondagaon","elevation":597.0,"timezone":"Asia/Kolkata","admin1_name":"Chhattisgarh"}]