[{"name":"Bahraigh","lat":27.57429,"lon":81.59474,"population":182218,"iso_a3":"IND","country":"India","is_capital":false,"name_en":"Bahraich","name_es":"Bahraich","name_fr":"Bahraich","name_it":"Bahraich","name_ru":"Bahraich","elevation":127.0,"timezone":"Asia/Kolkata","admin1_name":"Uttar Pradesh"},{"name":"Gondā City","lat":27.13181,"lon":81.95332,"population":133583,"iso_a3":"IND","country":"India","is_capital":false,"name_en":"Gondā City","name_es":"Gondā City","name_fr":"Gondā City","name_it":"Gondā City","name_ru":"Гонда","elevation":113.0,"timezone":"Asia/Kolkata","admin1_name":"Uttar Pradesh"},{"name":"Bagaha","lat":27.09918,"lon":84.09003,"population":112634,"iso_a3":"IND","country":"India","is_capital":false,"name_en":"Bagaha","name_es":"Bagaha","name_fr":"Bagaha","name_it":"Bagaha","name_ru":"Bagaha","elevation":94.0,"timezone":"Asia/Kolkata","admin1_name":"Bihar"},{"name":"Balrāmpur","lat":27.42949,"lon":82.18545,"population":77396,"iso_a3":"IND","country":"India","is_capital":false,"name_en":"Balrāmpur","name_es":"Balrāmpur","name_fr":"Balrāmpur","name_it":"Balrāmpur","name_ru":"Balrāmpur","elevation":112.0,"timezone":"Asia/Kolkata","admin1_name":"Uttar Pradesh"},{"name":"Rāmnagar","lat":27.16371,"lon":84.32342,"population":48411,"iso_a3":"IND","country":"India","is_capital":false,"name_en":"Rāmnagar","name_es":"Rāmnagar","name_fr":"Rāmnagar","name_it":"Rāmnagar","name_ru":"Rāmnagar","elevation":100.0,"timezone":"Asia/Kolkata","admin1_name":"Bihar"},{"name":"Bānsi","lat":27.17749,"lon":82.93442,"population":39926,"iso_a3":"IND","country":"India","is_capital":false,"name_en":"Bānsi","name_es":"Bānsi","name_fr":"Bānsi","name_it":"Bānsi","name_ru":"Bānsi","elevation":91.0,"timezone":"Asia/Kolkata","admin1_name":"Uttar Pradesh"},{"name":"Nautanwa","lat":27.42752,"lon":83.41789,"population":32587,"iso_a3":"IND","country":"India","is_capital":false,"name_en":"Nautanwa","name_es":"Nautanwa","name_fr":"Nautanwa","name_it":"Nautanwa","name_ru":"Nautanwa","elevation":105.0,"timezone":"Asia/Kolkata","admin1_name":"Uttar Pradesh"},{"name":"Mahārāganj","lat":27.14456,"lon":83.56214,"population":30548,"iso_a3":"IND","country":"India","is_capital":false,"name_en":"Mahārāganj","name_es":"Mahārāganj","name_fr":"Mahārāganj","name_it":"Mahārāganj","name_ru":"Mahārāganj","elevation":96.0,"timezone":"Asia/Kolkata","admin1_name":"Uttar Pradesh"},{"name":"Butwāl","lat":27.70055,"lon":83.44836,"population":195054,"iso_a3":"NPL","country":"Nepal","is_capital":false,"name_en":"Butwāl","name_es":"Butwāl","name_fr":"Butwāl","name_it":"Butwāl","name_ru":"Butwāl","elevation":322.0,"timezone":"Asia/Kathmandu","admin1_name":"Lumbini Province"},{"name":"Nepalgunj","lat":28.05,"lon":81.61667,"population":166258,"iso_a3":"NPL","country":"Nepal","is_capital":false,"name_en":"Nepalgunj","name_es":"Nepalgunj","name_fr":"Nepalgunj","name_it":"Nepalgunj","name_ru":"Непалгун","elevation":150.0,"timezone":"Asia/Kathmandu","admin1_name":"Lumbini Province"},{"name":"Birendranagar","lat":28.59669,"lon":81.61658,"population":154886,"iso_a3":"NPL","country":"Nepal","is_capital":false,"name_en":"Birendranagar","name_es":"Birendranagar","name_fr":"Birendranagar","name_it":"Birendranagara","name_ru":"Бирендранаган","elevation":697.0,"timezone":"Asia/Kathmandu","admin1_name":"Karnali Pradesh"},{"name":"Siddharthanagar","lat":27.5,"lon":83.45,"population":63367,"iso_a3":"NPL","country":"Nepal","is_capital":false,"name_en":"Siddharthanagar","name_es":"Siddharthanagar","name_fr":"Siddharthanagar","name_it":"Siddharthanagar","name_ru":"Siddharthanagar","elevation":107.0,"timezone":"Asia/Kathmandu","admin1_name":"Lumbini Province"},{"name":"Tulsi̇̄pur","lat":28.13328,"lon":82.29803,"population":39058,"iso_a3":"NPL","country":"Nepal","is_capital":false,"name_en":"Tulsi̇̄pur","name_es":"Tulsi̇̄pur","name_fr":"Tulsi̇̄pur","name_it":"Tulsi̇̄pur","name_ru":"Tulsi̇̄pur","elevation":673.0,"timezone":"Asia/Kathmandu","admin1_name":"Lumbini Province"}]