[{"name":"Shibganj","lat":25.00146,"lon":89.32266,"population":378701,"iso_a3":"BGD","country":"Bangladesh","is_capital":false,"name_en":"Shibganj","name_es":"Shibganj","name_fr":"Shibganj","name_it":"Shibganj","name_ru":"Шибгандж","elevation":26.0,"timezone":"Asia/Dhaka","admin1_name":"Rajshahi Division"},{"name":"Bogra","lat":24.85098,"lon":89.37108,"population":210000,"iso_a3":"BGD","country":"Bangladesh","is_capital":false,"name_en":"Bogra","name_es":"Bogra","name_fr":"Bogra","name_it":"Bogra","name_ru":"Богра","elevation":26.0,"timezone":"Asia/Dhaka","admin1_name":"Rajshahi Division"},{"name":"Dinajpur","lat":25.62745,"lon":88.63779,"population":206234,"iso_a3":"BGD","country":"Bangladesh","is_capital":false,"name_en":"Dinajpur","name_es":"Dinajpur","name_fr":"Dinajpur","name_it":"Dinajpur","name_ru":"Dinajpur","elevation":42.0,"timezone":"Asia/Dhaka","admin1_name":"Rangpur Division"},{"name":"Saidpur","lat":25.77769,"lon":88.89169,"population":199422,"iso_a3":"BGD","country":"Bangladesh","is_capital":false,"name_en":"Saidpur","name_es":"Saidpur","name_fr":"Saidpur","name_it":"Saidpur","name_ru":"Saidpur","elevation":43.0,"timezone":"Asia/Dhaka","admin1_name":"Rangpur Division"},{"name":"Pār Naogaon","lat":24.80418,"lon":88.94875,"population":192464,"iso_a3":"BGD","country":"Bangladesh","is_capital":false,"name_en":"Naogaon","name_es":"Naogaon","name_fr":"Naogaon","name_it":"Naogaon","name_ru":"Naogaon","elevation":20.0,"timezone":"Asia/Dhaka","admin1_name":"Rajshahi Division"},{"name":"Jamālpur","lat":24.91965,"lon":89.94812,"population":167900,"iso_a3":"BGD","country":"Bangladesh","is_capital":false,"name_en":"Jamālpur","name_es":"Jamālpur","name_fr":"Jamālpur","name_it":"Jamālpur","name_ru":"Jamālpur","elevation":23.0,"timezone":"Asia/Dhaka","admin1_name":"Mymensingh Division"},{"name":"Nawābganj","lat":24.59025,"lon":88.27444,"population":142361,"iso_a3":"BGD","country":"Bangladesh","is_capital":false,"name_en":"Nawābganj","name_es":"Nawābganj","name_fr":"Nawābganj","name_it":"Nawābganj","name_ru":"Nawābganj","elevation":28.0,"timezone":"Asia/Dhaka","admin1_name":"Rajshahi Division"},{"name":"Sarishābāri","lat":24.75127,"lon":89.83126,"population":81325,"iso_a3":"BGD","country":"Bangladesh","is_capital":false,"name_en":"Sarishābāri","name_es":"Sarishābāri","name_fr":"Sarishābāri","name_it":"Sarishābāri","name_ru":"Sarishābāri","elevation":22.0,"timezone":"Asia/Dhaka","admin1_name":"Mymensingh Division"},{"name":"Joypur Hāt","lat":25.10147,"lon":89.02734,"population":73068,"iso_a3":"BGD","country":"Bangladesh","is_capital":false,"name_en":"Joypur Hāt","name_es":"Joypur Hāt","name_fr":"Joypur Hāt","name_it":"Joypur Hāt","name_ru":"Joypur Hāt","elevation":24.0,"timezone":"Asia/Dhaka","admin1_name":"Rajshahi Division"},{"name":"Thākurgaon","lat":26.03097,"lon":88.46989,"population":71096,"iso_a3":"BGD","country":"Bangladesh","is_capital":false,"name_en":"Thakurgaon","name_es":"Thakurgaon","name_fr":"Thakurgaon","name_it":"Thakurgaon","name_ru":"Тхакургаон","elevation":57.0,"timezone":"Asia/Dhaka","admin1_name":"Rangpur Division"},{"name":"Lalmonirhat","lat":25.91719,"lon":89.44595,"population":65127,"iso_a3":"BGD","country":"Bangladesh","is_capital":false,"name_en":"Lalmonirhat","name_es":"Lalmonirhat","name_fr":"Lalmonirhat","name_it":"Lalmonirhat","name_ru":"Lalmonirhat","elevation":38.0,"timezone":"Asia/Dhaka","admin1_name":"Rangpur Division"},{"name":"Chilmāri","lat":25.55613,"lon":89.67097,"population":49736,"iso_a3":"BGD","country":"Bangladesh","is_capital":false,"name_en":"Chilmāri","name_es":"Chilmāri","name_fr":"Chilmāri","name_it":"Chilmāri","name_ru":"Chilmāri","elevation":27.0,"timezone":"Asia/Dhaka","admin1_name":"Rangpur Division"},{"name":"Nageswari","lat":25.96817,"lon":89.69153,"population":49425,"iso_a3":"BGD","country":"Bangladesh","is_capital":false,"name_en":"Nageswari","name_es":"Nageswari","name_fr":"Nageswari","name_it":"Nageswari","name_ru":"Nageswari","elevation":33.0,"timezone":"Asia/Dhaka","admin1_name":"Rangpur Division"},{"name":"Panchagarh","lat":26.33338,"lon":88.55777,"population":48531,"iso_a3":"BGD","country":"Bangladesh","is_capital":false,"name_en":"Panchagarh","name_es":"Panchagarh","name_fr":"Panchagarh","name_it":"Panchagarh","name_ru":"Panchagarh","elevation":79.0,"timezone":"Asia/Dhaka","admin1_name":"Rangpur Division"},{"name":"Parbatipur","lat":25.66369,"lon":88.93093,"population":48020,"iso_a3":"BGD","country":"Bangladesh","is_capital":false,"name_en":"Parbatipur","name_es":"Parbatipur","name_fr":"Parbatipur","name_it":"Parbatipur","name_ru":"Parbatipur","elevation":39.0,"timezone":"Asia/Dhaka","admin1_name":"Rangpur Division"},{"name":"Shibganj","lat":24.68501,"lon":88.15638,"population":35961,"iso_a3":"BGD","country":"Bangladesh","is_capital":false,"name_en":"Shibganj","name_es":"Shibganj","name_fr":"Shibganj","name_it":"Shibganj","name_ru":"Shibganj","elevation":30.0,"timezone":"Asia/Dhaka","admin1_name":"Rajshahi Division"},{"name":"Pīrgaaj","lat":25.85587,"lon":88.35943,"population":34606,"iso_a3":"BGD","country":"Bangladesh","is_capital":false,"name_en":"Pīrgaaj","name_es":"Pīrgaaj","name_fr":"Pīrgaaj","name_it":"Pīrgaaj","name_ru":"Pīrgaaj","elevation":49.0,"timezone":"Asia/Dhaka","admin1_name":"Rangpur Division"},{"name":"Badarganj","lat":25.67419,"lon":89.05377,"population":32600,"iso_a3":"BGD","country":"Bangladesh","is_capital":false,"name_en":"Badarganj","name_es":"Badarganj","name_fr":"Badarganj","name_it":"Badarganj","name_ru":"Badarganj","elevation":40.0,"timezone":"Asia/Dhaka","admin1_name":"Rangpur Division"},{"name":"Purnia","lat":25.77895,"lon":87.47422,"population":282248,"iso_a3":"IND","country":"India","is_capital":false,"name_en":"Purnia","name_es":"Purnia","name_fr":"Purnia","name_it":"Purnia","name_ru":"Пурния","elevation":44.0,"timezone":"Asia/Kolkata","admin1_name":"Bihar"},{"name":"Katihar","lat":25.53852,"lon":87.57044,"population":240838,"iso_a3":"IND","country":"India","is_capital":false,"name_en":"Katihar","name_es":"Katihar","name_fr":"Katihar","name_it":"Katihar","name_ru":"Katihar","elevation":34.0,"timezone":"Asia/Kolkata","admin1_name":"Bihar"},{"name":"Rāiganj","lat":25.61281,"lon":88.12449,"population":170252,"iso_a3":"IND","country":"India","is_capital":false,"name_en":"Rāiganj","name_es":"Rāiganj","name_fr":"Rāiganj","name_it":"Rāiganj","name_ru":"Rāiganj","elevation":38.0,"timezone":"Asia/Kolkata","admin1_name":"West Bengal"},{"name":"Malda","lat":25.00447,"lon":88.14573,"population":170039,"iso_a3":"IND","country":"India","is_capital":false,"name_en":"English Bazar","name_es":"English Bazar","name_fr":"English Bazar","name_it":"English Bazar","name_ru":"English Bazar","elevation":32.0,"timezone":"Asia/Kolkata","admin1_name":"West Bengal"},{"name":"Jaigaon","lat":26.84766,"lon":89.37558,"population":158664,"iso_a3":"IND","country":"India","is_capital":false,"name_en":"Jaigaon","name_es":"Jaigaon","name_fr":"Jaigaon","name_it":"Jaigaon","name_ru":"Jaigaon","elevation":196.0,"timezone":"Asia/Kolkata","admin1_name":"West Bengal"},{"name":"Bālurghāt","lat":25.22099,"lon":88.77732,"population":153279,"iso_a3":"IND","country":"India","is_capital":false,"name_en":"Bālurghāt","name_es":"Bālurghāt","name_fr":"Bālurghāt","name_it":"Bālurghāt","name_ru":"Bālurghāt","elevation":29.0,"timezone":"Asia/Kolkata","admin1_name":"West Bengal"},{"name":"Dārjiling","lat":27.03333,"lon":88.26667,"population":123797,"iso_a3":"IND","country":"India","is_capital":false,"name_en":"Darjeeling","name_es":"Darjeeling","name_fr":"Darjeeling","name_it":"Darjeeling","name_ru":"Дарджилинг","elevation":2127.0,"timezone":"Asia/Kolkata","admin1_name":"West Bengal"},{"name":"Jalpāiguri","lat":26.51667,"lon":88.73333,"population":107832,"iso_a3":"IND","country":"India","is_capital":false,"name_en":"Jalpāiguri","name_es":"Jalpāiguri","name_fr":"Jalpāiguri","name_it":"Jalpāiguri","name_ru":"Jalpāiguri","elevation":87.0,"timezone":"Asia/Kolkata","admin1_name":"West Bengal"},{"name":"Kishanganj","lat":26.10224,"lon":87.95534,"population":105782,"iso_a3":"IND","country":"India","is_capital":false,"name_en":"Kishanganj","name_es":"Kishanganj","name_fr":"Kishanganj","name_it":"Kishanganj","name_ru":"Kishanganj","elevation":57.0,"timezone":"Asia/Kolkata","admin1_name":"Bihar"},{"name":"Sāhibganj","lat":25.24425,"lon":87.63481,"population":95890,"iso_a3":"IND","country":"India","is_capital":false,"name_en":"Sāhibganj","name_es":"Sāhibganj","name_fr":"Sāhibganj","name_it":"Sāhibganj","name_ru":"Sāhibganj","elevation":44.0,"timezone":"Asia/Kolkata","admin1_name":"Jharkhand"},{"name":"Arāria","lat":26.14934,"lon":87.51323,"population":79021,"iso_a3":"IND","country":"India","is_capital":false,"name_en":"Arāria","name_es":"Arāria","name_fr":"Arāria","name_it":"Arāria","name_ru":"Арария","elevation":56.0,"timezone":"Asia/Kolkata","admin1_name":"Bihar"},{"name":"Koch Bihār","lat":26.32539,"lon":89.44508,"population":78737,"iso_a3":"IND","country":"India","is_capital":false,"name_en":"Koch Bihār","name_es":"Koch Bihār","name_fr":"Koch Bihār","name_it":"Koch Bihār","name_ru":"Koch Bihār","elevation":47.0,"timezone":"Asia/Kolkata","admin1_name":"West Bengal"},{"name":"Dhuliān","lat":24.68127,"lon":87.9535,"population":77070,"iso_a3":"IND","country":"India","is_capital":false,"name_en":"Dhulian","name_es":"Dhulian","name_fr":"Dhulian","name_it":"Dhulian","name_ru":"Dhulian","elevation":28.0,"timezone":"Asia/Kolkata","admin1_name":"West Bengal"},{"name":"Goyerkāta","lat":26.69984,"lon":89.02565,"population":66358,"iso_a3":"IND","country":"India","is_capital":false,"name_en":"Goyerkāta","name_es":"Goyerkāta","name_fr":"Goyerkāta","name_it":"Goyerkāta","name_ru":"Goyerkāta","elevation":104.0,"timezone":"Asia/Kolkata","admin1_name":"West Bengal"},{"name":"Gangārāmpur","lat":25.40138,"lon":88.52978,"population":65316,"iso_a3":"IND","country":"India","is_capital":false,"name_en":"Gangarampur","name_es":"Gangarampur","name_fr":"Gangarampur","name_it":"Gangarampur","name_ru":"Gangarampur","elevation":32.0,"timezone":"Asia/Kolkata","admin1_name":"West Bengal"},{"name":"Alīpur Duār","lat":26.4835,"lon":89.52286,"population":65232,"iso_a3":"IND","country":"India","is_capital":false,"name_en":"Alīpur Duār","name_es":"Alīpur Duār","name_fr":"Alīpur Duār","name_it":"Alīpur Duār","name_ru":"Alīpur Duār","elevation":49.0,"timezone":"Asia/Kolkata","admin1_name":"West Bengal"},{"name":"Dhubri","lat":26.01856,"lon":89.98564,"population":63388,"iso_a3":"IND","country":"India","is_capital":false,"name_en":"Dhubri","name_es":"Dhubri","name_fr":"Dhubri","name_it":"Dhubri","name_ru":"Dhubri","elevation":34.0,"timezone":"Asia/Kolkata","admin1_name":"Assam"},{"name":"Naksalbāri","lat":26.6827,"lon":88.22001,"population":57283,"iso_a3":"IND","country":"India","is_capital":false,"name_en":"Naksalbāri","name_es":"Naksalbāri","name_fr":"Naksalbāri","name_it":"Naksalbāri","name_ru":"Naksalbāri","elevation":165.0,"timezone":"Asia/Kolkata","admin1_name":"West Bengal"},{"name":"Islāmpur","lat":26.26541,"lon":88.18982,"population":55691,"iso_a3":"IND","country":"India","is_capital":false,"name_en":"Islāmpur","name_es":"Islāmpur","name_fr":"Islāmpur","name_it":"Islāmpur","name_ru":"Islāmpur","elevation":70.0,"timezone":"Asia/Kolkata","admin1_name":"West Bengal"},{"name":"Kāliyāganj","lat":25.63442,"lon":88.32665,"population":51748,"iso_a3":"IND","country":"India","is_capital":false,"name_en":"Kāliyāganj","name_es":"Kāliyāganj","name_fr":"Kāliyāganj","name_it":"Kāliyāganj","name_ru":"Kāliyāganj","elevation":41.0,"timezone":"Asia/Kolkata","admin1_name":"West Bengal"},{"name":"Forbesganj","lat":26.30253,"lon":87.26556,"population":50475,"iso_a3":"IND","country":"India","is_capital":false,"name_en":"Forbesganj","name_es":"Forbesganj","name_fr":"Forbesganj","name_it":"Forbesganj","name_ru":"Forbesganj","elevation":65.0,"timezone":"Asia/Kolkata","admin1_name":"Bihar"},{"name":"Godda","lat":24.827,"lon":87.2125,"population":48480,"iso_a3":"IND","country":"India","is_capital":false,"name_en":"Godda","name_es":"Godda","name_fr":"Godda","name_it":"Godda","name_ru":"Годда","elevation":102.0,"timezone":"Asia/Kolkata","admin1_name":"Jharkhand"},{"name":"Kurseong","lat":26.88251,"lon":88.27729,"population":46427,"iso_a3":"IND","country":"India","is_capital":false,"name_en":"Kurseong","name_es":"Kurseong","name_fr":"Kurseong","name_it":"Kurseong","name_ru":"Kurseong","elevation":1501.0,"timezone":"Asia/Kolkata","admin1_name":"West Bengal"},{"name":"Pakur","lat":24.63925,"lon":87.84239,"population":45840,"iso_a3":"IND","country":"India","is_capital":false,"name_en":"Pakur","name_es":"Pakur","name_fr":"Pakur","name_it":"Pakur","name_ru":"Pakur","elevation":47.0,"timezone":"Asia/Kolkata","admin1_name":"Jharkhand"},{"name":"Dīnhāta","lat":26.13526,"lon":89.46129,"population":42381,"iso_a3":"IND","country":"India","is_capital":false,"name_en":"Dīnhāta","name_es":"Dīnhāta","name_fr":"Dīnhāta","name_it":"Dīnhāta","name_ru":"Dīnhāta","elevation":42.0,"timezone":"Asia/Kolkata","admin1_name":"West Bengal"},{"name":"Dhupgāri","lat":26.58904,"lon":89.00732,"population":41168,"iso_a3":"IND","country":"India","is_capital":false,"name_en":"Dhupgāri","name_es":"Dhupgāri","name_fr":"Dhupgāri","name_it":"Dhupgāri","name_ru":"Dhupgāri","elevation":82.0,"timezone":"Asia/Kolkata","admin1_name":"West Bengal"},{"name":"Hāsimāra","lat":26.7469,"lon":89.35385,"population":40000,"iso_a3":"IND","country":"India","is_capital":false,"name_en":"Hāsimāra","name_es":"Hāsimāra","name_fr":"Hāsimāra","name_it":"Hāsimāra","name_ru":"Hāsimāra","elevation":139.0,"timezone":"Asia/Kolkata","admin1_name":"West Bengal"},{"name":"Jogbani","lat":26.39905,"lon":87.26525,"population":39281,"iso_a3":"IND","country":"India","is_capital":false,"name_en":"Jogbani","name_es":"Jogbani","name_fr":"Jogbani","name_it":"Jogbani","name_ru":"Jogbani","elevation":68.0,"timezone":"Asia/Kolkata","admin1_name":"Bihar"},{"name":"Bahādurganj","lat":26.26172,"lon":87.82443,"population":36993,"iso_a3":"IND","country":"India","is_capital":false,"name_en":"Bahādurganj","name_es":"Bahādurganj","name_fr":"Bahādurganj","name_it":"Bahādurganj","name_ru":"Bahādurganj","elevation":57.0,"timezone":"Asia/Kolkata","admin1_name":"Bihar"},{"name":"Colgong","lat":25.26328,"lon":87.23264,"population":33700,"iso_a3":"IND","country":"India","is_capital":false,"name_en":"Colgong","name_es":"Colgong","name_fr":"Colgong","name_it":"Colgong","name_ru":"Colgong","elevation":49.0,"timezone":"Asia/Kolkata","admin1_name":"Bihar"},{"name":"Mankāchar","lat":25.53347,"lon":89.86373,"population":31091,"iso_a3":"IND","country":"India","is_capital":false,"name_en":"Mankāchar","name_es":"Mankāchar","name_fr":"Mankāchar","name_it":"Mankāchar","name_ru":"Mankāchar","elevation":30.0,"timezone":"Asia/Kolkata","admin1_name":"Meghalaya"},{"name":"Kasba","lat":25.85643,"lon":87.53836,"population":30421,"iso_a3":"IND","country":"India","is_capital":false,"name_en":"Kasba","name_es":"Kasba","name_fr":"Kasba","name_it":"Kasba","name_ru":"Kasba","elevation":47.0,"timezone":"Asia/Kolkata","admin1_name":"Bihar"},{"name":"Banmankhi Bazar","lat":25.88761,"lon":87.19356,"population":30336,"iso_a3":"IND","country":"India","is_capital":false,"name_en":"Banmankhi Bazar","name_es":"Banmankhi Bazar","name_fr":"Banmankhi Bazar","name_it":"Banmankhi Bazar","name_ru":"Banmankhi Bazar","elevation":41.0,"timezone":"Asia/Kolkata","admin1_name":"Bihar"},{"name":"Birpara","lat":26.70421,"lon":89.14547,"population":30000,"iso_a3":"IND","country":"India","is_capital":false,"name_en":"Birpara","name_es":"Birpara","name_fr":"Birpara","name_it":"Birpara","name_ru":"Birpara","elevation":110.0,"timezone":"Asia/Kolkata","admin1_name":"West Bengal"},{"name":"Biratnagar","lat":26.45505,"lon":87.27007,"population":244750,"iso_a3":"NPL","country":"Nepal","is_capital":false,"name_en":"Biratnagar","name_es":"Biratnagar","name_fr":"Biratnagar","name_it":"Biratnagar","name_ru":"Биратнагар","elevation":74.0,"timezone":"Asia/Kathmandu","admin1_name":"Koshi"},{"name":"Dharān","lat":26.81436,"lon":87.27972,"population":173096,"iso_a3":"NPL","country":"Nepal","is_capital":false,"name_en":"Dharān","name_es":"Dharān","name_fr":"Dharān","name_it":"Dharān","name_ru":"Dharān","elevation":375.0,"timezone":"Asia/Kathmandu","admin1_name":"Koshi"},{"name":"Īṭahari̇̄","lat":26.66371,"lon":87.27403,"population":47984,"iso_a3":"NPL","country":"Nepal","is_capital":false,"name_en":"Īṭahari̇̄","name_es":"Īṭahari̇̄","name_fr":"Īṭahari̇̄","name_it":"Īṭahari̇̄","name_ru":"Īṭahari̇̄","elevation":118.0,"timezone":"Asia/Kathmandu","admin1_name":"Koshi"}]