[{"name":"Natore","lat":24.41112,"lon":88.98673,"population":369138,"iso_a3":"BGD","country":"Bangladesh","is_capital":false,"name_en":"Natore","name_es":"Natore","name_fr":"Natore","name_it":"Natore","name_ru":"Натор","elevation":22.0,"timezone":"Asia/Dhaka","admin1_name":"Rajshahi Division"},{"name":"Bagerhat","lat":22.65657,"lon":89.79123,"population":266388,"iso_a3":"BGD","country":"Bangladesh","is_capital":false,"name_en":"Bagerhat","name_es":"Bagerhat","name_fr":"Bagerhat","name_it":"Bagerhat","name_ru":"Багерхат","elevation":7.0,"timezone":"Asia/Dhaka","admin1_name":"Khulna Division"},{"name":"Jessore","lat":23.16971,"lon":89.21371,"population":243987,"iso_a3":"BGD","country":"Bangladesh","is_capital":false,"name_en":"Jessore","name_es":"Jessore","name_fr":"Jessore","name_it":"Jessore","name_ru":"Jessore","elevation":15.0,"timezone":"Asia/Dhaka","admin1_name":"Khulna Division"},{"name":"Nāgarpur","lat":24.05783,"lon":89.87696,"population":238422,"iso_a3":"BGD","country":"Bangladesh","is_capital":false,"name_en":"Nāgarpur","name_es":"Nāgarpur","name_fr":"Nāgarpur","name_it":"Nāgarpur","name_ru":"Nāgarpur","elevation":15.0,"timezone":"Asia/Dhaka","admin1_name":"Dhaka Division"},{"name":"Pābna","lat":24.00644,"lon":89.2372,"population":186781,"iso_a3":"BGD","country":"Bangladesh","is_capital":false,"name_en":"Pābna","name_es":"Pābna","name_fr":"Pābna","name_it":"Pābna","name_ru":"Пабне","elevation":19.0,"timezone":"Asia/Dhaka","admin1_name":"Rajshahi Division"},{"name":"Tangail","lat":24.24984,"lon":89.91655,"population":180144,"iso_a3":"BGD","country":"Bangladesh","is_capital":false,"name_en":"Tangail","name_es":"Tangail","name_fr":"Tangail","name_it":"Tangail","name_ru":"Tangail","elevation":17.0,"timezone":"Asia/Dhaka","admin1_name":"Dhaka Division"},{"name":"Puthia","lat":24.36537,"lon":88.83431,"population":159406,"iso_a3":"BGD","country":"Bangladesh","is_capital":false,"name_en":"Puthia","name_es":"Puthia","name_fr":"Puthia","name_it":"Puthia","name_ru":"Путхия","elevation":20.0,"timezone":"Asia/Dhaka","admin1_name":"Rajshahi Division"},{"name":"Kushtia","lat":23.9028,"lon":89.11943,"population":135724,"iso_a3":"BGD","country":"Bangladesh","is_capital":false,"name_en":"Kushtia","name_es":"Kushtia","name_fr":"Kushtia","name_it":"Kushtia","name_ru":"Kushtia","elevation":17.0,"timezone":"Asia/Dhaka","admin1_name":"Khulna Division"},{"name":"Sātkhira","lat":22.70817,"lon":89.07185,"population":128918,"iso_a3":"BGD","country":"Bangladesh","is_capital":false,"name_en":"Sātkhira","name_es":"Sātkhira","name_fr":"Sātkhira","name_it":"Sātkhira","name_ru":"Sātkhira","elevation":11.0,"timezone":"Asia/Dhaka","admin1_name":"Khulna Division"},{"name":"Sirajganj","lat":24.45771,"lon":89.70802,"population":127481,"iso_a3":"BGD","country":"Bangladesh","is_capital":false,"name_en":"Sirajganj","name_es":"Sirajganj","name_fr":"Sirajganj","name_it":"Sirajganj","name_ru":"Сираджгандж","elevation":19.0,"timezone":"Asia/Dhaka","admin1_name":"Rajshahi Division"},{"name":"Tungipara","lat":22.89983,"lon":89.90326,"population":114482,"iso_a3":"BGD","country":"Bangladesh","is_capital":false,"name_en":"Tungipara","name_es":"Tungipara","name_fr":"Tungipara","name_it":"Tungipara","name_ru":"Tungipara","elevation":8.0,"timezone":"Asia/Dhaka","admin1_name":"Dhaka Division"},{"name":"Farīdpur","lat":23.60612,"lon":89.84064,"population":112187,"iso_a3":"BGD","country":"Bangladesh","is_capital":false,"name_en":"Farīdpur","name_es":"Farīdpur","name_fr":"Farīdpur","name_it":"Farīdpur","name_ru":"Farīdpur","elevation":15.0,"timezone":"Asia/Dhaka","admin1_name":"Dhaka Division"},{"name":"Shāhzādpur","lat":24.17687,"lon":89.5988,"population":102420,"iso_a3":"BGD","country":"Bangladesh","is_capital":false,"name_en":"Shāhzādpur","name_es":"Shāhzādpur","name_fr":"Shāhzādpur","name_it":"Shāhzādpur","name_ru":"Shāhzādpur","elevation":16.0,"timezone":"Asia/Dhaka","admin1_name":"Rajshahi Division"},{"name":"Ishwardi","lat":24.12858,"lon":89.06573,"population":81995,"iso_a3":"BGD","country":"Bangladesh","is_capital":false,"name_en":"Ishwardi","name_es":"Ishwardi","name_fr":"Ishwardi","name_it":"Ishwardi","name_ru":"Ishwardi","elevation":19.0,"timezone":"Asia/Dhaka","admin1_name":"Rajshahi Division"},{"name":"Narail","lat":23.15509,"lon":89.49515,"population":55112,"iso_a3":"BGD","country":"Bangladesh","is_capital":false,"name_en":"Narail","name_es":"Narail","name_fr":"Narail","name_it":"Narail","name_ru":"Нарайл","elevation":11.0,"timezone":"Asia/Dhaka","admin1_name":"Khulna Division"},{"name":"Pirojpur","lat":22.57965,"lon":89.97521,"population":54418,"iso_a3":"BGD","country":"Bangladesh","is_capital":false,"name_en":"Pirojpur","name_es":"Pirojpur","name_fr":"Pirojpur","name_it":"Pirojpur","name_ru":"Pirojpur","elevation":10.0,"timezone":"Asia/Dhaka","admin1_name":"Barisal Division"},{"name":"Kālīganj","lat":23.40964,"lon":89.13801,"population":45631,"iso_a3":"BGD","country":"Bangladesh","is_capital":false,"name_en":"Kālīganj","name_es":"Kālīganj","name_fr":"Kālīganj","name_it":"Kālīganj","name_ru":"Kālīganj","elevation":16.0,"timezone":"Asia/Dhaka","admin1_name":"Khulna Division"},{"name":"Bhanga","lat":23.39194,"lon":89.98389,"population":43202,"iso_a3":"BGD","country":"Bangladesh","is_capital":false,"name_en":"Bhanga","name_es":"Bhanga","name_fr":"Bhanga","name_it":"Bhanga","name_ru":"Bhanga","elevation":7.0,"timezone":"Asia/Dhaka","admin1_name":"Dhaka Division"},{"name":"Bhātpāra Abhaynagar","lat":23.01472,"lon":89.43936,"population":42653,"iso_a3":"BGD","country":"Bangladesh","is_capital":false,"name_en":"Bhātpāra Abhaynagar","name_es":"Bhātpāra Abhaynagar","name_fr":"Bhātpāra Abhaynagar","name_it":"Bhātpāra Abhaynagar","name_ru":"Bhātpāra Abhaynagar","elevation":9.0,"timezone":"Asia/Dhaka","admin1_name":"Khulna Division"},{"name":"Jhingergācha","lat":23.11134,"lon":89.09061,"population":41957,"iso_a3":"BGD","country":"Bangladesh","is_capital":false,"name_en":"Jhingergācha","name_es":"Jhingergācha","name_fr":"Jhingergācha","name_it":"Jhingergācha","name_ru":"Jhingergācha","elevation":15.0,"timezone":"Asia/Dhaka","admin1_name":"Khulna Division"},{"name":"Kālia","lat":23.043,"lon":89.63094,"population":40492,"iso_a3":"BGD","country":"Bangladesh","is_capital":false,"name_en":"Kālia","name_es":"Kālia","name_fr":"Kālia","name_it":"Kālia","name_ru":"Калия","elevation":9.0,"timezone":"Asia/Dhaka","admin1_name":"Khulna Division"},{"name":"Bera","lat":24.07821,"lon":89.63262,"population":39604,"iso_a3":"BGD","country":"Bangladesh","is_capital":false,"name_en":"Bera","name_es":"Bera","name_fr":"Bera","name_it":"Bera","name_ru":"Беру","elevation":14.0,"timezone":"Asia/Dhaka","admin1_name":"Rajshahi Division"},{"name":"Bherāmāra","lat":24.02452,"lon":88.99234,"population":38159,"iso_a3":"BGD","country":"Bangladesh","is_capital":false,"name_en":"Bherāmāra","name_es":"Bherāmāra","name_fr":"Bherāmāra","name_it":"Bherāmāra","name_ru":"Bherāmāra","elevation":19.0,"timezone":"Asia/Dhaka","admin1_name":"Khulna Division"},{"name":"Phultala","lat":22.71673,"lon":89.51194,"population":37985,"iso_a3":"BGD","country":"Bangladesh","is_capital":false,"name_en":"Phultala","name_es":"Phultala","name_fr":"Phultala","name_it":"Phultala","name_ru":"Phultala","elevation":7.0,"timezone":"Asia/Dhaka","admin1_name":"Khulna Division"},{"name":"Sarankhola","lat":22.31006,"lon":89.79113,"population":36470,"iso_a3":"BGD","country":"Bangladesh","is_capital":false,"name_en":"Sarankhola","name_es":"Sarankhola","name_fr":"Sarankhola","name_it":"Sarankhola","name_ru":"Sarankhola","elevation":9.0,"timezone":"Asia/Dhaka","admin1_name":"Khulna Division"},{"name":"Morrelgonj","lat":22.45566,"lon":89.85584,"population":31647,"iso_a3":"BGD","country":"Bangladesh","is_capital":false,"name_en":"Morrelgonj","name_es":"Morrelgonj","name_fr":"Morrelgonj","name_it":"Morrelgonj","name_ru":"Morrelgonj","elevation":8.0,"timezone":"Asia/Dhaka","admin1_name":"Khulna Division"},{"name":"Kesabpur","lat":22.90725,"lon":89.21954,"population":30926,"iso_a3":"BGD","country":"Bangladesh","is_capital":false,"name_en":"Kesabpur","name_es":"Kesabpur","name_fr":"Kesabpur","name_it":"Kesabpur","name_ru":"Kesabpur","elevation":7.0,"timezone":"Asia/Dhaka","admin1_name":"Khulna Division"},{"name":"Bhātpāra","lat":22.86643,"lon":88.40113,"population":483129,"iso_a3":"IND","country":"India","is_capital":false,"name_en":"Bhātpāra","name_es":"Bhātpāra","name_fr":"Bhātpāra","name_it":"Bhātpāra","name_ru":"Bhātpāra","elevation":14.0,"timezone":"Asia/Kolkata","admin1_name":"West Bengal"},{"name":"Maheshtala","lat":22.50862,"lon":88.25322,"population":448317,"iso_a3":"IND","country":"India","is_capital":false,"name_en":"Maheshtala","name_es":"Maheshtala","name_fr":"Maheshtala","name_it":"Maheshtala","name_ru":"Maheshtala","elevation":5.0,"timezone":"Asia/Kolkata","admin1_name":"West Bengal"},{"name":"Shyamnagar","lat":22.83333,"lon":88.36667,"population":441956,"iso_a3":"IND","country":"India","is_capital":false,"name_en":"Shyamnagar","name_es":"Shyamnagar","name_fr":"Shyamnagar","name_it":"Shyamnagar","name_ru":"Shyamnagar","elevation":8.0,"timezone":"Asia/Kolkata","admin1_name":"West Bengal"},{"name":"Rajpur Sonarpur","lat":22.4382,"lon":88.43205,"population":424368,"iso_a3":"IND","country":"India","is_capital":false,"name_en":"Rajpur","name_es":"Rajpur","name_fr":"Rajpur","name_it":"Rajpur","name_ru":"Rajpur","elevation":10.0,"timezone":"Asia/Kolkata","admin1_name":"West Bengal"},{"name":"Pānihāti","lat":22.69089,"lon":88.37404,"population":378705,"iso_a3":"IND","country":"India","is_capital":false,"name_en":"Pānihāti","name_es":"Pānihāti","name_fr":"Pānihāti","name_it":"Pānihāti","name_ru":"Pānihāti","elevation":11.0,"timezone":"Asia/Kolkata","admin1_name":"West Bengal"},{"name":"Barddhamān","lat":23.25572,"lon":87.85691,"population":301725,"iso_a3":"IND","country":"India","is_capital":false,"name_en":"Bardhaman","name_es":"Bardhaman","name_fr":"Bardhaman","name_it":"Bardhaman","name_ru":"Bardhaman","elevation":34.0,"timezone":"Asia/Kolkata","admin1_name":"West Bengal"},{"name":"Bārāsat","lat":22.72154,"lon":88.48198,"population":298127,"iso_a3":"IND","country":"India","is_capital":false,"name_en":"Bārāsat","name_es":"Bārāsat","name_fr":"Bārāsat","name_it":"Bārāsat","name_ru":"Bārāsat","elevation":11.0,"timezone":"Asia/Kolkata","admin1_name":"West Bengal"},{"name":"Bāli","lat":22.64859,"lon":88.34115,"population":296973,"iso_a3":"IND","country":"India","is_capital":false,"name_en":"Bāli","name_es":"Bāli","name_fr":"Bāli","name_it":"Bāli","name_ru":"Бали","elevation":8.0,"timezone":"Asia/Kolkata","admin1_name":"West Bengal"},{"name":"Uluberiya","lat":22.4756,"lon":88.09898,"population":235345,"iso_a3":"IND","country":"India","is_capital":false,"name_en":"Uluberiya","name_es":"Uluberiya","name_fr":"Uluberiya","name_it":"Uluberiya","name_ru":"Uluberiya","elevation":10.0,"timezone":"Asia/Kolkata","admin1_name":"West Bengal"},{"name":"Shrīrāmpur","lat":22.75278,"lon":88.34222,"population":226317,"iso_a3":"IND","country":"India","is_capital":false,"name_en":"Serampore","name_es":"Serampore","name_fr":"Serampore","name_it":"Serampore","name_ru":"Serampore","elevation":11.0,"timezone":"Asia/Kolkata","admin1_name":"West Bengal"},{"name":"Kharagpur","lat":22.33971,"lon":87.32501,"population":219665,"iso_a3":"IND","country":"India","is_capital":false,"name_en":"Kharagpur","name_es":"Kharagpur","name_fr":"Kharagpur","name_it":"Kharagpur","name_ru":"Харагпур","elevation":42.0,"timezone":"Asia/Kolkata","admin1_name":"West Bengal"},{"name":"Baharampur","lat":24.10473,"lon":88.25155,"population":180547,"iso_a3":"IND","country":"India","is_capital":false,"name_en":"Baharampur","name_es":"Baharampur","name_fr":"Baharampur","name_it":"Baharampur","name_ru":"Бахарампур","elevation":24.0,"timezone":"Asia/Kolkata","admin1_name":"West Bengal"},{"name":"Haldia","lat":22.06046,"lon":88.10975,"population":170695,"iso_a3":"IND","country":"India","is_capital":false,"name_en":"Haldia","name_es":"Haldia","name_fr":"Haldia","name_it":"Haldia","name_ru":"Haldia","elevation":6.0,"timezone":"Asia/Kolkata","admin1_name":"West Bengal"},{"name":"Madhyamgram","lat":22.68944,"lon":88.44594,"population":161126,"iso_a3":"IND","country":"India","is_capital":false,"name_en":"Madhyamgram","name_es":"Madhyamgram","name_fr":"Madhyamgram","name_it":"Madhyamgram","name_ru":"Madhyamgram","elevation":10.0,"timezone":"Asia/Kolkata","admin1_name":"West Bengal"},{"name":"Medinīpur","lat":22.42114,"lon":87.32257,"population":153349,"iso_a3":"IND","country":"India","is_capital":false,"name_en":"Medinīpur","name_es":"Medinīpur","name_fr":"Medinīpur","name_it":"Medinīpur","name_ru":"Миднапор","elevation":47.0,"timezone":"Asia/Kolkata","admin1_name":"West Bengal"},{"name":"Shāntipur","lat":23.24723,"lon":88.43302,"population":149983,"iso_a3":"IND","country":"India","is_capital":false,"name_en":"Shāntipur","name_es":"Shāntipur","name_fr":"Shāntipur","name_it":"Shāntipur","name_ru":"Shāntipur","elevation":15.0,"timezone":"Asia/Kolkata","admin1_name":"West Bengal"},{"name":"Krishnanagar","lat":23.40576,"lon":88.49073,"population":145926,"iso_a3":"IND","country":"India","is_capital":false,"name_en":"Krishnanagar","name_es":"Krishnanagar","name_fr":"Krishnanagar","name_it":"Krishnanagar","name_ru":"Кришнанагар","elevation":16.0,"timezone":"Asia/Kolkata","admin1_name":"West Bengal"},{"name":"Basirhat City","lat":22.66142,"lon":88.85477,"population":143007,"iso_a3":"IND","country":"India","is_capital":false,"name_en":"Basirhat City","name_es":"Basirhat City","name_fr":"Basirhat City","name_it":"Basirhat City","name_ru":"Basirhat City","elevation":9.0,"timezone":"Asia/Kolkata","admin1_name":"West Bengal"},{"name":"Hābra","lat":22.84202,"lon":88.65606,"population":139297,"iso_a3":"IND","country":"India","is_capital":false,"name_en":"Hābra","name_es":"Hābra","name_fr":"Hābra","name_it":"Hābra","name_ru":"Hābra","elevation":13.0,"timezone":"Asia/Kolkata","admin1_name":"West Bengal"},{"name":"Kānchrāpāra","lat":22.95998,"lon":88.42849,"population":136954,"iso_a3":"IND","country":"India","is_capital":false,"name_en":"Kanchrapara","name_es":"Kanchrapara","name_fr":"Kanchrapara","name_it":"Kanchrapara","name_ru":"Kanchrapara","elevation":10.0,"timezone":"Asia/Kolkata","admin1_name":"West Bengal"},{"name":"Dam Dam","lat":22.63341,"lon":88.42286,"population":122719,"iso_a3":"IND","country":"India","is_capital":false,"name_en":"Dum Dum","name_es":"Dum Dum","name_fr":"Dum Dum","name_it":"Dum Dum","name_ru":"Dum Dum","elevation":9.0,"timezone":"Asia/Kolkata","admin1_name":"West Bengal"},{"name":"Bangaon","lat":23.04553,"lon":88.83084,"population":111693,"iso_a3":"IND","country":"India","is_capital":false,"name_en":"Bangaon","name_es":"Bangaon","name_fr":"Bangaon","name_it":"Bangaon","name_ru":"Бангаон","elevation":11.0,"timezone":"Asia/Kolkata","admin1_name":"West Bengal"},{"name":"Navadwīp","lat":23.4067,"lon":88.36861,"population":111123,"iso_a3":"IND","country":"India","is_capital":false,"name_en":"Nabadwip","name_es":"Nabadwip","name_fr":"Nabadwip","name_it":"Nabadwip","name_ru":"Навадвип","elevation":17.0,"timezone":"Asia/Kolkata","admin1_name":"West Bengal"},{"name":"Jangipur","lat":24.47001,"lon":88.07659,"population":82548,"iso_a3":"IND","country":"India","is_capital":false,"name_en":"Jangipur","name_es":"Jangipur","name_fr":"Jangipur","name_it":"Jangipur","name_ru":"Jangipur","elevation":27.0,"timezone":"Asia/Kolkata","admin1_name":"West Bengal"},{"name":"Kātoya","lat":23.64558,"lon":88.13258,"population":78408,"iso_a3":"IND","country":"India","is_capital":false,"name_en":"Kātoya","name_es":"Kātoya","name_fr":"Kātoya","name_it":"Kātoya","name_ru":"Kātoya","elevation":22.0,"timezone":"Asia/Kolkata","admin1_name":"West Bengal"},{"name":"Budge Budge","lat":22.48275,"lon":88.18176,"population":76837,"iso_a3":"IND","country":"India","is_capital":false,"name_en":"Budge Budge","name_es":"Budge Budge","name_fr":"Budge Budge","name_it":"Budge Budge","name_ru":"Budge Budge","elevation":7.0,"timezone":"Asia/Kolkata","admin1_name":"West Bengal"},{"name":"Bolpur","lat":23.66278,"lon":87.69695,"population":70998,"iso_a3":"IND","country":"India","is_capital":false,"name_en":"Bolpur","name_es":"Bolpur","name_fr":"Bolpur","name_it":"Bolpur","name_ru":"Bolpur","elevation":57.0,"timezone":"Asia/Kolkata","admin1_name":"West Bengal"},{"name":"Rānāghāt","lat":23.17623,"lon":88.56667,"population":70984,"iso_a3":"IND","country":"India","is_capital":false,"name_en":"Rānāghāt","name_es":"Rānāghāt","name_fr":"Rānāghāt","name_it":"Rānāghāt","name_ru":"Rānāghāt","elevation":17.0,"timezone":"Asia/Kolkata","admin1_name":"West Bengal"},{"name":"Siuri","lat":23.90806,"lon":87.52773,"population":64659,"iso_a3":"IND","country":"India","is_capital":false,"name_en":"Siuri","name_es":"Siuri","name_fr":"Siuri","name_it":"Siuri","name_ru":"Siuri","elevation":84.0,"timezone":"Asia/Kolkata","admin1_name":"West Bengal"},{"name":"Bishnupur","lat":23.0738,"lon":87.31991,"population":64041,"iso_a3":"IND","country":"India","is_capital":false,"name_en":"Bishnupur","name_es":"Bishnupur","name_fr":"Bishnupur","name_it":"Bishnupur","name_ru":"Бишнупур","elevation":73.0,"timezone":"Asia/Kolkata","admin1_name":"West Bengal"},{"name":"Arāmbāgh","lat":22.88333,"lon":87.78333,"population":60639,"iso_a3":"IND","country":"India","is_capital":false,"name_en":"Arāmbāgh","name_es":"Arāmbāgh","name_fr":"Arāmbāgh","name_it":"Arāmbāgh","name_ru":"Arāmbāgh","elevation":23.0,"timezone":"Asia/Kolkata","admin1_name":"West Bengal"},{"name":"Bankra","lat":22.60291,"lon":88.27751,"population":56273,"iso_a3":"IND","country":"India","is_capital":false,"name_en":"Bankra","name_es":"Bankra","name_fr":"Bankra","name_it":"Bankra","name_ru":"Bankra","elevation":6.0,"timezone":"Asia/Kolkata","admin1_name":"West Bengal"},{"name":"Kāndi","lat":23.95946,"lon":88.04018,"population":54848,"iso_a3":"IND","country":"India","is_capital":false,"name_en":"Kāndi","name_es":"Kāndi","name_fr":"Kāndi","name_it":"Kāndi","name_ru":"Kāndi","elevation":26.0,"timezone":"Asia/Kolkata","admin1_name":"West Bengal"},{"name":"Ghātāl","lat":22.66244,"lon":87.73399,"population":54658,"iso_a3":"IND","country":"India","is_capital":false,"name_en":"Ghātāl","name_es":"Ghātāl","name_fr":"Ghātāl","name_it":"Ghātāl","name_ru":"Ghātāl","elevation":12.0,"timezone":"Asia/Kolkata","admin1_name":"West Bengal"},{"name":"Kālna","lat":23.21944,"lon":88.36295,"population":53964,"iso_a3":"IND","country":"India","is_capital":false,"name_en":"Kalna","name_es":"Kalna","name_fr":"Kalna","name_it":"Kalna","name_ru":"Кална","elevation":19.0,"timezone":"Asia/Kolkata","admin1_name":"West Bengal"},{"name":"Rampur Hat","lat":24.17737,"lon":87.78275,"population":53468,"iso_a3":"IND","country":"India","is_capital":false,"name_en":"Rampur Hat","name_es":"Rampur Hat","name_fr":"Rampur Hat","name_it":"Rampur Hat","name_ru":"Rampur Hat","elevation":42.0,"timezone":"Asia/Kolkata","admin1_name":"West Bengal"},{"name":"Baruipur","lat":22.36544,"lon":88.4325,"population":53128,"iso_a3":"IND","country":"India","is_capital":false,"name_en":"Baruipur","name_es":"Baruipur","name_fr":"Baruipur","name_it":"Baruipur","name_ru":"Baruipur","elevation":10.0,"timezone":"Asia/Kolkata","admin1_name":"West Bengal"},{"name":"Badūria","lat":22.74431,"lon":88.78655,"population":49547,"iso_a3":"IND","country":"India","is_capital":false,"name_en":"Badūria","name_es":"Badūria","name_fr":"Badūria","name_it":"Badūria","name_ru":"Бадурии","elevation":9.0,"timezone":"Asia/Kolkata","admin1_name":"West Bengal"},{"name":"Tamlūk","lat":22.30083,"lon":87.92593,"population":48646,"iso_a3":"IND","country":"India","is_capital":false,"name_en":"Tamlūk","name_es":"Tamlūk","name_fr":"Tamlūk","name_it":"Tamlūk","name_ru":"Tamlūk","elevation":8.0,"timezone":"Asia/Kolkata","admin1_name":"West Bengal"},{"name":"Dumka","lat":24.26778,"lon":87.24855,"population":47663,"iso_a3":"IND","country":"India","is_capital":false,"name_en":"Dumka","name_es":"Dumka","name_fr":"Dumka","name_it":"Dumka","name_ru":"Думка","elevation":150.0,"timezone":"Asia/Kolkata","admin1_name":"Jharkhand"},{"name":"Memāri","lat":23.17647,"lon":88.09749,"population":44448,"iso_a3":"IND","country":"India","is_capital":false,"name_en":"Memāri","name_es":"Memāri","name_fr":"Memāri","name_it":"Memāri","name_ru":"Memāri","elevation":25.0,"timezone":"Asia/Kolkata","admin1_name":"West Bengal"},{"name":"Gobārdānga","lat":22.8774,"lon":88.75479,"population":43808,"iso_a3":"IND","country":"India","is_capital":false,"name_en":"Gobārdānga","name_es":"Gobārdānga","name_fr":"Gobārdānga","name_it":"Gobārdānga","name_ru":"Gobārdānga","elevation":14.0,"timezone":"Asia/Kolkata","admin1_name":"West Bengal"},{"name":"Sainthia","lat":23.94826,"lon":87.68045,"population":43221,"iso_a3":"IND","country":"India","is_capital":false,"name_en":"Sainthia","name_es":"Sainthia","name_fr":"Sainthia","name_it":"Sainthia","name_ru":"Sainthia","elevation":60.0,"timezone":"Asia/Kolkata","admin1_name":"West Bengal"},{"name":"Canning","lat":22.31399,"lon":88.66508,"population":42132,"iso_a3":"IND","country":"India","is_capital":false,"name_en":"Canning Town","name_es":"Canning Town","name_fr":"Canning Town","name_it":"Canning Town","name_ru":"Canning Town","elevation":9.0,"timezone":"Asia/Kolkata","admin1_name":"West Bengal"},{"name":"Diamond Harbour","lat":22.19268,"lon":88.18951,"population":41802,"iso_a3":"IND","country":"India","is_capital":false,"name_en":"Diamond Harbour","name_es":"Diamond Harbour","name_fr":"Diamond Harbour","name_it":"Diamond Harbour","name_ru":"Diamond Harbour","elevation":5.0,"timezone":"Asia/Kolkata","admin1_name":"West Bengal"},{"name":"Tāki","lat":22.58867,"lon":88.93253,"population":40113,"iso_a3":"IND","country":"India","is_capital":false,"name_en":"Tāki","name_es":"Tāki","name_fr":"Tāki","name_it":"Tāki","name_ru":"Такой","elevation":10.0,"timezone":"Asia/Kolkata","admin1_name":"West Bengal"},{"name":"Murshidābād","lat":24.1839,"lon":88.27171,"population":39557,"iso_a3":"IND","country":"India","is_capital":false,"name_en":"Murshidābād","name_es":"Murshidābād","name_fr":"Murshidābād","name_it":"Murshidābād","name_ru":"Муршидабад","elevation":25.0,"timezone":"Asia/Kolkata","admin1_name":"West Bengal"},{"name":"Dubrājpur","lat":23.7902,"lon":87.37648,"population":35087,"iso_a3":"IND","country":"India","is_capital":false,"name_en":"Dubrājpur","name_es":"Dubrājpur","name_fr":"Dubrājpur","name_it":"Dubrājpur","name_ru":"Dubrājpur","elevation":100.0,"timezone":"Asia/Kolkata","admin1_name":"West Bengal"},{"name":"Guskhara","lat":23.49276,"lon":87.73484,"population":33780,"iso_a3":"IND","country":"India","is_capital":false,"name_en":"Guskhara","name_es":"Guskhara","name_fr":"Guskhara","name_it":"Guskhara","name_ru":"Guskhara","elevation":41.0,"timezone":"Asia/Kolkata","admin1_name":"West Bengal"},{"name":"Tarakeswar","lat":22.88605,"lon":88.01363,"population":30475,"iso_a3":"IND","country":"India","is_capital":false,"name_en":"Tarakeswar","name_es":"Tarakeswar","name_fr":"Tarakeswar","name_it":"Tarakeswar","name_ru":"Tarakeswar","elevation":14.0,"timezone":"Asia/Kolkata","admin1_name":"West Bengal"}]