[{"name":"Hāthazāri","lat":22.50515,"lon":91.81339,"population":498179,"iso_a3":"BGD","country":"Bangladesh","is_capital":false,"name_en":"Hāthazāri","name_es":"Hāthazāri","name_fr":"Hāthazāri","name_it":"Hāthazāri","name_ru":"Hāthazāri","elevation":9.0,"timezone":"Asia/Dhaka","admin1_name":"Chittagong"},{"name":"Bāndarban","lat":22.19534,"lon":92.21946,"population":495272,"iso_a3":"BGD","country":"Bangladesh","is_capital":false,"name_en":"Bāndarban","name_es":"Bāndarban","name_fr":"Bāndarban","name_it":"Bāndarban","name_ru":"Бандарбан","elevation":24.0,"timezone":"Asia/Dhaka","admin1_name":"Chittagong"},{"name":"Kafrul","lat":23.78822,"lon":90.37359,"population":339734,"iso_a3":"BGD","country":"Bangladesh","is_capital":false,"name_en":"Kafrul","name_es":"Kafrul","name_fr":"Kafrul","name_it":"Kafrul","name_ru":"Kafrul","elevation":13.0,"timezone":"Asia/Dhaka","admin1_name":"Dhaka Division"},{"name":"Tungi","lat":23.89154,"lon":90.40232,"population":337579,"iso_a3":"BGD","country":"Bangladesh","is_capital":false,"name_en":"Tongi","name_es":"Tongi","name_fr":"Tongi","name_it":"Tongi","name_ru":"Tongi","elevation":13.0,"timezone":"Asia/Dhaka","admin1_name":"Dhaka Division"},{"name":"Bhatara","lat":23.8,"lon":90.45,"population":324300,"iso_a3":"BGD","country":"Bangladesh","is_capital":false,"name_en":"Bhatara","name_es":"Bhatara","name_fr":"Bhatara","name_it":"Bhatara","name_ru":"Bhatara","elevation":4.0,"timezone":"Asia/Dhaka","admin1_name":"Dhaka Division"},{"name":"Savar","lat":23.84858,"lon":90.25002,"population":286008,"iso_a3":"BGD","country":"Bangladesh","is_capital":false,"name_en":"Savar Upazila","name_es":"Savar Upazila","name_fr":"Savar Upazila","name_it":"Savar Upazila","name_ru":"Савар","elevation":10.0,"timezone":"Asia/Dhaka","admin1_name":"Dhaka Division"},{"name":"Narsingdi","lat":23.92298,"lon":90.71768,"population":281080,"iso_a3":"BGD","country":"Bangladesh","is_capital":false,"name_en":"Narsingdi","name_es":"Narsingdi","name_fr":"Narsingdi","name_it":"Narsingdi","name_ru":"Narsingdi","elevation":13.0,"timezone":"Asia/Dhaka","admin1_name":"Dhaka Division"},{"name":"Nagar Naluākot","lat":24.15608,"lon":90.7728,"population":273000,"iso_a3":"BGD","country":"Bangladesh","is_capital":false,"name_en":"Nogor Noluakot","name_es":"Nogor Noluakot","name_fr":"Nogor Noluakot","name_it":"Nogor Noluakot","name_ru":"Nogor Noluakot","elevation":19.0,"timezone":"Asia/Dhaka","admin1_name":"Dhaka Division"},{"name":"Brāhmanbāria","lat":23.97464,"lon":91.11228,"population":264326,"iso_a3":"BGD","country":"Bangladesh","is_capital":false,"name_en":"Brāhmanbāria","name_es":"Brāhmanbāria","name_fr":"Brāhmanbāria","name_it":"Brāhmanbāria","name_ru":"Brāhmanbāria","elevation":15.0,"timezone":"Asia/Dhaka","admin1_name":"Chittagong"},{"name":"Narayanganj","lat":23.61352,"lon":90.50298,"population":223622,"iso_a3":"BGD","country":"Bangladesh","is_capital":false,"name_en":"Narayanganj","name_es":"Narayanganj","name_fr":"Narayanganj","name_it":"Narayanganj","name_ru":"Narayanganj","elevation":13.0,"timezone":"Asia/Dhaka","admin1_name":"Dhaka Division"},{"name":"Ashuganj City","lat":24.04016,"lon":91.0117,"population":210356,"iso_a3":"BGD","country":"Bangladesh","is_capital":false,"name_en":"Ashuganj City","name_es":"Ashuganj City","name_fr":"Ashuganj City","name_it":"Ashuganj City","name_ru":"Ashuganj City","elevation":17.0,"timezone":"Asia/Dhaka","admin1_name":"Chittagong"},{"name":"Karnaphuli","lat":22.69056,"lon":92.23472,"population":203697,"iso_a3":"BGD","country":"Bangladesh","is_capital":false,"name_en":"Karnaphuli","name_es":"Karnaphuli","name_fr":"Karnaphuli","name_it":"Karnaphuli","name_ru":"Karnaphuli","elevation":46.0,"timezone":"Asia/Dhaka","admin1_name":"Chittagong"},{"name":"Chāndpur","lat":23.22714,"lon":90.65433,"population":203000,"iso_a3":"BGD","country":"Bangladesh","is_capital":false,"name_en":"Chāndpur","name_es":"Chāndpur","name_fr":"Chāndpur","name_it":"Chāndpur","name_ru":"Chāndpur","elevation":13.0,"timezone":"Asia/Dhaka","admin1_name":"Chittagong"},{"name":"Barishal","lat":22.70497,"lon":90.37013,"population":202242,"iso_a3":"BGD","country":"Bangladesh","is_capital":false,"name_en":"Barishal","name_es":"Barishal","name_fr":"Barishal","name_it":"Barishal","name_ru":"Барисал","elevation":10.0,"timezone":"Asia/Dhaka","admin1_name":"Barisal Division"},{"name":"Maijdi","lat":22.86667,"lon":91.1,"population":132185,"iso_a3":"BGD","country":"Bangladesh","is_capital":false,"name_en":"Maijdi","name_es":"Maijdi","name_fr":"Maijdi","name_it":"Maijdi","name_ru":"Maijdi","elevation":11.0,"timezone":"Asia/Dhaka","admin1_name":"Chittagong"},{"name":"Sonārgaon","lat":23.65,"lon":90.61667,"population":130000,"iso_a3":"BGD","country":"Bangladesh","is_capital":false,"name_en":"Sonargaon","name_es":"Sonargaon","name_fr":"Sonargaon","name_it":"Sonargaon","name_ru":"Сонаргаон","elevation":9.0,"timezone":"Asia/Dhaka","admin1_name":"Dhaka Division"},{"name":"Rangamati","lat":22.64317,"lon":92.19186,"population":106069,"iso_a3":"BGD","country":"Bangladesh","is_capital":false,"name_en":"Rangamati","name_es":"Rangamati","name_fr":"Rangamati","name_it":"Rangamati","name_ru":"Rangamati","elevation":44.0,"timezone":"Asia/Dhaka","admin1_name":"Chittagong"},{"name":"Bhola","lat":22.68759,"lon":90.64403,"population":99079,"iso_a3":"BGD","country":"Bangladesh","is_capital":false,"name_en":"Bhola District","name_es":"Bhola District","name_fr":"Bhola District","name_it":"Bhola District","name_ru":"Бхола","elevation":7.0,"timezone":"Asia/Dhaka","admin1_name":"Barisal Division"},{"name":"Kishorganj","lat":24.43944,"lon":90.78291,"population":90690,"iso_a3":"BGD","country":"Bangladesh","is_capital":false,"name_en":"Kishorganj","name_es":"Kishorganj","name_fr":"Kishorganj","name_it":"Kishorganj","name_ru":"Kishorganj","elevation":16.0,"timezone":"Asia/Dhaka","admin1_name":"Dhaka Division"},{"name":"Bibir Hat","lat":22.68347,"lon":91.79058,"population":89030,"iso_a3":"BGD","country":"Bangladesh","is_capital":false,"name_en":"Bibir Hat","name_es":"Bibir Hat","name_fr":"Bibir Hat","name_it":"Bibir Hat","name_ru":"Bibir Hat","elevation":13.0,"timezone":"Asia/Dhaka","admin1_name":"Chittagong"},{"name":"Habiganj","lat":24.38044,"lon":91.41299,"population":88760,"iso_a3":"BGD","country":"Bangladesh","is_capital":false,"name_en":"Habiganj","name_es":"Habiganj","name_fr":"Habiganj","name_it":"Habiganj","name_ru":"Хабигандж","elevation":15.0,"timezone":"Asia/Dhaka","admin1_name":"Sylhet Division"},{"name":"Madaripur","lat":23.17097,"lon":90.20935,"population":84789,"iso_a3":"BGD","country":"Bangladesh","is_capital":false,"name_en":"Madaripur","name_es":"Madaripur","name_fr":"Madaripur","name_it":"Madaripur","name_ru":"Madaripur","elevation":10.0,"timezone":"Asia/Dhaka","admin1_name":"Dhaka Division"},{"name":"Feni","lat":23.0144,"lon":91.3966,"population":84028,"iso_a3":"BGD","country":"Bangladesh","is_capital":false,"name_en":"Feni","name_es":"Feni","name_fr":"Feni","name_it":"Feni","name_ru":"Фени","elevation":12.0,"timezone":"Asia/Dhaka","admin1_name":"Chittagong"},{"name":"Lākshām","lat":23.24018,"lon":91.12143,"population":82290,"iso_a3":"BGD","country":"Bangladesh","is_capital":false,"name_en":"Lākshām","name_es":"Lākshām","name_fr":"Lākshām","name_it":"Lākshām","name_ru":"Lākshām","elevation":10.0,"timezone":"Asia/Dhaka","admin1_name":"Chittagong"},{"name":"Mānikganj","lat":23.85768,"lon":90.00957,"population":71698,"iso_a3":"BGD","country":"Bangladesh","is_capital":false,"name_en":"Mānikganj","name_es":"Mānikganj","name_fr":"Mānikganj","name_it":"Mānikganj","name_ru":"Mānikganj","elevation":15.0,"timezone":"Asia/Dhaka","admin1_name":"Dhaka Division"},{"name":"Pālang","lat":23.21824,"lon":90.35076,"population":67652,"iso_a3":"BGD","country":"Bangladesh","is_capital":false,"name_en":"Pālang","name_es":"Pālang","name_fr":"Pālang","name_it":"Pālang","name_ru":"Pālang","elevation":12.0,"timezone":"Asia/Dhaka","admin1_name":"Dhaka Division"},{"name":"Patuakhali","lat":22.36833,"lon":90.3458,"population":65000,"iso_a3":"BGD","country":"Bangladesh","is_capital":false,"name_en":"Patuakhali","name_es":"Patuakhali","name_fr":"Patuakhali","name_it":"Patuakhali","name_ru":"Patuakhali","elevation":10.0,"timezone":"Asia/Dhaka","admin1_name":"Barisal Division"},{"name":"Rāipur","lat":23.0391,"lon":90.76808,"population":64652,"iso_a3":"BGD","country":"Bangladesh","is_capital":false,"name_en":"Rāipur","name_es":"Rāipur","name_fr":"Rāipur","name_it":"Rāipur","name_ru":"Райпур","elevation":13.0,"timezone":"Asia/Dhaka","admin1_name":"Chittagong"},{"name":"Lakshmīpur","lat":22.9443,"lon":90.83005,"population":61703,"iso_a3":"BGD","country":"Bangladesh","is_capital":false,"name_en":"Lakshmīpur","name_es":"Lakshmīpur","name_fr":"Lakshmīpur","name_it":"Lakshmīpur","name_ru":"Lakshmīpur","elevation":11.0,"timezone":"Asia/Dhaka","admin1_name":"Chittagong"},{"name":"Maulavi Bāzār","lat":24.48888,"lon":91.77075,"population":57441,"iso_a3":"BGD","country":"Bangladesh","is_capital":false,"name_en":"Maulavi Bāzār","name_es":"Maulavi Bāzār","name_fr":"Maulavi Bāzār","name_it":"Maulavi Bāzār","name_ru":"Maulavi Bāzār","elevation":19.0,"timezone":"Asia/Dhaka","admin1_name":"Sylhet Division"},{"name":"Rāmganj","lat":23.1006,"lon":90.84989,"population":55241,"iso_a3":"BGD","country":"Bangladesh","is_capital":false,"name_en":"Rāmganj","name_es":"Rāmganj","name_fr":"Rāmganj","name_it":"Rāmganj","name_ru":"Rāmganj","elevation":14.0,"timezone":"Asia/Dhaka","admin1_name":"Chittagong"},{"name":"Sandwīp","lat":22.51409,"lon":91.45491,"population":52152,"iso_a3":"BGD","country":"Bangladesh","is_capital":false,"name_en":"Sandwīp","name_es":"Sandwīp","name_fr":"Sandwīp","name_it":"Sandwīp","name_ru":"Сандвип","elevation":7.0,"timezone":"Asia/Dhaka","admin1_name":"Chittagong"},{"name":"Sātkania","lat":22.07639,"lon":92.04955,"population":52005,"iso_a3":"BGD","country":"Bangladesh","is_capital":false,"name_en":"Sātkania","name_es":"Sātkania","name_fr":"Sātkania","name_it":"Sātkania","name_ru":"Sātkania","elevation":13.0,"timezone":"Asia/Dhaka","admin1_name":"Chittagong"},{"name":"Patiya","lat":22.29543,"lon":91.979,"population":51360,"iso_a3":"BGD","country":"Bangladesh","is_capital":false,"name_en":"Patiya","name_es":"Patiya","name_fr":"Patiya","name_it":"Patiya","name_ru":"Patiya","elevation":11.0,"timezone":"Asia/Dhaka","admin1_name":"Chittagong"},{"name":"Gopālganj","lat":23.22348,"lon":90.06041,"population":51346,"iso_a3":"BGD","country":"Bangladesh","is_capital":false,"name_en":"Gopālganj","name_es":"Gopālganj","name_fr":"Gopālganj","name_it":"Gopālganj","name_ru":"Gopālganj","elevation":9.0,"timezone":"Asia/Dhaka","admin1_name":"Dhaka Division"},{"name":"Khagrachhari","lat":23.10787,"lon":91.97007,"population":50364,"iso_a3":"BGD","country":"Bangladesh","is_capital":false,"name_en":"Khagrachhari","name_es":"Khagrachhari","name_fr":"Khagrachhari","name_it":"Khagrachhari","name_ru":"Кхаграчари","elevation":47.0,"timezone":"Asia/Dhaka","admin1_name":"Chittagong"},{"name":"Uttar Char Fasson","lat":22.22647,"lon":90.71275,"population":48305,"iso_a3":"BGD","country":"Bangladesh","is_capital":false,"name_en":"Uttar Char Fasson","name_es":"Uttar Char Fasson","name_fr":"Uttar Char Fasson","name_it":"Uttar Char Fasson","name_ru":"Uttar Char Fasson","elevation":7.0,"timezone":"Asia/Dhaka","admin1_name":"Khulna Division"},{"name":"Burhānuddin","lat":22.49518,"lon":90.72391,"population":45670,"iso_a3":"BGD","country":"Bangladesh","is_capital":false,"name_en":"Burhānuddin","name_es":"Burhānuddin","name_fr":"Burhānuddin","name_it":"Burhānuddin","name_ru":"Burhānuddin","elevation":9.0,"timezone":"Asia/Dhaka","admin1_name":"Barisal Division"},{"name":"Dohār","lat":23.59311,"lon":90.14251,"population":45543,"iso_a3":"BGD","country":"Bangladesh","is_capital":false,"name_en":"Dohār","name_es":"Dohār","name_fr":"Dohār","name_it":"Dohār","name_ru":"Dohār","elevation":14.0,"timezone":"Asia/Dhaka","admin1_name":"Dhaka Division"},{"name":"Hājīganj","lat":23.25191,"lon":90.85508,"population":44343,"iso_a3":"BGD","country":"Bangladesh","is_capital":false,"name_en":"Hājīganj","name_es":"Hājīganj","name_fr":"Hājīganj","name_it":"Hājīganj","name_ru":"Hājīganj","elevation":13.0,"timezone":"Asia/Dhaka","admin1_name":"Chittagong"},{"name":"Lālmohan","lat":22.33774,"lon":90.73708,"population":42220,"iso_a3":"BGD","country":"Bangladesh","is_capital":false,"name_en":"Lālmohan","name_es":"Lālmohan","name_fr":"Lālmohan","name_it":"Lālmohan","name_ru":"Lālmohan","elevation":10.0,"timezone":"Asia/Dhaka","admin1_name":"Barisal Division"},{"name":"Mirzāpur","lat":24.10287,"lon":90.09841,"population":41137,"iso_a3":"BGD","country":"Bangladesh","is_capital":false,"name_en":"Mirzāpur","name_es":"Mirzāpur","name_fr":"Mirzāpur","name_it":"Mirzāpur","name_ru":"Мирзапур","elevation":15.0,"timezone":"Asia/Dhaka","admin1_name":"Dhaka Division"},{"name":"Sakhipur","lat":24.31988,"lon":90.16943,"population":40869,"iso_a3":"BGD","country":"Bangladesh","is_capital":false,"name_en":"Sakhipur","name_es":"Sakhipur","name_fr":"Sakhipur","name_it":"Sakhipur","name_ru":"Sakhipur","elevation":25.0,"timezone":"Asia/Dhaka","admin1_name":"Dhaka Division"},{"name":"Gaurnadi","lat":22.97372,"lon":90.22376,"population":40519,"iso_a3":"BGD","country":"Bangladesh","is_capital":false,"name_en":"Gaurnadi","name_es":"Gaurnadi","name_fr":"Gaurnadi","name_it":"Gaurnadi","name_ru":"Gaurnadi","elevation":12.0,"timezone":"Asia/Dhaka","admin1_name":"Barisal Division"},{"name":"Dohazāri","lat":22.16385,"lon":92.07333,"population":40147,"iso_a3":"BGD","country":"Bangladesh","is_capital":false,"name_en":"Dohazāri","name_es":"Dohazāri","name_fr":"Dohazāri","name_it":"Dohazāri","name_ru":"Dohazāri","elevation":12.0,"timezone":"Asia/Dhaka","admin1_name":"Chittagong"},{"name":"Mehendiganj","lat":22.82257,"lon":90.52859,"population":39424,"iso_a3":"BGD","country":"Bangladesh","is_capital":false,"name_en":"Mehendiganj","name_es":"Mehendiganj","name_fr":"Mehendiganj","name_it":"Mehendiganj","name_ru":"Mehendiganj","elevation":9.0,"timezone":"Asia/Dhaka","admin1_name":"Barisal Division"},{"name":"Chhāgalnāiya","lat":23.02475,"lon":91.51091,"population":39335,"iso_a3":"BGD","country":"Bangladesh","is_capital":false,"name_en":"Chhāgalnāiya","name_es":"Chhāgalnāiya","name_fr":"Chhāgalnāiya","name_it":"Chhāgalnāiya","name_ru":"Chhāgalnāiya","elevation":13.0,"timezone":"Asia/Dhaka","admin1_name":"Chittagong"},{"name":"Nālchiti","lat":22.63696,"lon":90.27195,"population":38703,"iso_a3":"BGD","country":"Bangladesh","is_capital":false,"name_en":"Nālchiti","name_es":"Nālchiti","name_fr":"Nālchiti","name_it":"Nālchiti","name_ru":"Nālchiti","elevation":8.0,"timezone":"Asia/Dhaka","admin1_name":"Barisal Division"},{"name":"Baniachang","lat":24.51863,"lon":91.35787,"population":37807,"iso_a3":"BGD","country":"Bangladesh","is_capital":false,"name_en":"Baniachang","name_es":"Baniachang","name_fr":"Baniachang","name_it":"Baniachang","name_ru":"Baniachang","elevation":14.0,"timezone":"Asia/Dhaka","admin1_name":"Sylhet Division"},{"name":"Bājitpur","lat":24.21623,"lon":90.95002,"population":34560,"iso_a3":"BGD","country":"Bangladesh","is_capital":false,"name_en":"Bājitpur","name_es":"Bājitpur","name_fr":"Bājitpur","name_it":"Bājitpur","name_ru":"Bājitpur","elevation":14.0,"timezone":"Asia/Dhaka","admin1_name":"Dhaka Division"},{"name":"Char Bhadrāsan","lat":23.30916,"lon":90.22698,"population":34423,"iso_a3":"BGD","country":"Bangladesh","is_capital":false,"name_en":"Char Bhadrāsan","name_es":"Char Bhadrāsan","name_fr":"Char Bhadrāsan","name_it":"Char Bhadrāsan","name_ru":"Char Bhadrāsan","elevation":11.0,"timezone":"Asia/Dhaka","admin1_name":"Dhaka Division"},{"name":"Mātuail","lat":23.71211,"lon":90.45983,"population":34310,"iso_a3":"BGD","country":"Bangladesh","is_capital":false,"name_en":"Mātuail","name_es":"Mātuail","name_fr":"Mātuail","name_it":"Mātuail","name_ru":"Mātuail","elevation":11.0,"timezone":"Asia/Dhaka","admin1_name":"Dhaka Division"},{"name":"Gafargaon","lat":24.432,"lon":90.5585,"population":34177,"iso_a3":"BGD","country":"Bangladesh","is_capital":false,"name_en":"Gafargaon","name_es":"Gafargaon","name_fr":"Gafargaon","name_it":"Gafargaon","name_ru":"Gafargaon","elevation":16.0,"timezone":"Asia/Dhaka","admin1_name":"Mymensingh Division"},{"name":"Nabīnagar","lat":23.88791,"lon":90.96792,"population":31671,"iso_a3":"BGD","country":"Bangladesh","is_capital":false,"name_en":"Nabīnagar","name_es":"Nabīnagar","name_fr":"Nabīnagar","name_it":"Nabīnagar","name_ru":"Nabīnagar","elevation":13.0,"timezone":"Asia/Dhaka","admin1_name":"Chittagong"},{"name":"Bhāndāria","lat":22.48898,"lon":90.06273,"population":30219,"iso_a3":"BGD","country":"Bangladesh","is_capital":false,"name_en":"Bhāndāria","name_es":"Bhāndāria","name_fr":"Bhāndāria","name_it":"Bhāndāria","name_ru":"Bhāndāria","elevation":13.0,"timezone":"Asia/Dhaka","admin1_name":"Barisal Division"},{"name":"Agartala","lat":23.83605,"lon":91.27939,"population":400004,"iso_a3":"IND","country":"India","is_capital":false,"name_en":"Agartala","name_es":"Agartala","name_fr":"Agartala","name_it":"Agartala","name_ru":"Агартала","elevation":15.0,"timezone":"Asia/Kolkata","admin1_name":"Tripura"},{"name":"Aizawl","lat":23.72894,"lon":92.71791,"population":293416,"iso_a3":"IND","country":"India","is_capital":false,"name_en":"Aizawl","name_es":"Aizawl","name_fr":"Aizawl","name_it":"Aizawl","name_ru":"Аиджал","elevation":1080.0,"timezone":"Asia/Kolkata","admin1_name":"Mizoram"},{"name":"Lunglei","lat":22.89247,"lon":92.74218,"population":57011,"iso_a3":"IND","country":"India","is_capital":false,"name_en":"Lunglei","name_es":"Lunglei","name_fr":"Lunglei","name_it":"Lunglei","name_ru":"Лунглеи","elevation":1014.0,"timezone":"Asia/Kolkata","admin1_name":"Mizoram"},{"name":"Dharmanagar","lat":24.36667,"lon":92.16667,"population":40595,"iso_a3":"IND","country":"India","is_capital":false,"name_en":"Dharmanagar","name_es":"Dharmanagar","name_fr":"Dharmanagar","name_it":"Dharmanagar","name_ru":"Dharmanagar","elevation":32.0,"timezone":"Asia/Kolkata","admin1_name":"Tripura"},{"name":"Udaipur","lat":23.53333,"lon":91.48333,"population":32758,"iso_a3":"IND","country":"India","is_capital":false,"name_en":"Udaipur","name_es":"Udaipur","name_fr":"Udaipur","name_it":"Udaipur","name_ru":"Удайпур","elevation":28.0,"timezone":"Asia/Kolkata","admin1_name":"Tripura"}]