[{"name":"Dibrugarh","lat":27.47989,"lon":94.90837,"population":145488,"iso_a3":"IND","country":"India","is_capital":false,"name_en":"Dibrugarh","name_es":"Dibrugarh","name_fr":"Dibrugarh","name_it":"Dibrugarh","name_ru":"Дибругарх","elevation":110.0,"timezone":"Asia/Kolkata","admin1_name":"Assam"},{"name":"Tinsukia","lat":27.48905,"lon":95.35992,"population":116322,"iso_a3":"IND","country":"India","is_capital":false,"name_en":"Tinsukia","name_es":"Tinsukia","name_fr":"Tinsukia","name_it":"Tinsukia","name_ru":"Tinsukia","elevation":128.0,"timezone":"Asia/Kolkata","admin1_name":"Assam"},{"name":"North Lakhimpur","lat":27.23517,"lon":94.10357,"population":59841,"iso_a3":"IND","country":"India","is_capital":false,"name_en":"North Lakhimpur","name_es":"North Lakhimpur","name_fr":"North Lakhimpur","name_it":"North Lakhimpur","name_ru":"Северный Лакхимпур","elevation":96.0,"timezone":"Asia/Kolkata","admin1_name":"Assam"},{"name":"Itanagar","lat":27.08694,"lon":93.60987,"population":59490,"iso_a3":"IND","country":"India","is_capital":false,"name_en":"Itanagar","name_es":"Itanagar","name_fr":"Itanagar","name_it":"Itanagar","name_ru":"Итанагар","elevation":326.0,"timezone":"Asia/Kolkata","admin1_name":"Arunachal Pradesh"},{"name":"Naharlagun","lat":27.10467,"lon":93.69518,"population":36158,"iso_a3":"IND","country":"India","is_capital":false,"name_en":"Naharlagun","name_es":"Naharlagun","name_fr":"Naharlagun","name_it":"Naharlagun","name_ru":"Нагарлагун","elevation":159.0,"timezone":"Asia/Kolkata","admin1_name":"Arunachal Pradesh"}]