[{"name":"Insein","lat":16.88874,"lon":96.10257,"population":247675,"iso_a3":"MMR","country":"Myanmar","is_capital":false,"name_en":"Insein","name_es":"Insein","name_fr":"Insein","name_it":"Insein","name_ru":"Insein","elevation":17.0,"timezone":"Asia/Yangon","admin1_name":"Yangon"},{"name":"Bago","lat":17.33521,"lon":96.48135,"population":244376,"iso_a3":"MMR","country":"Myanmar","is_capital":false,"name_en":"Bago","name_es":"Bago","name_fr":"Pégou","name_it":"Pegu","name_ru":"Пегу","elevation":18.0,"timezone":"Asia/Yangon","admin1_name":"Bago Region"},{"name":"Kyauktan","lat":16.63736,"lon":96.32512,"population":132765,"iso_a3":"MMR","country":"Myanmar","is_capital":false,"name_en":"Kyauktan","name_es":"Kyauktan","name_fr":"Kyauktan","name_it":"Kyauktan","name_ru":"Kyauktan","elevation":26.0,"timezone":"Asia/Yangon","admin1_name":"Yangon"},{"name":"Thaton","lat":16.91867,"lon":97.37001,"population":123727,"iso_a3":"MMR","country":"Myanmar","is_capital":false,"name_en":"Thaton","name_es":"Thaton","name_fr":"Thaton","name_it":"Thaton","name_ru":"Thaton","elevation":24.0,"timezone":"Asia/Yangon","admin1_name":"Mon"},{"name":"Taungoo","lat":18.94291,"lon":96.43408,"population":106945,"iso_a3":"MMR","country":"Myanmar","is_capital":false,"name_en":"Taungoo","name_es":"Taungoo","name_fr":"Taungû","name_it":"Taungoo","name_ru":"Таунгу","elevation":56.0,"timezone":"Asia/Yangon","admin1_name":"Bago Region"},{"name":"San Chaung","lat":17.0953,"lon":96.0992,"population":99619,"iso_a3":"MMR","country":"Myanmar","is_capital":false,"name_en":"San Chaung","name_es":"San Chaung","name_fr":"San Chaung","name_it":"San Chaung","name_ru":"San Chaung","elevation":12.0,"timezone":"Asia/Yangon","admin1_name":"Yangon"},{"name":"Nyaunglebin","lat":17.95363,"lon":96.72247,"population":89626,"iso_a3":"MMR","country":"Myanmar","is_capital":false,"name_en":"Nyaunglebin","name_es":"Nyaunglebin","name_fr":"Nyaunglebin","name_it":"Nyaunglebin","name_ru":"Ньяунлебин","elevation":19.0,"timezone":"Asia/Yangon","admin1_name":"Bago Region"},{"name":"Taikkyi","lat":17.31439,"lon":95.96293,"population":88000,"iso_a3":"MMR","country":"Myanmar","is_capital":false,"name_en":"Taikkyi","name_es":"Taikkyi","name_fr":"Taikkyi","name_it":"Taikkyi","name_ru":"Taikkyi","elevation":21.0,"timezone":"Asia/Yangon","admin1_name":"Yangon"},{"name":"Thanhlyin","lat":16.78195,"lon":96.24678,"population":78667,"iso_a3":"MMR","country":"Myanmar","is_capital":false,"name_en":"Thanhlyin","name_es":"Thanhlyin","name_fr":"Thanhlyin","name_it":"Thanhlyin","name_ru":"Thanhlyin","elevation":18.0,"timezone":"Asia/Yangon","admin1_name":"Yangon"},{"name":"Kanbe","lat":16.70728,"lon":96.00168,"population":58146,"iso_a3":"MMR","country":"Myanmar","is_capital":false,"name_en":"Kanbe","name_es":"Kanbe","name_fr":"Kanbe","name_it":"Kanbe","name_ru":"Канбе","elevation":12.0,"timezone":"Asia/Yangon","admin1_name":"Yangon"},{"name":"Tharyarwady","lat":17.65399,"lon":95.78813,"population":54386,"iso_a3":"MMR","country":"Myanmar","is_capital":false,"name_en":"Tharyarwady","name_es":"Tharyarwady","name_fr":"Tharyarwady","name_it":"Tharyarwady","name_ru":"Tharyarwady","elevation":17.0,"timezone":"Asia/Yangon","admin1_name":"Bago Region"},{"name":"Thongwa","lat":16.75998,"lon":96.52498,"population":52496,"iso_a3":"MMR","country":"Myanmar","is_capital":false,"name_en":"Thongwa","name_es":"Thongwa","name_fr":"Thongwa","name_it":"Thongwa","name_ru":"Thongwa","elevation":10.0,"timezone":"Asia/Yangon","admin1_name":"Yangon"},{"name":"Hpa-An","lat":16.88953,"lon":97.63482,"population":50000,"iso_a3":"MMR","country":"Myanmar","is_capital":false,"name_en":"Hpa-An","name_es":"Hpa-An","name_fr":"Hpa-An","name_it":"Hpa-An","name_ru":"Hpa-An","elevation":18.0,"timezone":"Asia/Yangon","admin1_name":"Kayin State"},{"name":"Kyaikto","lat":17.30858,"lon":97.01124,"population":48658,"iso_a3":"MMR","country":"Myanmar","is_capital":false,"name_en":"Kyaikto","name_es":"Kyaikto","name_fr":"Kyaikto","name_it":"Kyaikto","name_ru":"Kyaikto","elevation":23.0,"timezone":"Asia/Yangon","admin1_name":"Mon"},{"name":"Twante","lat":16.70836,"lon":95.9336,"population":46516,"iso_a3":"MMR","country":"Myanmar","is_capital":false,"name_en":"Twante","name_es":"Twante","name_fr":"Twante","name_it":"Twante","name_ru":"Twante","elevation":13.0,"timezone":"Asia/Yangon","admin1_name":"Yangon"},{"name":"Maubin","lat":16.73148,"lon":95.65441,"population":42439,"iso_a3":"MMR","country":"Myanmar","is_capital":false,"name_en":"Maubin","name_es":"Maubin","name_fr":"Maubin","name_it":"Maubin","name_ru":"Maubin","elevation":11.0,"timezone":"Asia/Yangon","admin1_name":"Ayeyarwady"},{"name":"Thin Gan Kyun Gyi","lat":16.95735,"lon":96.15541,"population":42350,"iso_a3":"MMR","country":"Myanmar","is_capital":false,"name_en":"Thin Gan Kyun Gyi","name_es":"Thin Gan Kyun Gyi","name_fr":"Thin Gan Kyun Gyi","name_it":"Thin Gan Kyun Gyi","name_ru":"Thin Gan Kyun Gyi","elevation":14.0,"timezone":"Asia/Yangon","admin1_name":"Yangon"},{"name":"Pyu","lat":18.4813,"lon":96.43742,"population":40386,"iso_a3":"MMR","country":"Myanmar","is_capital":false,"name_en":"Pyu","name_es":"Pyu","name_fr":"Pyu","name_it":"Pyu","name_ru":"Pyu","elevation":55.0,"timezone":"Asia/Yangon","admin1_name":"Bago Region"},{"name":"Kayan","lat":16.90802,"lon":96.56037,"population":40322,"iso_a3":"MMR","country":"Myanmar","is_capital":false,"name_en":"Kayan","name_es":"Kayan","name_fr":"Kayan","name_it":"Kayan","name_ru":"Kayan","elevation":13.0,"timezone":"Asia/Yangon","admin1_name":"Yangon"},{"name":"Nyaungdon","lat":17.04459,"lon":95.63957,"population":40092,"iso_a3":"MMR","country":"Myanmar","is_capital":false,"name_en":"Nyaungdon","name_es":"Nyaungdon","name_fr":"Nyaungdon","name_it":"Nyaungdon","name_ru":"Nyaungdon","elevation":11.0,"timezone":"Asia/Yangon","admin1_name":"Ayeyarwady"},{"name":"Letpandan","lat":17.78664,"lon":95.75076,"population":38936,"iso_a3":"MMR","country":"Myanmar","is_capital":false,"name_en":"Letpandan","name_es":"Letpandan","name_fr":"Letpandan","name_it":"Letpandan","name_ru":"Letpandan","elevation":23.0,"timezone":"Asia/Yangon","admin1_name":"Bago Region"},{"name":"Hlegu","lat":17.09567,"lon":96.22056,"population":38757,"iso_a3":"MMR","country":"Myanmar","is_capital":false,"name_en":"Hlegu","name_es":"Hlegu","name_fr":"Hlegu","name_it":"Hlegu","name_ru":"Hlegu","elevation":13.0,"timezone":"Asia/Yangon","admin1_name":"Yangon"},{"name":"Daik-u","lat":17.79506,"lon":96.66983,"population":38477,"iso_a3":"MMR","country":"Myanmar","is_capital":false,"name_en":"Daik-u","name_es":"Daik-u","name_fr":"Daik-u","name_it":"Daik-u","name_ru":"Daik-u","elevation":18.0,"timezone":"Asia/Yangon","admin1_name":"Bago Region"},{"name":"Thanatpin","lat":17.29136,"lon":96.57523,"population":38059,"iso_a3":"MMR","country":"Myanmar","is_capital":false,"name_en":"Thanatpin","name_es":"Thanatpin","name_fr":"Thanatpin","name_it":"Thanatpin","name_ru":"Thanatpin","elevation":13.0,"timezone":"Asia/Yangon","admin1_name":"Bago Region"},{"name":"Kyauktaga","lat":17.49468,"lon":96.97758,"population":31656,"iso_a3":"MMR","country":"Myanmar","is_capital":false,"name_en":"Kyauktaga","name_es":"Kyauktaga","name_fr":"Kyauktaga","name_it":"Kyauktaga","name_ru":"Kyauktaga","elevation":40.0,"timezone":"Asia/Yangon","admin1_name":"Mon"}]