[{"name":"Lhokseumawe","lat":5.1801,"lon":97.1507,"population":196067,"iso_a3":"IDN","country":"Indonesia","is_capital":false,"name_en":"Lhokseumawe","name_es":"Lhokseumawe","name_fr":"Lhokseumawe","name_it":"Lhokseumawe","name_ru":"Локсеумаве","elevation":6.0,"timezone":"Asia/Jakarta","admin1_name":"Aceh"},{"name":"Langsa","lat":4.4683,"lon":97.9683,"population":194730,"iso_a3":"IDN","country":"Indonesia","is_capital":false,"name_en":"Langsa","name_es":"Langsa","name_fr":"Langsa","name_it":"Langsa","name_ru":"Langsa","elevation":10.0,"timezone":"Asia/Jakarta","admin1_name":"Aceh"},{"name":"Meulaboh","lat":4.14402,"lon":96.12664,"population":64646,"iso_a3":"IDN","country":"Indonesia","is_capital":false,"name_en":"Meulaboh","name_es":"Meulaboh","name_fr":"Meulaboh","name_it":"Meulaboh","name_ru":"Мелабоха","elevation":7.0,"timezone":"Asia/Jakarta","admin1_name":"Aceh"},{"name":"Bireun","lat":5.203,"lon":96.7009,"population":47670,"iso_a3":"IDN","country":"Indonesia","is_capital":false,"name_en":"Bireun","name_es":"Bireun","name_fr":"Bireun","name_it":"Bireun","name_ru":"Bireun","elevation":19.0,"timezone":"Asia/Jakarta","admin1_name":"Aceh"},{"name":"Reuleuet","lat":5.21667,"lon":96.28333,"population":40393,"iso_a3":"IDN","country":"Indonesia","is_capital":false,"name_en":"Reuleuet","name_es":"Reuleuet","name_fr":"Reuleuet","name_it":"Reuleuet","name_ru":"Reuleuet","elevation":9.0,"timezone":"Asia/Jakarta","admin1_name":"Aceh"}]