[{"name":"Alor Setar","lat":6.12104,"lon":100.36014,"population":417800,"iso_a3":"MYS","country":"Malaysia","is_capital":false,"name_en":"Alor Star","name_es":"Alor Star","name_fr":"Alor Star","name_it":"Alor Star","name_ru":"Алор-Сетар","elevation":7.0,"timezone":"Asia/Kuala_Lumpur","admin1_name":"Kedah"},{"name":"Pendang","lat":5.99516,"lon":100.47885,"population":94033,"iso_a3":"MYS","country":"Malaysia","is_capital":false,"name_en":"Pendang","name_es":"Pendang","name_fr":"Pendang","name_it":"Pendang","name_ru":"Pendang","elevation":8.0,"timezone":"Asia/Kuala_Lumpur","admin1_name":"Kedah"},{"name":"Yan Besar","lat":5.7989,"lon":100.37264,"population":67653,"iso_a3":"MYS","country":"Malaysia","is_capital":false,"name_en":"Yan Besar","name_es":"Yan Besar","name_fr":"Yan Besar","name_it":"Yan Besar","name_ru":"Yan Besar","elevation":9.0,"timezone":"Asia/Kuala_Lumpur","admin1_name":"Kedah"},{"name":"Kangar","lat":6.4414,"lon":100.19862,"population":63869,"iso_a3":"MYS","country":"Malaysia","is_capital":false,"name_en":"Kangar","name_es":"Kangar","name_fr":"Kangar","name_it":"Kangar","name_ru":"Кангар","elevation":8.0,"timezone":"Asia/Kuala_Lumpur","admin1_name":"Perlis"},{"name":"Jitra","lat":6.26812,"lon":100.42167,"population":63489,"iso_a3":"MYS","country":"Malaysia","is_capital":false,"name_en":"Jitra","name_es":"Jitra","name_fr":"Jitra","name_it":"Jitra","name_ru":"Jitra","elevation":17.0,"timezone":"Asia/Kuala_Lumpur","admin1_name":"Kedah"},{"name":"Bedong","lat":5.72743,"lon":100.50876,"population":47585,"iso_a3":"MYS","country":"Malaysia","is_capital":false,"name_en":"Bedong","name_es":"Bedong","name_fr":"Bedong","name_it":"Bedong","name_ru":"Bedong","elevation":6.0,"timezone":"Asia/Kuala_Lumpur","admin1_name":"Kedah"},{"name":"Kampung Alor Mengkudu","lat":6.08838,"lon":100.39167,"population":38193,"iso_a3":"MYS","country":"Malaysia","is_capital":false,"name_en":"Kampung Alor Mengkudu","name_es":"Kampung Alor Mengkudu","name_fr":"Kampung Alor Mengkudu","name_it":"Kampung Alor Mengkudu","name_ru":"Kampung Alor Mengkudu","elevation":6.0,"timezone":"Asia/Kuala_Lumpur","admin1_name":"Kedah"},{"name":"Sik","lat":5.83333,"lon":100.75,"population":32565,"iso_a3":"MYS","country":"Malaysia","is_capital":false,"name_en":"Sik","name_es":"Sik","name_fr":"Sik","name_it":"Sik","name_ru":"Sik","elevation":76.0,"timezone":"Asia/Kuala_Lumpur","admin1_name":"Kedah"},{"name":"Kuah","lat":6.32649,"lon":99.8432,"population":30212,"iso_a3":"MYS","country":"Malaysia","is_capital":false,"name_en":"Kuah","name_es":"Kuah","name_fr":"Kuah","name_it":"Kuah","name_ru":"Куах","elevation":11.0,"timezone":"Asia/Kuala_Lumpur","admin1_name":"Kedah"},{"name":"Tokai","lat":6.02867,"lon":100.40691,"population":30000,"iso_a3":"MYS","country":"Malaysia","is_capital":false,"name_en":"Tokai","name_es":"Tokai","name_fr":"Tokai","name_it":"Tokai","name_ru":"Tokai","elevation":7.0,"timezone":"Asia/Kuala_Lumpur","admin1_name":"Kedah"},{"name":"Hat Yai","lat":7.00836,"lon":100.47668,"population":191696,"iso_a3":"THA","country":"Thailand","is_capital":false,"name_en":"Hat Yai","name_es":"Hat Yai","name_fr":"Hat Yai","name_it":"Hat Yai","name_ru":"Хатъяй","elevation":12.0,"timezone":"Asia/Bangkok","admin1_name":"Songkhla"},{"name":"Ban Mai","lat":7.20411,"lon":100.54508,"population":86899,"iso_a3":"THA","country":"Thailand","is_capital":false,"name_en":"Ban Mai","name_es":"Ban Mai","name_fr":"Ban Mai","name_it":"Ban Mai","name_ru":"Ban Mai","elevation":6.0,"timezone":"Asia/Bangkok","admin1_name":"Songkhla"},{"name":"Trang","lat":7.55633,"lon":99.61141,"population":66713,"iso_a3":"THA","country":"Thailand","is_capital":false,"name_en":"Trang","name_es":"Trang","name_fr":"Trang","name_it":"Trang","name_ru":"Транг","elevation":27.0,"timezone":"Asia/Bangkok","admin1_name":"Trang"},{"name":"Songkhla","lat":7.19882,"lon":100.5951,"population":61758,"iso_a3":"THA","country":"Thailand","is_capital":false,"name_en":"Songkhla","name_es":"Songkhla","name_fr":"Songkhla","name_it":"Songkhla","name_ru":"Сонгкхла","elevation":12.0,"timezone":"Asia/Bangkok","admin1_name":"Songkhla"},{"name":"Sadao","lat":6.63883,"lon":100.42342,"population":46236,"iso_a3":"THA","country":"Thailand","is_capital":false,"name_en":"Sadao","name_es":"Sadao","name_fr":"Sadao","name_it":"Sadao","name_ru":"Садао","elevation":50.0,"timezone":"Asia/Bangkok","admin1_name":"Songkhla"},{"name":"Phatthalung","lat":7.61786,"lon":100.07792,"population":43522,"iso_a3":"THA","country":"Thailand","is_capital":false,"name_en":"Phatthalung","name_es":"Phatthalung","name_fr":"Phattalung","name_it":"Phatthalung","name_ru":"Пхетчабун","elevation":14.0,"timezone":"Asia/Bangkok","admin1_name":"Phatthalung"},{"name":"Satun","lat":6.62314,"lon":100.06676,"population":34544,"iso_a3":"THA","country":"Thailand","is_capital":false,"name_en":"Satun","name_es":"Satun","name_fr":"Satun","name_it":"Satun","name_ru":"Сатун","elevation":15.0,"timezone":"Asia/Bangkok","admin1_name":"Satun"},{"name":"Krabi","lat":8.07257,"lon":98.91052,"population":31219,"iso_a3":"THA","country":"Thailand","is_capital":false,"name_en":"Krabi","name_es":"Krabi","name_fr":"Krabi","name_it":"Krabi","name_ru":"Краби","elevation":14.0,"timezone":"Asia/Bangkok","admin1_name":"Krabi"}]